~Version ---------------------------------------------------
VERS. 2.0 : CWLS log ASCII Standard -VERSION 2.0
WRAP.  NO : One line per depth step
~Well ------------------------------------------------------
STRT.F                     2587.0 : 
STOP.F                     9110.0 : 
STEP.F                        0.5 : 
NULL.                     -999.25 : 
COMP. HALLIBURTON ENERGY SERVICES : Company Name
WELL.        UNIVERSITY 6-17 NO.1 : Well Name
FLD .                     WILDCAT : Field Name
LOC .                  SECTION 17 : Location
SLOC.         2377 FSL X 1065 FWL : SURFACE Location
SECT.                             : Section
TOWN.                             : Township
RANG.                             : Range
COUN.                      REAGAN : County
STAT.                          TX : State
CTRY.                         USA : Country
SRVC. HALLIBURTON ENERGY SERVICES : Service Company
DATE.                    06-21-97 : DATE as MM/DD/YY
APIN.                42-303-34774 : API Well Number
UWI .              42303347740000 : UNIQUE WELL ID
PD  .                        G.L. : Permanent Datum
RUN .                         TWO : Run Number
DMF .                        K.B. : Drilling Measured From
LMF .                        K.B. : Logging Measured From
TCS .                             : Time Circulation Stopped
TLAB.                             : Time Logger at Bottom
DFT .                  FRESHWATER : Drilling Fluid Type
MCSS.                        MEAS : Mud Cake Sample Source
MFSS.                        MEAS : Mud Filtrate Sample Source
MSS .                         PIT : Mud Sample Source
LCCN.                             : Logging Company Name
LUL .                      ODESSA : Equiptment Location
LUN .                             : Logging Unit Number
ENGI.                     JOHNSON : Logging Engineer's Name
WITN.                    VAN-LIEW : Witness's Name
~Curves ----------------------------------------------------
DEPT     .F    00 000 00 00 : 1  Depth Curve
CALI     .INCH 99 075 22 05 : 2  CALIPER
DPHI     .DECP 99 075 22 05 : 3  DENSITY POROSITY -LIME-
GR       .GAPI 99 075 22 05 : 4  GAMMA RAY
NPHI     .DECP 99 075 22 05 : 5  NEUTRON POROSITY -LIME-
PE       .B/E  99 075 22 05 : 6  PHOTO-ELECTRIC FACTOR
RHOB     .G/C3 99 075 22 05 : 7  BULK DENSITY
PHIX     .DECP 99 075 22 05 : 8  CROSSPLOT POROSITY
C13      .INCH 99 075 22 05 : 9  CALIPER PADS 1 - 3    -FACT-
C24      .INCH 99 075 22 05 : 10  CALIPER PADS 2 - 4    -FACT-
DT       .US/F 99 075 22 05 : 11  SONIC TRANSIT TIME
SPHI     .DECP 99 075 22 05 : 12  SONIC POROSITY  -LIME-
GR3      .     99 075 22 05 : 13  GAMMA RAY
ILD      .OHMM 99 075 22 05 : 14  IL, DEEP RESISTIVITY
ILM      .OHMM 99 075 22 05 : 15  IL, MEDIUM RESISTIVITY
SGRD     .OHMM 99 075 22 05 : 16  SHORT GUARD RESISTIVITY
SP       .MV   99 075 22 05 : 17  SPONTANEOUS POTENTIAL
CAL_N    .INCH 99 075 22 05 : 9  CALIPER PADS 1 - 3    -FACT-
GR_N     .GAPI 99 075 22 05 : 4  GAMMA RAY
RESMED_N .OHMM 99 075 22 05 : 15  IL, MEDIUM RESISTIVITY
RESDEEP_N.OHMM 99 075 22 05 : 14  IL, DEEP RESISTIVITY
NPHI_N   .DECP 99 075 22 05 : 5  NEUTRON POROSITY -LIME-
DPHI_N   .DECP 99 075 22 05 : 3  DENSITY POROSITY -LIME-
SPHI_N   .DECP 99 075 22 05 : 12  SONIC POROSITY  -LIME-
PE_N     .B/E  99 075 22 05 : 6  PHOTO-ELECTRIC FACTOR
RHOB_N   .G/C3 99 075 22 05 : 7  BULK DENSITY
DTC_N    .US/F 99 075 22 05 : 11  SONIC TRANSIT TIME
SP_N     .MV   99 075 22 05 : 17  SPONTANEOUS POTENTIAL
~Params ----------------------------------------------------
EDF .F   2636.0 : Elevation, Derrick Floor
EGL .F   2653.0 : Elevation, Ground Level
EKB .F   2654.0 : Elevation, Kelly Bushing
EPD .F   2636.0 : Elevation Perminent Datum
TDD .F   9097.0 : Total Depth-Driller
TDL .F   9097.0 : Total Depth-Logger
CBD .F   3119.0 : Casing Bottom Driller 1
CBL .F   3119.0 : Casing Bottom Logger 1
TLI .F   3119.0 : Top Logged Interval
BLI .F   9093.0 : Bottom Logged Interval
DFD .LB/G   9.0 : Drilling Fluid Density
DFPH.----  10.5 : Drilling Fluid Ph
DFL .C3     8.0 : Drilling Fluid Loss
DFV .CP    54.0 : Drilling Fluid Viscosity
RM  .CP    54.0 : Mud Sample Resistivity
MST .DEGF  74.0 : Mud Sample Temperature
RMF .DEGF  74.0 : Mud Filtrate Resistivity
MFST.DEGF  74.0 : Mud Filtrate Sample Temp
RMC .DEGF  74.0 : Mud Cake Resistivity
MCST.DEGF  74.0 : Mud Cake Sample Temperature
MRT .DEGF 141.0 : Maximum Recorded Temperature
BHT .DEGF 141.0 : Bottom Hole Temperature
~Other -----------------------------------------------------
~ASCII -----------------------------------------------------
# ...
       7449       9.25      0.089     85.943      0.216      3.367      2.557      0.165          9      8.575     76.548      0.205     84.889     18.959     19.597     50.648     62.288          9     85.943     19.597     18.959      0.216      0.089      0.205      3.367      2.557     76.548     62.288
     7449.5       9.25        0.1     87.787      0.208      3.317       2.54      0.165      8.992      8.567     78.322      0.217     85.339     19.506     19.561      56.56     62.276      8.992     87.787     19.561     19.506      0.208        0.1      0.217      3.317       2.54     78.322     62.276
       7450       9.25       0.11      91.87       0.21      3.313      2.522       0.17      8.988      8.567     76.389      0.204     88.766     20.382     19.822      47.98      61.76      8.988      91.87     19.822     20.382       0.21       0.11      0.204      3.313      2.522     76.389      61.76
     7450.5      9.266      0.118     93.145      0.229      3.425      2.509      0.183       8.99      8.574     78.009      0.215     86.743     21.322     20.542     42.316     61.908       8.99     93.145     20.542     21.322      0.229      0.118      0.215      3.425      2.509     78.009     61.908
       7451      9.258       0.12     89.734      0.249      3.203      2.505      0.194       8.99      8.583      78.77       0.22     84.721     22.243     21.486     39.528     61.642       8.99     89.734     21.486     22.243      0.249       0.12       0.22      3.203      2.505      78.77     61.642
     7451.5      9.242      0.119     89.337       0.23       3.15      2.506      0.184      8.996      8.579     76.823      0.207     82.193     23.198     22.604     45.553     61.529      8.996     89.337     22.604     23.198       0.23      0.119      0.207       3.15      2.506     76.823     61.529
       7452      9.242      0.121     86.339      0.206      3.137      2.504      0.172       9.02      8.579     78.813      0.221     83.766     24.226      24.04     48.032     61.191       9.02     86.339      24.04     24.226      0.206      0.121      0.221      3.137      2.504     78.813     61.191
     7452.5       9.25      0.115     82.928      0.204      3.249      2.513      0.169      9.039      8.574     80.889      0.235     82.417     25.134     26.032     52.339     61.363      9.039     82.928     26.032     25.134      0.204      0.115      0.235      3.249      2.513     80.889     61.363
       7453      9.242      0.112     82.842      0.221      3.381      2.519      0.176      9.041      8.577     80.545      0.233      84.44     25.662     28.152      59.06     61.102      9.041     82.842     28.152     25.662      0.221      0.112      0.233      3.381      2.519     80.545     61.102
     7453.5       9.25      0.111     81.429      0.223      3.299      2.521      0.177      9.047      8.576     76.244      0.203     82.642     25.715     29.353     74.969     60.557      9.047     81.429     29.353     25.715      0.223      0.111      0.203      3.299      2.521     76.244     60.557
       7454      9.258      0.111     79.378      0.201      3.314       2.52      0.165      9.046      8.571     74.828      0.193     81.238     25.326     29.024     99.549     60.913      9.046     79.378     29.024     25.326      0.201      0.111      0.193      3.314       2.52     74.828     60.913
     7454.5      9.291      0.108     79.051      0.191       3.36      2.526      0.159      9.034      8.571     77.166      0.209     83.092     24.645     27.503     78.981     60.877      9.034     79.051     27.503     24.645      0.191      0.108      0.209       3.36      2.526     77.166     60.877
       7455      9.266      0.116     83.841      0.202      3.218      2.512      0.168      9.043      8.573     77.234       0.21     88.485     23.774     25.601     64.579     61.742      9.043     83.841     25.601     23.774      0.202      0.116       0.21      3.218      2.512     77.234     61.742
     7455.5      9.234      0.127     89.303       0.22      2.969      2.493      0.182      9.041       8.57     75.014      0.194     98.036     22.892     23.719     49.459     61.725      9.041     89.303     23.719     22.892       0.22      0.127      0.194      2.969      2.493     75.014     61.725
       7456      9.234       0.13       93.8      0.234      2.907      2.488       0.19      9.042      8.564     73.577      0.184     107.19     22.248     22.222     46.609     61.879      9.042       93.8     22.222     22.248      0.234       0.13      0.184      2.907      2.488     73.577     61.879
     7456.5      9.258      0.121     97.401      0.247      2.922      2.504      0.194      9.031      8.576     75.623      0.198     108.65     21.922     21.423      45.25     61.985      9.031     97.401     21.423     21.922      0.247      0.121      0.198      2.922      2.504     75.623     61.985
       7457      9.266      0.118     97.367      0.249        2.9      2.508      0.194      9.019      8.587     78.914      0.221     107.31     21.903     21.496     41.341     61.245      9.019     97.367     21.496     21.903      0.249      0.118      0.221        2.9      2.508     78.914     61.245
     7457.5      9.291      0.116     96.367      0.246      3.088      2.512      0.191      9.019      8.587     79.716      0.227     103.54     22.061      22.34     41.264     61.156      9.019     96.367      22.34     22.061      0.246      0.116      0.227      3.088      2.512     79.716     61.156
       7458      9.266        0.1     91.284      0.231      3.287      2.539      0.177      9.012      8.582     80.925      0.236     93.991     22.377     23.475     43.923     61.553      9.012     91.284     23.475     22.377      0.231        0.1      0.236      3.287      2.539     80.925     61.553
     7458.5      9.266      0.092     84.289      0.196      3.317      2.553      0.156      9.018      8.583     81.319      0.238     87.361     22.917     24.334     53.524     61.891      9.018     84.289     24.334     22.917      0.196      0.092      0.238      3.317      2.553     81.319     61.891
       7459      9.266      0.086     83.669       0.17      3.398      2.563      0.139      9.019      8.582     78.803      0.221     86.743     23.706     24.739     67.626     62.151      9.019     83.669     24.739     23.706       0.17      0.086      0.221      3.398      2.563     78.803     62.151
     7459.5      9.291      0.085     85.874      0.173      3.364      2.564       0.14      9.028      8.578     77.348       0.21     85.226     24.563     24.984      63.21     62.649      9.028     85.874     24.984     24.563      0.173      0.085       0.21      3.364      2.564     77.348     62.649
       7460      9.315      0.107     89.113      0.202       3.28      2.528      0.164      9.029      8.572     76.639      0.205     89.159      25.22     25.424     55.576     62.252      9.029     89.113     25.424      25.22      0.202      0.107      0.205       3.28      2.528     76.639     62.252
     7460.5      9.315      0.126     92.783      0.223      3.252      2.494      0.183       9.02      8.572     74.103      0.187     89.552     25.696     25.862     49.889     62.987       9.02     92.783     25.862     25.696      0.223      0.126      0.187      3.252      2.494     74.103     62.987
       7461      9.291      0.121     95.282      0.228      3.156      2.503      0.183      9.019       8.57     73.027       0.18      95.62     26.223     26.232     55.927     63.544      9.019     95.282     26.232     26.223      0.228      0.121       0.18      3.156      2.503     73.027     63.544
     7461.5      9.266      0.127      99.83      0.219      3.092      2.493      0.182       9.02      8.568     74.734      0.192     101.69     27.119     26.776     56.166     63.526       9.02      99.83     26.776     27.119      0.219      0.127      0.192      3.092      2.493     74.734     63.526
