~Version ---------------------------------------------------
VERS. 2.0 : CWLS log ASCII Standard -VERSION 2.0
WRAP.  NO : One line per depth step
~Well ------------------------------------------------------
STRT.F                     2587.0 : 
STOP.F                     9110.0 : 
STEP.F                        0.5 : 
NULL.                     -999.25 : 
COMP. HALLIBURTON ENERGY SERVICES : Company Name
WELL.        UNIVERSITY 6-17 NO.1 : Well Name
FLD .                     WILDCAT : Field Name
LOC .                  SECTION 17 : Location
SLOC.         2377 FSL X 1065 FWL : SURFACE Location
SECT.                             : Section
TOWN.                             : Township
RANG.                             : Range
COUN.                      REAGAN : County
STAT.                          TX : State
CTRY.                         USA : Country
SRVC. HALLIBURTON ENERGY SERVICES : Service Company
DATE.                    06-21-97 : DATE as MM/DD/YY
APIN.                42-303-34774 : API Well Number
UWI .              42303347740000 : UNIQUE WELL ID
PD  .                        G.L. : Permanent Datum
RUN .                         TWO : Run Number
DMF .                        K.B. : Drilling Measured From
LMF .                        K.B. : Logging Measured From
TCS .                             : Time Circulation Stopped
TLAB.                             : Time Logger at Bottom
DFT .                  FRESHWATER : Drilling Fluid Type
MCSS.                        MEAS : Mud Cake Sample Source
MFSS.                        MEAS : Mud Filtrate Sample Source
MSS .                         PIT : Mud Sample Source
LCCN.                             : Logging Company Name
LUL .                      ODESSA : Equiptment Location
LUN .                             : Logging Unit Number
ENGI.                     JOHNSON : Logging Engineer's Name
WITN.                    VAN-LIEW : Witness's Name
~Curves ----------------------------------------------------
DEPT     .F    00 000 00 00 : 1  Depth Curve
CALI     .INCH 99 075 22 05 : 2  CALIPER
DPHI     .DECP 99 075 22 05 : 3  DENSITY POROSITY -LIME-
GR       .GAPI 99 075 22 05 : 4  GAMMA RAY
NPHI     .DECP 99 075 22 05 : 5  NEUTRON POROSITY -LIME-
PE       .B/E  99 075 22 05 : 6  PHOTO-ELECTRIC FACTOR
RHOB     .G/C3 99 075 22 05 : 7  BULK DENSITY
PHIX     .DECP 99 075 22 05 : 8  CROSSPLOT POROSITY
C13      .INCH 99 075 22 05 : 9  CALIPER PADS 1 - 3    -FACT-
C24      .INCH 99 075 22 05 : 10  CALIPER PADS 2 - 4    -FACT-
DT       .US/F 99 075 22 05 : 11  SONIC TRANSIT TIME
SPHI     .DECP 99 075 22 05 : 12  SONIC POROSITY  -LIME-
GR3      .     99 075 22 05 : 13  GAMMA RAY
ILD      .OHMM 99 075 22 05 : 14  IL, DEEP RESISTIVITY
ILM      .OHMM 99 075 22 05 : 15  IL, MEDIUM RESISTIVITY
SGRD     .OHMM 99 075 22 05 : 16  SHORT GUARD RESISTIVITY
SP       .MV   99 075 22 05 : 17  SPONTANEOUS POTENTIAL
CAL_N    .INCH 99 075 22 05 : 9  CALIPER PADS 1 - 3    -FACT-
GR_N     .GAPI 99 075 22 05 : 4  GAMMA RAY
RESMED_N .OHMM 99 075 22 05 : 15  IL, MEDIUM RESISTIVITY
RESDEEP_N.OHMM 99 075 22 05 : 14  IL, DEEP RESISTIVITY
NPHI_N   .DECP 99 075 22 05 : 5  NEUTRON POROSITY -LIME-
DPHI_N   .DECP 99 075 22 05 : 3  DENSITY POROSITY -LIME-
SPHI_N   .DECP 99 075 22 05 : 12  SONIC POROSITY  -LIME-
PE_N     .B/E  99 075 22 05 : 6  PHOTO-ELECTRIC FACTOR
RHOB_N   .G/C3 99 075 22 05 : 7  BULK DENSITY
DTC_N    .US/F 99 075 22 05 : 11  SONIC TRANSIT TIME
SP_N     .MV   99 075 22 05 : 17  SPONTANEOUS POTENTIAL
~Params ----------------------------------------------------
EDF .F   2636.0 : Elevation, Derrick Floor
EGL .F   2653.0 : Elevation, Ground Level
EKB .F   2654.0 : Elevation, Kelly Bushing
EPD .F   2636.0 : Elevation Perminent Datum
TDD .F   9097.0 : Total Depth-Driller
TDL .F   9097.0 : Total Depth-Logger
CBD .F   3119.0 : Casing Bottom Driller 1
CBL .F   3119.0 : Casing Bottom Logger 1
TLI .F   3119.0 : Top Logged Interval
BLI .F   9093.0 : Bottom Logged Interval
DFD .LB/G   9.0 : Drilling Fluid Density
DFPH.----  10.5 : Drilling Fluid Ph
DFL .C3     8.0 : Drilling Fluid Loss
DFV .CP    54.0 : Drilling Fluid Viscosity
RM  .CP    54.0 : Mud Sample Resistivity
MST .DEGF  74.0 : Mud Sample Temperature
RMF .DEGF  74.0 : Mud Filtrate Resistivity
MFST.DEGF  74.0 : Mud Filtrate Sample Temp
RMC .DEGF  74.0 : Mud Cake Resistivity
MCST.DEGF  74.0 : Mud Cake Sample Temperature
MRT .DEGF 141.0 : Maximum Recorded Temperature
BHT .DEGF 141.0 : Bottom Hole Temperature
~Other -----------------------------------------------------
~ASCII -----------------------------------------------------
# ...
       4147      9.512      0.127     87.011      0.229      2.693      2.492      0.187      9.581      9.371     75.834        0.2     76.575      7.978       7.63      8.822     41.797      9.581     87.011       7.63      7.978      0.229      0.127        0.2      2.693      2.492     75.834     41.797
     4147.5      9.496      0.131     83.548      0.219       2.69      2.487      0.183      9.583      9.371     75.744      0.199     73.091       7.82      7.508      8.397     40.072      9.583     83.548      7.508       7.82      0.219      0.131      0.199       2.69      2.487     75.744     40.072
       4148      9.447      0.141         78      0.209      2.613       2.47      0.182      9.584      9.372     75.253      0.196     71.406      7.688      7.341       8.37     39.017      9.584         78      7.341      7.688      0.209      0.141      0.196      2.613       2.47     75.253     39.017
     4148.5      9.455      0.145     73.227        0.2      2.568      2.463      0.179      9.593      9.366     74.141      0.188     67.529      7.637      7.176      8.463     39.136      9.593     73.227      7.176      7.637        0.2      0.145      0.188      2.568      2.463     74.141     39.136
       4149      9.496      0.141     70.643      0.195      2.573      2.468      0.175      9.594      9.355     72.811      0.178      67.81       7.67        7.1      8.265     39.705      9.594     70.643        7.1       7.67      0.195      0.141      0.178      2.573      2.468     72.811     39.705
     4149.5      9.496      0.143     69.678      0.198      2.585      2.466      0.177      9.595      9.348     72.125      0.173     71.743      7.752      7.155      8.027     40.339      9.595     69.678      7.155      7.752      0.198      0.143      0.173      2.585      2.466     72.125     40.339
       4150      9.488      0.145      73.09        0.2      2.581      2.463      0.179      9.594      9.364     71.837      0.171      78.26      7.846      7.312      8.106     42.905      9.594      73.09      7.312      7.846        0.2      0.145      0.171      2.581      2.463     71.837     42.905
     4150.5       9.52      0.133     78.207      0.204       2.61      2.482      0.176      9.591      9.408     71.814      0.171     87.755      7.956      7.505        8.7     44.724      9.591     78.207      7.505      7.956      0.204      0.133      0.171       2.61      2.482     71.814     44.724
       4151      9.569      0.127     84.513      0.214      2.659      2.493      0.179      9.581      9.437      72.25      0.174     98.092      8.105      7.682      9.411     46.525      9.581     84.513      7.682      8.105      0.214      0.127      0.174      2.659      2.493      72.25     46.525
     4151.5      9.553      0.121      88.08      0.219       2.74      2.503      0.179       9.58       9.46     73.617      0.184        105      8.305      7.848      9.827      47.42       9.58      88.08      7.848      8.305      0.219      0.121      0.184       2.74      2.503     73.617      47.42
       4152      9.553      0.119     92.508      0.233       2.81      2.506      0.185      9.583      9.487     74.959      0.193     106.13      8.524      8.026      9.894     47.971      9.583     92.508      8.026      8.524      0.233      0.119      0.193       2.81      2.506     74.959     47.971
     4152.5      9.553      0.117     94.369      0.251      2.775      2.509      0.194      9.576       9.52      75.68      0.199     106.69      8.717      8.206      9.849     49.287      9.576     94.369      8.206      8.717      0.251      0.117      0.199      2.775      2.509      75.68     49.287
       4153      9.553      0.125      94.73      0.249       2.75      2.497      0.196      9.579      9.541     76.334      0.203     106.07       8.85      8.368       9.91     49.713      9.579      94.73      8.368       8.85      0.249      0.125      0.203       2.75      2.497     76.334     49.713
     4153.5      9.553      0.123     99.606      0.251      2.761      2.499      0.196      9.579       9.56       76.9      0.207     108.99       8.92      8.492     10.051     50.288      9.579     99.606      8.492       8.92      0.251      0.123      0.207      2.761      2.499       76.9     50.288
       4154      9.553      0.123     102.04      0.255      2.756        2.5      0.198      9.591      9.582     76.961      0.208     111.18      8.952      8.569     10.235      51.23      9.591     102.04      8.569      8.952      0.255      0.123      0.208      2.756        2.5     76.961      51.23
     4154.5      9.553      0.128     100.81      0.267      2.704      2.491      0.206      9.588        9.6     77.175      0.209     112.98       8.97      8.596     10.405     51.556      9.588     100.81      8.596       8.97      0.267      0.128      0.209      2.704      2.491     77.175     51.556
       4155      9.504      0.124     101.93      0.268      2.735      2.498      0.205      9.571      9.615     77.611      0.212     111.74      8.987       8.59     10.428     52.125      9.571     101.93       8.59      8.987      0.268      0.124      0.212      2.735      2.498     77.611     52.125
     4155.5       9.52       0.13     102.09      0.268      2.776      2.488      0.208      9.567      9.607     78.541      0.219     105.84      9.012      8.571     10.312      52.19      9.567     102.09      8.571      9.012      0.268       0.13      0.219      2.776      2.488     78.541      52.19
       4156      9.569      0.129     100.55      0.268      2.815       2.49      0.207      9.581      9.599      79.95      0.229     102.03      9.039      8.552     10.228     52.943      9.581     100.55      8.552      9.039      0.268      0.129      0.229      2.815       2.49      79.95     52.943
     4156.5      9.553      0.123     103.72      0.261       2.82      2.499      0.201      9.579      9.603     80.748      0.234     98.878      9.071      8.544     10.169     52.196      9.579     103.72      8.544      9.071      0.261      0.123      0.234       2.82      2.499     80.748     52.196
       4157      9.553      0.124     103.83      0.266       2.79      2.499      0.204      9.568       9.61     80.316      0.231     98.822      9.116       8.56     10.112     51.912      9.568     103.83       8.56      9.116      0.266      0.124      0.231       2.79      2.499     80.316     51.912
     4157.5      9.553      0.122     101.16      0.267      2.788      2.502      0.204      9.562      9.613     79.206      0.224       96.8      9.167      8.611     10.142     51.556      9.562     101.16      8.611      9.167      0.267      0.122      0.224      2.788      2.502     79.206     51.556
       4158      9.553      0.113     100.38      0.271      2.797      2.516      0.202      9.565      9.606      79.35      0.225     95.788      9.221       8.69     10.233      51.13      9.565     100.38       8.69      9.221      0.271      0.113      0.225      2.797      2.516      79.35      51.13
     4158.5      9.553       0.12     95.161      0.265      2.759      2.504      0.202      9.564      9.602     79.347      0.225     96.013      9.275      8.771     10.442     51.171      9.564     95.161      8.771      9.275      0.265       0.12      0.225      2.759      2.504     79.347     51.171
       4159      9.553      0.124     91.681      0.255      2.712      2.497      0.199      9.552      9.597     77.294       0.21     93.766      9.323      8.834      10.69     51.503      9.552     91.681      8.834      9.323      0.255      0.124       0.21      2.712      2.497     77.294     51.503
     4159.5      9.553      0.127     92.611      0.249      2.723      2.492      0.197      9.537      9.583     76.136      0.202     94.215      9.363      8.865     10.862     51.604      9.537     92.611      8.865      9.363      0.249      0.127      0.202      2.723      2.492     76.136     51.604
