~Version ---------------------------------------------------
VERS. 2.0 : CWLS log ASCII Standard -VERSION 2.0
WRAP.  NO : One line per depth step
~Well ------------------------------------------------------
STRT.F                     2587.0 : 
STOP.F                     9110.0 : 
STEP.F                        0.5 : 
NULL.                     -999.25 : 
COMP. HALLIBURTON ENERGY SERVICES : Company Name
WELL.        UNIVERSITY 6-17 NO.1 : Well Name
FLD .                     WILDCAT : Field Name
LOC .                  SECTION 17 : Location
SLOC.         2377 FSL X 1065 FWL : SURFACE Location
SECT.                             : Section
TOWN.                             : Township
RANG.                             : Range
COUN.                      REAGAN : County
STAT.                          TX : State
CTRY.                         USA : Country
SRVC. HALLIBURTON ENERGY SERVICES : Service Company
DATE.                    06-21-97 : DATE as MM/DD/YY
APIN.                42-303-34774 : API Well Number
UWI .              42303347740000 : UNIQUE WELL ID
PD  .                        G.L. : Permanent Datum
RUN .                         TWO : Run Number
DMF .                        K.B. : Drilling Measured From
LMF .                        K.B. : Logging Measured From
TCS .                             : Time Circulation Stopped
TLAB.                             : Time Logger at Bottom
DFT .                  FRESHWATER : Drilling Fluid Type
MCSS.                        MEAS : Mud Cake Sample Source
MFSS.                        MEAS : Mud Filtrate Sample Source
MSS .                         PIT : Mud Sample Source
LCCN.                             : Logging Company Name
LUL .                      ODESSA : Equiptment Location
LUN .                             : Logging Unit Number
ENGI.                     JOHNSON : Logging Engineer's Name
WITN.                    VAN-LIEW : Witness's Name
~Curves ----------------------------------------------------
DEPT     .F    00 000 00 00 : 1  Depth Curve
CALI     .INCH 99 075 22 05 : 2  CALIPER
DPHI     .DECP 99 075 22 05 : 3  DENSITY POROSITY -LIME-
GR       .GAPI 99 075 22 05 : 4  GAMMA RAY
NPHI     .DECP 99 075 22 05 : 5  NEUTRON POROSITY -LIME-
PE       .B/E  99 075 22 05 : 6  PHOTO-ELECTRIC FACTOR
RHOB     .G/C3 99 075 22 05 : 7  BULK DENSITY
PHIX     .DECP 99 075 22 05 : 8  CROSSPLOT POROSITY
C13      .INCH 99 075 22 05 : 9  CALIPER PADS 1 - 3    -FACT-
C24      .INCH 99 075 22 05 : 10  CALIPER PADS 2 - 4    -FACT-
DT       .US/F 99 075 22 05 : 11  SONIC TRANSIT TIME
SPHI     .DECP 99 075 22 05 : 12  SONIC POROSITY  -LIME-
GR3      .     99 075 22 05 : 13  GAMMA RAY
ILD      .OHMM 99 075 22 05 : 14  IL, DEEP RESISTIVITY
ILM      .OHMM 99 075 22 05 : 15  IL, MEDIUM RESISTIVITY
SGRD     .OHMM 99 075 22 05 : 16  SHORT GUARD RESISTIVITY
SP       .MV   99 075 22 05 : 17  SPONTANEOUS POTENTIAL
CAL_N    .INCH 99 075 22 05 : 9  CALIPER PADS 1 - 3    -FACT-
GR_N     .GAPI 99 075 22 05 : 4  GAMMA RAY
RESMED_N .OHMM 99 075 22 05 : 15  IL, MEDIUM RESISTIVITY
RESDEEP_N.OHMM 99 075 22 05 : 14  IL, DEEP RESISTIVITY
NPHI_N   .DECP 99 075 22 05 : 5  NEUTRON POROSITY -LIME-
DPHI_N   .DECP 99 075 22 05 : 3  DENSITY POROSITY -LIME-
SPHI_N   .DECP 99 075 22 05 : 12  SONIC POROSITY  -LIME-
PE_N     .B/E  99 075 22 05 : 6  PHOTO-ELECTRIC FACTOR
RHOB_N   .G/C3 99 075 22 05 : 7  BULK DENSITY
DTC_N    .US/F 99 075 22 05 : 11  SONIC TRANSIT TIME
SP_N     .MV   99 075 22 05 : 17  SPONTANEOUS POTENTIAL
~Params ----------------------------------------------------
EDF .F   2636.0 : Elevation, Derrick Floor
EGL .F   2653.0 : Elevation, Ground Level
EKB .F   2654.0 : Elevation, Kelly Bushing
EPD .F   2636.0 : Elevation Perminent Datum
TDD .F   9097.0 : Total Depth-Driller
TDL .F   9097.0 : Total Depth-Logger
CBD .F   3119.0 : Casing Bottom Driller 1
CBL .F   3119.0 : Casing Bottom Logger 1
TLI .F   3119.0 : Top Logged Interval
BLI .F   9093.0 : Bottom Logged Interval
DFD .LB/G   9.0 : Drilling Fluid Density
DFPH.----  10.5 : Drilling Fluid Ph
DFL .C3     8.0 : Drilling Fluid Loss
DFV .CP    54.0 : Drilling Fluid Viscosity
RM  .CP    54.0 : Mud Sample Resistivity
MST .DEGF  74.0 : Mud Sample Temperature
RMF .DEGF  74.0 : Mud Filtrate Resistivity
MFST.DEGF  74.0 : Mud Filtrate Sample Temp
RMC .DEGF  74.0 : Mud Cake Resistivity
MCST.DEGF  74.0 : Mud Cake Sample Temperature
MRT .DEGF 141.0 : Maximum Recorded Temperature
BHT .DEGF 141.0 : Bottom Hole Temperature
~Other -----------------------------------------------------
~ASCII -----------------------------------------------------
# ...
       5798      9.153      0.113     90.371      0.232      2.838      2.517      0.183       8.89      9.017     76.242      0.203     97.137      8.603      8.086     10.735     50.312       8.89     90.371      8.086      8.603      0.232      0.113      0.203      2.838      2.517     76.242     50.312
     5798.5      9.112      0.113     87.925      0.228      2.849      2.516      0.181       8.88      9.011     76.483      0.204     98.204      8.798      8.242     10.993     50.051       8.88     87.925      8.242      8.798      0.228      0.113      0.204      2.849      2.516     76.483     50.051
       5799      9.136      0.113     87.201      0.224      2.907      2.516      0.178      8.873      9.008     76.252      0.203     98.878      9.097       8.52     11.256     49.441      8.873     87.201       8.52      9.097      0.224      0.113      0.203      2.907      2.516     76.252     49.441
     5799.5      9.104      0.119     88.011      0.234      2.866      2.506      0.186       8.87      8.987     74.866      0.193     97.305      9.449      8.919     11.771     49.944       8.87     88.011      8.919      9.449      0.234      0.119      0.193      2.866      2.506     74.866     49.944
       5800       9.12      0.128     92.387      0.236      2.806      2.491      0.191      8.874      8.978     75.527      0.198      98.26      9.813      9.387     12.481     50.478      8.874     92.387      9.387      9.813      0.236      0.128      0.198      2.806      2.491     75.527     50.478
     5800.5      9.112      0.129       98.4       0.25      2.821       2.49      0.198      8.874      8.934     77.294       0.21     101.24     10.186       9.83     13.429     50.715      8.874       98.4       9.83     10.186       0.25      0.129       0.21      2.821       2.49     77.294     50.715
       5801      9.064      0.133     100.05      0.253      2.866      2.483      0.201      8.873      8.904     77.816      0.214     104.89     10.592     10.179     15.003     50.507      8.873     100.05     10.179     10.592      0.253      0.133      0.214      2.866      2.483     77.816     50.507
     5801.5      9.031      0.132     97.866      0.261      2.829      2.485      0.205       8.87       8.89     77.809      0.214     107.42         11     10.442     15.664     50.193       8.87     97.866     10.442         11      0.261      0.132      0.214      2.829      2.485     77.809     50.193
       5802      9.023      0.131     101.14      0.242      2.785      2.486      0.195      8.876      8.887     78.809      0.221     108.26     11.237     11.147     15.564      49.79      8.876     101.14     11.147     11.237      0.242      0.131      0.221      2.785      2.486     78.809      49.79
     5802.5      9.023      0.134     98.728      0.234      2.809      2.481      0.192       8.87      8.881     80.255      0.231     101.46     11.161     11.501     13.999     49.269       8.87     98.728     11.501     11.161      0.234      0.134      0.231      2.809      2.481     80.255     49.269
       5803      9.023      0.136     93.455      0.239      2.984      2.478      0.195      8.861      8.882     78.087      0.216     90.676     10.805     11.628     14.538     49.304      8.861     93.455     11.628     10.805      0.239      0.136      0.216      2.984      2.478     78.087     49.304
     5803.5      9.023      0.125     87.373      0.242      3.174      2.497      0.193      8.862      8.889     75.055      0.194     81.238     10.354     11.291     17.223     48.611      8.862     87.373     11.291     10.354      0.242      0.125      0.194      3.174      2.497     75.055     48.611
       5804      9.023      0.096     76.346      0.224      3.149      2.545      0.172      8.872      8.878     74.711      0.192     77.586     10.041      10.19     17.689      48.38      8.872     76.346      10.19     10.041      0.224      0.096      0.192      3.149      2.545     74.711      48.38
     5804.5      9.023      0.087     70.505      0.195      3.261      2.561      0.153      8.868      8.851     76.006      0.201     73.372      9.897      9.498     16.655     48.404      8.868     70.505      9.498      9.897      0.195      0.087      0.201      3.261      2.561     76.006     48.404
       5805      9.023      0.084     70.057      0.191      3.246      2.567       0.15      8.859      8.846     72.181      0.174     79.889      9.875      9.086     12.744     48.682      8.859     70.057      9.086      9.875      0.191      0.084      0.174      3.246      2.567     72.181     48.682
     5805.5      9.023      0.102     77.811      0.214      3.192      2.536      0.169      8.859      8.868     66.278      0.132     87.979      9.943      8.993     10.972     48.066      8.859     77.811      8.993      9.943      0.214      0.102      0.132      3.192      2.536     66.278     48.066
       5806      9.031      0.109     84.565       0.23       2.92      2.523       0.18       8.87      8.887     68.472      0.148     91.463     10.074      9.175     10.827     47.219       8.87     84.565      9.175     10.074       0.23      0.109      0.148       2.92      2.523     68.472     47.219
     5806.5      9.031      0.113     90.578       0.24      2.851      2.517      0.187      8.879      8.891     73.734      0.185     101.46     10.312      9.611      11.53     47.995      8.879     90.578      9.611     10.312       0.24      0.113      0.185      2.851      2.517     73.734     47.995
       5807      9.047      0.126     96.677       0.24      2.841      2.495      0.192      8.882      8.881     75.978      0.201     99.833     10.705     10.307     12.882     48.297      8.882     96.677     10.307     10.705       0.24      0.126      0.201      2.841      2.495     75.978     48.297
     5807.5      9.055      0.132     95.885      0.246       2.83      2.485      0.197      8.877      8.886     76.073      0.201     96.744     11.245       11.6     14.275     48.552      8.877     95.885       11.6     11.245      0.246      0.132      0.201       2.83      2.485     76.073     48.552
       5808      9.088      0.135     92.318      0.248      2.852      2.479        0.2      8.863      8.889     75.461      0.197     94.946     11.878     12.568      17.02     48.522      8.863     92.318     12.568     11.878      0.248      0.135      0.197      2.852      2.479     75.461     48.522
     5808.5      9.047      0.136     91.905       0.26      2.863      2.477      0.206      8.842      8.884      75.63      0.198     92.305     12.577     13.342     19.499     48.297      8.842     91.905     13.342     12.577       0.26      0.136      0.198      2.863      2.477      75.63     48.297
       5809      9.039      0.143     91.681      0.258      2.894      2.465      0.208      8.827      8.822     78.473      0.218     95.676      13.28      13.79     21.722     48.333      8.827     91.681      13.79      13.28      0.258      0.143      0.218      2.894      2.465     78.473     48.333
     5809.5      9.023       0.15     91.801      0.262       2.88      2.454      0.213      8.824      8.755      79.48      0.225     102.59      13.86     14.041     21.922     48.967      8.824     91.801     14.041      13.86      0.262       0.15      0.225       2.88      2.454      79.48     48.967
       5810      9.023      0.154     96.608      0.282      2.862      2.446      0.224      8.826      8.708      76.03      0.201     103.32     14.184     14.259     18.245     49.204      8.826     96.608     14.259     14.184      0.282      0.154      0.201      2.862      2.446      76.03     49.204
     5810.5      9.023      0.152     100.14      0.296      2.955       2.45       0.23      8.828      8.706     76.152      0.202     102.25     14.168     14.505     17.356     48.979      8.828     100.14     14.505     14.168      0.296      0.152      0.202      2.955       2.45     76.152     48.979
