~Version ---------------------------------------------------
VERS. 2.0 : CWLS log ASCII Standard -VERSION 2.0
WRAP.  NO : One line per depth step
~Well ------------------------------------------------------
STRT.F                     2587.0 : 
STOP.F                     9110.0 : 
STEP.F                        0.5 : 
NULL.                     -999.25 : 
COMP. HALLIBURTON ENERGY SERVICES : Company Name
WELL.        UNIVERSITY 6-17 NO.1 : Well Name
FLD .                     WILDCAT : Field Name
LOC .                  SECTION 17 : Location
SLOC.         2377 FSL X 1065 FWL : SURFACE Location
SECT.                             : Section
TOWN.                             : Township
RANG.                             : Range
COUN.                      REAGAN : County
STAT.                          TX : State
CTRY.                         USA : Country
SRVC. HALLIBURTON ENERGY SERVICES : Service Company
DATE.                    06-21-97 : DATE as MM/DD/YY
APIN.                42-303-34774 : API Well Number
UWI .              42303347740000 : UNIQUE WELL ID
PD  .                        G.L. : Permanent Datum
RUN .                         TWO : Run Number
DMF .                        K.B. : Drilling Measured From
LMF .                        K.B. : Logging Measured From
TCS .                             : Time Circulation Stopped
TLAB.                             : Time Logger at Bottom
DFT .                  FRESHWATER : Drilling Fluid Type
MCSS.                        MEAS : Mud Cake Sample Source
MFSS.                        MEAS : Mud Filtrate Sample Source
MSS .                         PIT : Mud Sample Source
LCCN.                             : Logging Company Name
LUL .                      ODESSA : Equiptment Location
LUN .                             : Logging Unit Number
ENGI.                     JOHNSON : Logging Engineer's Name
WITN.                    VAN-LIEW : Witness's Name
~Curves ----------------------------------------------------
DEPT     .F    00 000 00 00 : 1  Depth Curve
CALI     .INCH 99 075 22 05 : 2  CALIPER
DPHI     .DECP 99 075 22 05 : 3  DENSITY POROSITY -LIME-
GR       .GAPI 99 075 22 05 : 4  GAMMA RAY
NPHI     .DECP 99 075 22 05 : 5  NEUTRON POROSITY -LIME-
PE       .B/E  99 075 22 05 : 6  PHOTO-ELECTRIC FACTOR
RHOB     .G/C3 99 075 22 05 : 7  BULK DENSITY
PHIX     .DECP 99 075 22 05 : 8  CROSSPLOT POROSITY
C13      .INCH 99 075 22 05 : 9  CALIPER PADS 1 - 3    -FACT-
C24      .INCH 99 075 22 05 : 10  CALIPER PADS 2 - 4    -FACT-
DT       .US/F 99 075 22 05 : 11  SONIC TRANSIT TIME
SPHI     .DECP 99 075 22 05 : 12  SONIC POROSITY  -LIME-
GR3      .     99 075 22 05 : 13  GAMMA RAY
ILD      .OHMM 99 075 22 05 : 14  IL, DEEP RESISTIVITY
ILM      .OHMM 99 075 22 05 : 15  IL, MEDIUM RESISTIVITY
SGRD     .OHMM 99 075 22 05 : 16  SHORT GUARD RESISTIVITY
SP       .MV   99 075 22 05 : 17  SPONTANEOUS POTENTIAL
CAL_N    .INCH 99 075 22 05 : 9  CALIPER PADS 1 - 3    -FACT-
GR_N     .GAPI 99 075 22 05 : 4  GAMMA RAY
RESMED_N .OHMM 99 075 22 05 : 15  IL, MEDIUM RESISTIVITY
RESDEEP_N.OHMM 99 075 22 05 : 14  IL, DEEP RESISTIVITY
NPHI_N   .DECP 99 075 22 05 : 5  NEUTRON POROSITY -LIME-
DPHI_N   .DECP 99 075 22 05 : 3  DENSITY POROSITY -LIME-
SPHI_N   .DECP 99 075 22 05 : 12  SONIC POROSITY  -LIME-
PE_N     .B/E  99 075 22 05 : 6  PHOTO-ELECTRIC FACTOR
RHOB_N   .G/C3 99 075 22 05 : 7  BULK DENSITY
DTC_N    .US/F 99 075 22 05 : 11  SONIC TRANSIT TIME
SP_N     .MV   99 075 22 05 : 17  SPONTANEOUS POTENTIAL
~Params ----------------------------------------------------
EDF .F   2636.0 : Elevation, Derrick Floor
EGL .F   2653.0 : Elevation, Ground Level
EKB .F   2654.0 : Elevation, Kelly Bushing
EPD .F   2636.0 : Elevation Perminent Datum
TDD .F   9097.0 : Total Depth-Driller
TDL .F   9097.0 : Total Depth-Logger
CBD .F   3119.0 : Casing Bottom Driller 1
CBL .F   3119.0 : Casing Bottom Logger 1
TLI .F   3119.0 : Top Logged Interval
BLI .F   9093.0 : Bottom Logged Interval
DFD .LB/G   9.0 : Drilling Fluid Density
DFPH.----  10.5 : Drilling Fluid Ph
DFL .C3     8.0 : Drilling Fluid Loss
DFV .CP    54.0 : Drilling Fluid Viscosity
RM  .CP    54.0 : Mud Sample Resistivity
MST .DEGF  74.0 : Mud Sample Temperature
RMF .DEGF  74.0 : Mud Filtrate Resistivity
MFST.DEGF  74.0 : Mud Filtrate Sample Temp
RMC .DEGF  74.0 : Mud Cake Resistivity
MCST.DEGF  74.0 : Mud Cake Sample Temperature
MRT .DEGF 141.0 : Maximum Recorded Temperature
BHT .DEGF 141.0 : Bottom Hole Temperature
~Other -----------------------------------------------------
~ASCII -----------------------------------------------------
# ...
       6630      8.796      0.102     108.12      0.257      2.976      2.536      0.191      8.706      8.623     79.356      0.225     108.65     14.333     15.351     31.506     63.224      8.706     108.12     15.351     14.333      0.257      0.102      0.225      2.976      2.536     79.356     63.224
     6630.5      8.812      0.104     102.81      0.246      3.114      2.532      0.186      8.663      8.607     78.908      0.221     105.28      14.71     14.944     36.039     63.265      8.663     102.81     14.944      14.71      0.246      0.104      0.221      3.114      2.532     78.908     63.265
       6631      8.796      0.105     98.245       0.23      3.189      2.531      0.178      8.629      8.588     78.139      0.216     107.87     15.202     14.763      30.04     63.052      8.629     98.245     14.763     15.202       0.23      0.105      0.216      3.189      2.531     78.139     63.052
     6631.5      8.804      0.104     93.542      0.226      3.034      2.533      0.176      8.605      8.604     77.981      0.215     109.27     15.508     14.958     24.464     62.975      8.605     93.542     14.958     15.508      0.226      0.104      0.215      3.034      2.533     77.981     62.975
       6632      8.788      0.099     93.249      0.229      3.004       2.54      0.176      8.594      8.613     75.433      0.197     111.63     15.612     15.316     23.084     61.813      8.594     93.249     15.316     15.612      0.229      0.099      0.197      3.004       2.54     75.433     61.813
     6632.5      8.764      0.102     93.076       0.23      2.999      2.536      0.177      8.592      8.621     74.508       0.19     112.81     15.833     15.537     26.912     61.351      8.592     93.076     15.537     15.833       0.23      0.102       0.19      2.999      2.536     74.508     61.351
       6633      8.764      0.099     90.354      0.227      2.961      2.541      0.175      8.601      8.621      76.43      0.204     109.95     16.531     15.688     32.013     60.374      8.601     90.354     15.688     16.531      0.227      0.099      0.204      2.961      2.541      76.43     60.374
     6633.5       8.78      0.104      92.49      0.227      2.977      2.532      0.176      8.601      8.624     76.847      0.207     101.97     17.637     16.308     30.691     60.362      8.601      92.49     16.308     17.637      0.227      0.104      0.207      2.977      2.532     76.847     60.362
       6634       8.78      0.104     92.835      0.224      3.016      2.532      0.175      8.593      8.623     75.948        0.2     90.676     18.667     17.851     27.788     59.372      8.593     92.835     17.851     18.667      0.224      0.104        0.2      3.016      2.532     75.948     59.372
     6634.5       8.78      0.095     92.956       0.22      3.121      2.548      0.169      8.593       8.62     74.183      0.188      78.26     19.036     20.049     26.799     58.679      8.593     92.956     20.049     19.036       0.22      0.095      0.188      3.121      2.548     74.183     58.679
       6635       8.78        0.1     88.752      0.202      3.473      2.538      0.162      8.587      8.609     75.816        0.2     68.204     18.703      21.72     39.911     58.305      8.587     88.752      21.72     18.703      0.202        0.1        0.2      3.473      2.538     75.816     58.305
     6635.5      8.788      0.079     75.967      0.181      3.682      2.574      0.143      8.606      8.608     72.142      0.174     67.192     18.275     21.366     59.915     58.264      8.606     75.967     21.366     18.275      0.181      0.079      0.174      3.682      2.574     72.142     58.264
       6636      8.788      0.064     65.026      0.151      3.842        2.6      0.121      8.637      8.606     66.966      0.137     74.777     18.258     19.544     96.578     58.987      8.637     65.026     19.544     18.258      0.151      0.064      0.137      3.842        2.6     66.966     58.987
     6636.5       8.78      0.058     62.941       0.13      3.715       2.61      0.106      8.644       8.59     69.277      0.153     83.316     18.573     17.777     53.596     59.242      8.644     62.941     17.777     18.573       0.13      0.058      0.153      3.715       2.61     69.277     59.242
       6637       8.78      0.065     67.094      0.134      3.993      2.599      0.111      8.622      8.594     68.234      0.146     91.125     18.801     17.016     31.594      58.43      8.622     67.094     17.016     18.801      0.134      0.065      0.146      3.993      2.599     68.234      58.43
     6637.5      8.788      0.067     77.052      0.171       3.77      2.595      0.133      8.601      8.611     66.142      0.131      97.53       18.6     17.274     21.714     58.305      8.601     77.052     17.274       18.6      0.171      0.067      0.131       3.77      2.595     66.142     58.305
       6638      8.788      0.071     89.596      0.213      3.398      2.588      0.157      8.593      8.642     70.252       0.16     100.34     18.165     18.174     22.257     58.228      8.593     89.596     18.174     18.165      0.213      0.071       0.16      3.398      2.588     70.252     58.228
     6638.5      8.788      0.086     98.435      0.232       3.25      2.563      0.172        8.6       8.65     77.836      0.214     105.45     18.091     19.016     28.808     58.276        8.6     98.435     19.016     18.091      0.232      0.086      0.214       3.25      2.563     77.836     58.276
       6639       8.78      0.108     103.09      0.235      3.247      2.526      0.182      8.619      8.641     79.753      0.227     112.75     18.972     19.708     41.589     58.116      8.619     103.09     19.708     18.972      0.235      0.108      0.227      3.247      2.526     79.753     58.116
     6639.5       8.78      0.128      109.5      0.241      3.205      2.492      0.193       8.62      8.615     78.802      0.221     114.67     20.816      20.96     51.323      58.08       8.62      109.5      20.96     20.816      0.241      0.128      0.221      3.205      2.492     78.802      58.08
       6640      8.804      0.137     117.77      0.252      2.989      2.476      0.202      8.609      8.586      79.48      0.225     104.83      22.97      23.49     36.581     58.311      8.609     117.77      23.49      22.97      0.252      0.137      0.225      2.989      2.476      79.48     58.311
     6640.5      8.804      0.134     115.32       0.26      3.006      2.481      0.205      8.589      8.596     80.369      0.232     85.002     24.316     27.369     35.187     58.697      8.589     115.32     27.369     24.316       0.26      0.134      0.232      3.006      2.481     80.369     58.697
       6641       8.78       0.13     100.54       0.25      3.149      2.488      0.198      8.596      8.602     77.859      0.214      64.72     24.261     30.144     43.931     58.963      8.596     100.54     30.144     24.261       0.25       0.13      0.214      3.149      2.488     77.859     58.963
     6641.5       8.78        0.1     79.947      0.189       3.44      2.539      0.155      8.612      8.565     75.391      0.197     46.068     23.631     29.074     84.735     58.697      8.612     79.947     29.074     23.631      0.189        0.1      0.197       3.44      2.539     75.391     58.697
       6642      8.772      0.068     58.255      0.106      3.578      2.594      0.095      8.623      8.534     73.202      0.181     44.832     22.979     25.945     186.57     58.981      8.623     58.255     25.945     22.979      0.106      0.068      0.181      3.578      2.594     73.202     58.981
     6642.5      8.772      0.042     44.798      0.065      3.588      2.639       0.06      8.647      8.519     65.363      0.126     57.136     22.322      23.33      54.46     59.811      8.647     44.798      23.33     22.322      0.065      0.042      0.126      3.588      2.639     65.363     59.811
