~Version ---------------------------------------------------
VERS. 2.0 : CWLS log ASCII Standard -VERSION 2.0
WRAP.  NO : One line per depth step
~Well ------------------------------------------------------
STRT.F                     2587.0 : 
STOP.F                     9110.0 : 
STEP.F                        0.5 : 
NULL.                     -999.25 : 
COMP. HALLIBURTON ENERGY SERVICES : Company Name
WELL.        UNIVERSITY 6-17 NO.1 : Well Name
FLD .                     WILDCAT : Field Name
LOC .                  SECTION 17 : Location
SLOC.         2377 FSL X 1065 FWL : SURFACE Location
SECT.                             : Section
TOWN.                             : Township
RANG.                             : Range
COUN.                      REAGAN : County
STAT.                          TX : State
CTRY.                         USA : Country
SRVC. HALLIBURTON ENERGY SERVICES : Service Company
DATE.                    06-21-97 : DATE as MM/DD/YY
APIN.                42-303-34774 : API Well Number
UWI .              42303347740000 : UNIQUE WELL ID
PD  .                        G.L. : Permanent Datum
RUN .                         TWO : Run Number
DMF .                        K.B. : Drilling Measured From
LMF .                        K.B. : Logging Measured From
TCS .                             : Time Circulation Stopped
TLAB.                             : Time Logger at Bottom
DFT .                  FRESHWATER : Drilling Fluid Type
MCSS.                        MEAS : Mud Cake Sample Source
MFSS.                        MEAS : Mud Filtrate Sample Source
MSS .                         PIT : Mud Sample Source
LCCN.                             : Logging Company Name
LUL .                      ODESSA : Equiptment Location
LUN .                             : Logging Unit Number
ENGI.                     JOHNSON : Logging Engineer's Name
WITN.                    VAN-LIEW : Witness's Name
~Curves ----------------------------------------------------
DEPT     .F    00 000 00 00 : 1  Depth Curve
CALI     .INCH 99 075 22 05 : 2  CALIPER
DPHI     .DECP 99 075 22 05 : 3  DENSITY POROSITY -LIME-
GR       .GAPI 99 075 22 05 : 4  GAMMA RAY
NPHI     .DECP 99 075 22 05 : 5  NEUTRON POROSITY -LIME-
PE       .B/E  99 075 22 05 : 6  PHOTO-ELECTRIC FACTOR
RHOB     .G/C3 99 075 22 05 : 7  BULK DENSITY
PHIX     .DECP 99 075 22 05 : 8  CROSSPLOT POROSITY
C13      .INCH 99 075 22 05 : 9  CALIPER PADS 1 - 3    -FACT-
C24      .INCH 99 075 22 05 : 10  CALIPER PADS 2 - 4    -FACT-
DT       .US/F 99 075 22 05 : 11  SONIC TRANSIT TIME
SPHI     .DECP 99 075 22 05 : 12  SONIC POROSITY  -LIME-
GR3      .     99 075 22 05 : 13  GAMMA RAY
ILD      .OHMM 99 075 22 05 : 14  IL, DEEP RESISTIVITY
ILM      .OHMM 99 075 22 05 : 15  IL, MEDIUM RESISTIVITY
SGRD     .OHMM 99 075 22 05 : 16  SHORT GUARD RESISTIVITY
SP       .MV   99 075 22 05 : 17  SPONTANEOUS POTENTIAL
CAL_N    .INCH 99 075 22 05 : 9  CALIPER PADS 1 - 3    -FACT-
GR_N     .GAPI 99 075 22 05 : 4  GAMMA RAY
RESMED_N .OHMM 99 075 22 05 : 15  IL, MEDIUM RESISTIVITY
RESDEEP_N.OHMM 99 075 22 05 : 14  IL, DEEP RESISTIVITY
NPHI_N   .DECP 99 075 22 05 : 5  NEUTRON POROSITY -LIME-
DPHI_N   .DECP 99 075 22 05 : 3  DENSITY POROSITY -LIME-
SPHI_N   .DECP 99 075 22 05 : 12  SONIC POROSITY  -LIME-
PE_N     .B/E  99 075 22 05 : 6  PHOTO-ELECTRIC FACTOR
RHOB_N   .G/C3 99 075 22 05 : 7  BULK DENSITY
DTC_N    .US/F 99 075 22 05 : 11  SONIC TRANSIT TIME
SP_N     .MV   99 075 22 05 : 17  SPONTANEOUS POTENTIAL
~Params ----------------------------------------------------
EDF .F   2636.0 : Elevation, Derrick Floor
EGL .F   2653.0 : Elevation, Ground Level
EKB .F   2654.0 : Elevation, Kelly Bushing
EPD .F   2636.0 : Elevation Perminent Datum
TDD .F   9097.0 : Total Depth-Driller
TDL .F   9097.0 : Total Depth-Logger
CBD .F   3119.0 : Casing Bottom Driller 1
CBL .F   3119.0 : Casing Bottom Logger 1
TLI .F   3119.0 : Top Logged Interval
BLI .F   9093.0 : Bottom Logged Interval
DFD .LB/G   9.0 : Drilling Fluid Density
DFPH.----  10.5 : Drilling Fluid Ph
DFL .C3     8.0 : Drilling Fluid Loss
DFV .CP    54.0 : Drilling Fluid Viscosity
RM  .CP    54.0 : Mud Sample Resistivity
MST .DEGF  74.0 : Mud Sample Temperature
RMF .DEGF  74.0 : Mud Filtrate Resistivity
MFST.DEGF  74.0 : Mud Filtrate Sample Temp
RMC .DEGF  74.0 : Mud Cake Resistivity
MCST.DEGF  74.0 : Mud Cake Sample Temperature
MRT .DEGF 141.0 : Maximum Recorded Temperature
BHT .DEGF 141.0 : Bottom Hole Temperature
~Other -----------------------------------------------------
~ASCII -----------------------------------------------------
# ...
       9100      6.326      0.078      22.33      0.012      4.602      2.577      0.037       7.89      7.938     49.114      0.011     31.488      20000     260.61     4483.3    -29.394       7.89      22.33     260.61      20000      0.012      0.078      0.011      4.602      2.577     49.114    -29.394
     9100.5      6.236       0.08      22.33      0.012      4.554      2.573      0.038       7.89      7.938     48.834      0.009     31.488      20000     260.61     4482.9    -29.394       7.89      22.33     260.61      20000      0.012       0.08      0.009      4.554      2.573     48.834    -29.394
       9101      6.172      0.082      22.33      0.012      4.468       2.57      0.039       7.89      7.938     49.039       0.01     31.488      20000     260.61     4491.3    -29.394       7.89      22.33     260.61      20000      0.012      0.082       0.01      4.468       2.57     49.039    -29.394
     9101.5      6.155      0.083      22.33      0.012      4.383      2.568       0.04       7.89      7.938     49.287      0.012     31.488      20000     260.61     4492.9    -29.394       7.89      22.33     260.61      20000      0.012      0.083      0.012      4.383      2.568     49.287    -29.394
       9102      6.107        0.1      22.33      0.012      4.191      2.539      0.047       7.89      7.938       49.3      0.012     31.488      20000     260.61     4484.7    -29.394       7.89      22.33     260.61      20000      0.012        0.1      0.012      4.191      2.539       49.3    -29.394
     9102.5      6.026       0.06      22.33      0.013      4.732      2.607      0.031       7.89      7.938       49.3      0.012     31.488      20000     260.61       4474    -29.394       7.89      22.33     260.61      20000      0.013       0.06      0.012      4.732      2.607       49.3    -29.394
       9103      6.026      0.045      22.33      0.013      4.949      2.634      0.026       7.89      7.938       49.3      0.012     31.488      20000     260.61     4467.6    -29.394       7.89      22.33     260.61      20000      0.013      0.045      0.012      4.949      2.634       49.3    -29.394
     9103.5      6.042      0.031      22.33      0.013      5.182      2.658      0.021       7.89      7.938       49.3      0.012     31.488      20000     260.61     4468.6    -29.394       7.89      22.33     260.61      20000      0.013      0.031      0.012      5.182      2.658       49.3    -29.394
       9104      5.969      0.014      22.33      0.013      5.458      2.686      0.016       7.89      7.938       49.3      0.012     31.488      20000     260.61     4464.5    -29.394       7.89      22.33     260.61      20000      0.013      0.014      0.012      5.458      2.686       49.3    -29.394
     9104.5      5.888     -0.016      22.33      0.013      5.857      2.737      0.008       7.89      7.938       49.3      0.012     31.488      20000     260.61     4463.8    -29.394       7.89      22.33     260.61      20000      0.013     -0.016      0.012      5.857      2.737       49.3    -29.394
       9105      5.653     -0.002      22.33      0.014      5.619      2.714      0.012       7.89      7.938       49.3      0.012     31.488      20000     260.61       4467    -29.394       7.89      22.33     260.61      20000      0.014     -0.002      0.012      5.619      2.714       49.3    -29.394
     9105.5      5.166      0.001      22.33      0.016       5.62      2.709      0.014       7.89      7.938       49.3      0.012     31.488      20000     260.61     4470.6    -29.394       7.89      22.33     260.61      20000      0.016      0.001      0.012       5.62      2.709       49.3    -29.394
       9106      4.801      0.003      22.33      0.017      5.622      2.704      0.016       7.89      7.938       49.3      0.012     31.488      20000     260.61     4472.6    -29.394       7.89      22.33     260.61      20000      0.017      0.003      0.012      5.622      2.704       49.3    -29.394
     9106.5      4.688      0.004      22.33      0.018      5.622      2.703      0.017       7.89      7.938       49.3      0.012     31.488      20000     260.61     4476.8    -29.394       7.89      22.33     260.61      20000      0.018      0.004      0.012      5.622      2.703       49.3    -29.394
       9107      4.688      0.004      22.33      0.018      5.622      2.703      0.017       7.89      7.938       49.3      0.012     31.488      20000     260.61     4476.8    -29.394       7.89      22.33     260.61      20000      0.018      0.004      0.012      5.622      2.703       49.3    -29.394
     9107.5      4.688      0.004      22.33      0.018      5.622      2.703      0.017       7.89      7.938       49.3      0.012     31.488      20000     260.61     4476.8    -29.394       7.89      22.33     260.61      20000      0.018      0.004      0.012      5.622      2.703       49.3    -29.394
       9108      4.688      0.004      22.33      0.018      5.622      2.703      0.017       7.89      7.938       49.3      0.012     31.488      20000     260.61     4476.8    -29.394       7.89      22.33     260.61      20000      0.018      0.004      0.012      5.622      2.703       49.3    -29.394
     9108.5      4.688      0.004      22.33      0.018      5.622      2.703      0.017       7.89      7.938       49.3      0.012     31.488      20000     260.61     4476.8    -29.394       7.89      22.33     260.61      20000      0.018      0.004      0.012      5.622      2.703       49.3    -29.394
       9109      4.688      0.004      22.33      0.018      5.622      2.703      0.017       7.89      7.938       49.3      0.012     31.488      20000     260.61     4476.8    -29.394       7.89      22.33     260.61      20000      0.018      0.004      0.012      5.622      2.703       49.3    -29.394
     9109.5      4.688      0.004      22.33      0.018      5.622      2.703      0.017    -999.25    -999.25    -999.25    -999.25     31.488      20000     260.61     4476.8    -29.394    -999.25      22.33     260.61      20000      0.018      0.004    -999.25      5.622      2.703    -999.25    -29.394
       9110      4.688      0.004      22.33      0.018      5.622      2.703      0.017    -999.25    -999.25    -999.25    -999.25     31.488      20000     260.61     4476.8    -29.394    -999.25      22.33     260.61      20000      0.018      0.004    -999.25      5.622      2.703    -999.25    -29.394
