~Version ---------------------------------------------------
VERS. 2.0 : CWLS log ASCII Standard -VERSION 2.0
WRAP.  NO : One line per depth step
~Well ------------------------------------------------------
STRT.F                     2587.0 : 
STOP.F                     9110.0 : 
STEP.F                        0.5 : 
NULL.                     -999.25 : 
COMP. HALLIBURTON ENERGY SERVICES : Company Name
WELL.        UNIVERSITY 6-17 NO.1 : Well Name
FLD .                     WILDCAT : Field Name
LOC .                  SECTION 17 : Location
SLOC.         2377 FSL X 1065 FWL : SURFACE Location
SECT.                             : Section
TOWN.                             : Township
RANG.                             : Range
COUN.                      REAGAN : County
STAT.                          TX : State
CTRY.                         USA : Country
SRVC. HALLIBURTON ENERGY SERVICES : Service Company
DATE.                    06-21-97 : DATE as MM/DD/YY
APIN.                42-303-34774 : API Well Number
UWI .              42303347740000 : UNIQUE WELL ID
PD  .                        G.L. : Permanent Datum
RUN .                         TWO : Run Number
DMF .                        K.B. : Drilling Measured From
LMF .                        K.B. : Logging Measured From
TCS .                             : Time Circulation Stopped
TLAB.                             : Time Logger at Bottom
DFT .                  FRESHWATER : Drilling Fluid Type
MCSS.                        MEAS : Mud Cake Sample Source
MFSS.                        MEAS : Mud Filtrate Sample Source
MSS .                         PIT : Mud Sample Source
LCCN.                             : Logging Company Name
LUL .                      ODESSA : Equiptment Location
LUN .                             : Logging Unit Number
ENGI.                     JOHNSON : Logging Engineer's Name
WITN.                    VAN-LIEW : Witness's Name
~Curves ----------------------------------------------------
DEPT     .F    00 000 00 00 : 1  Depth Curve
CALI     .INCH 99 075 22 05 : 2  CALIPER
DPHI     .DECP 99 075 22 05 : 3  DENSITY POROSITY -LIME-
GR       .GAPI 99 075 22 05 : 4  GAMMA RAY
NPHI     .DECP 99 075 22 05 : 5  NEUTRON POROSITY -LIME-
PE       .B/E  99 075 22 05 : 6  PHOTO-ELECTRIC FACTOR
RHOB     .G/C3 99 075 22 05 : 7  BULK DENSITY
PHIX     .DECP 99 075 22 05 : 8  CROSSPLOT POROSITY
C13      .INCH 99 075 22 05 : 9  CALIPER PADS 1 - 3    -FACT-
C24      .INCH 99 075 22 05 : 10  CALIPER PADS 2 - 4    -FACT-
DT       .US/F 99 075 22 05 : 11  SONIC TRANSIT TIME
SPHI     .DECP 99 075 22 05 : 12  SONIC POROSITY  -LIME-
GR3      .     99 075 22 05 : 13  GAMMA RAY
ILD      .OHMM 99 075 22 05 : 14  IL, DEEP RESISTIVITY
ILM      .OHMM 99 075 22 05 : 15  IL, MEDIUM RESISTIVITY
SGRD     .OHMM 99 075 22 05 : 16  SHORT GUARD RESISTIVITY
SP       .MV   99 075 22 05 : 17  SPONTANEOUS POTENTIAL
CAL_N    .INCH 99 075 22 05 : 9  CALIPER PADS 1 - 3    -FACT-
GR_N     .GAPI 99 075 22 05 : 4  GAMMA RAY
RESMED_N .OHMM 99 075 22 05 : 15  IL, MEDIUM RESISTIVITY
RESDEEP_N.OHMM 99 075 22 05 : 14  IL, DEEP RESISTIVITY
NPHI_N   .DECP 99 075 22 05 : 5  NEUTRON POROSITY -LIME-
DPHI_N   .DECP 99 075 22 05 : 3  DENSITY POROSITY -LIME-
SPHI_N   .DECP 99 075 22 05 : 12  SONIC POROSITY  -LIME-
PE_N     .B/E  99 075 22 05 : 6  PHOTO-ELECTRIC FACTOR
RHOB_N   .G/C3 99 075 22 05 : 7  BULK DENSITY
DTC_N    .US/F 99 075 22 05 : 11  SONIC TRANSIT TIME
SP_N     .MV   99 075 22 05 : 17  SPONTANEOUS POTENTIAL
~Params ----------------------------------------------------
EDF .F   2636.0 : Elevation, Derrick Floor
EGL .F   2653.0 : Elevation, Ground Level
EKB .F   2654.0 : Elevation, Kelly Bushing
EPD .F   2636.0 : Elevation Perminent Datum
TDD .F   9097.0 : Total Depth-Driller
TDL .F   9097.0 : Total Depth-Logger
CBD .F   3119.0 : Casing Bottom Driller 1
CBL .F   3119.0 : Casing Bottom Logger 1
TLI .F   3119.0 : Top Logged Interval
BLI .F   9093.0 : Bottom Logged Interval
DFD .LB/G   9.0 : Drilling Fluid Density
DFPH.----  10.5 : Drilling Fluid Ph
DFL .C3     8.0 : Drilling Fluid Loss
DFV .CP    54.0 : Drilling Fluid Viscosity
RM  .CP    54.0 : Mud Sample Resistivity
MST .DEGF  74.0 : Mud Sample Temperature
RMF .DEGF  74.0 : Mud Filtrate Resistivity
MFST.DEGF  74.0 : Mud Filtrate Sample Temp
RMC .DEGF  74.0 : Mud Cake Resistivity
MCST.DEGF  74.0 : Mud Cake Sample Temperature
MRT .DEGF 141.0 : Maximum Recorded Temperature
BHT .DEGF 141.0 : Bottom Hole Temperature
~Other -----------------------------------------------------
~ASCII -----------------------------------------------------
# ...
       4979      9.047      0.117     90.354      0.259      2.843       2.51      0.198       8.97      9.031     74.853      0.193     111.29     12.517     12.094     16.447     45.767       8.97     90.354     12.094     12.517      0.259      0.117      0.193      2.843       2.51     74.853     45.767
     4979.5      9.023      0.114     94.145      0.271      2.877      2.515      0.203      8.962      9.034     77.822      0.214     121.35     12.119     11.906     15.705     45.885      8.962     94.145     11.906     12.119      0.271      0.114      0.214      2.877      2.515     77.822     45.885
       4980      9.023      0.115      97.97      0.268      2.859      2.513      0.202      8.939      9.031      78.18      0.216      124.1     11.802       11.7     15.996      45.82      8.939      97.97       11.7     11.802      0.268      0.115      0.216      2.859      2.513      78.18      45.82
     4980.5      9.039      0.123     100.86      0.264      2.838      2.499      0.203      8.913      9.026     78.608      0.219     123.88     11.688     11.386     15.966     45.465      8.913     100.86     11.386     11.688      0.264      0.123      0.219      2.838      2.499     78.608     45.465
       4981      9.055      0.123     104.95      0.275      2.848        2.5      0.208       8.88      9.011     80.539      0.233     120.56      11.79     11.118     16.359     45.625       8.88     104.95     11.118      11.79      0.275      0.123      0.233      2.848        2.5     80.539     45.625
     4981.5      9.031      0.128     105.52      0.285      2.818      2.492      0.215      8.868      8.972     81.952      0.243     111.41     12.056     10.699     15.754     46.259      8.868     105.52     10.699     12.056      0.285      0.128      0.243      2.818      2.492     81.952     46.259
       4982      9.023      0.137     105.31      0.288      2.763      2.476       0.22      8.877      8.927      82.75      0.249     107.47     12.345     11.396      13.96     46.199      8.877     105.31     11.396     12.345      0.288      0.137      0.249      2.763      2.476      82.75     46.199
     4982.5      9.015      0.137     102.85      0.286       2.76      2.477      0.219      8.875      8.893     83.603      0.255     102.03     12.545     11.985     14.485     46.336      8.875     102.85     11.985     12.545      0.286      0.137      0.255       2.76      2.477     83.603     46.336
       4983      8.974      0.134     99.641      0.282      2.782      2.481      0.216      8.882      8.887     83.308      0.253     96.968     12.719     12.533     15.637     46.282      8.882     99.641     12.533     12.719      0.282      0.134      0.253      2.782      2.481     83.308     46.282
     4983.5      8.966      0.136      98.28      0.282      2.753      2.477      0.217      8.873      8.887     81.614      0.241     95.901     13.005     12.867     19.145     46.407      8.873      98.28     12.867     13.005      0.282      0.136      0.241      2.753      2.477     81.614     46.407
       4984      9.007      0.135     97.401      0.282      2.859      2.479      0.217      8.875      8.888     80.402      0.232      99.89     13.421     13.093     20.972     46.519      8.875     97.401     13.093     13.421      0.282      0.135      0.232      2.859      2.479     80.402     46.519
     4984.5      8.999      0.134     95.954      0.281      2.871       2.48      0.216      8.886      8.883     79.978      0.229     102.31     13.898     13.383     19.519     47.094      8.886     95.954     13.383     13.898      0.281      0.134      0.229      2.871       2.48     79.978     47.094
       4985      8.999      0.133     95.954      0.282      2.895      2.482      0.216      8.908      8.878     79.348      0.225     102.98     14.254      13.76       18.5     46.916      8.908     95.954      13.76     14.254      0.282      0.133      0.225      2.895      2.482     79.348     46.916
     4985.5      8.974       0.14     95.902      0.286      2.936      2.471       0.22      8.945      8.889     78.239      0.217      108.6     14.392     14.078     18.635     46.845      8.945     95.902     14.078     14.392      0.286       0.14      0.217      2.936      2.471     78.239     46.845
       4986      8.991      0.144     97.866      0.295      2.939      2.464      0.227      8.962      8.888     79.673      0.227     108.04     14.415     14.222     18.829     47.047      8.962     97.866     14.222     14.415      0.295      0.144      0.227      2.939      2.464     79.673     47.047
     4986.5      9.007      0.147     102.35       0.31      2.953      2.458      0.235      8.954      8.877     81.761      0.242     111.07     14.433      14.29     19.876     47.059      8.954     102.35      14.29     14.433       0.31      0.147      0.242      2.953      2.458     81.761     47.059
       4987      9.007      0.156     107.52      0.302      2.903      2.443      0.235      8.954      8.877     83.414      0.253      116.8      14.46     14.386     19.519      47.29      8.954     107.52     14.386      14.46      0.302      0.156      0.253      2.903      2.443     83.414      47.29
     4987.5      8.982      0.148     110.77      0.301      2.871      2.456      0.231       8.96      8.884     85.048      0.265     120.84     14.517     14.503     19.013     47.325       8.96     110.77     14.503     14.517      0.301      0.148      0.265      2.871      2.456     85.048     47.325
       4988      8.982      0.141     110.67      0.295      2.876      2.469      0.225      8.966      8.887      84.53      0.261     118.71     14.583     14.661     20.229     46.982      8.966     110.67     14.661     14.583      0.295      0.141      0.261      2.876      2.469      84.53     46.982
     4988.5      8.991      0.141     110.41      0.284      2.815      2.469       0.22      8.973       8.88     83.089      0.251     119.55     14.705      14.81      20.21     47.521      8.973     110.41      14.81     14.705      0.284      0.141      0.251      2.815      2.469     83.089     47.521
       4989      9.007       0.14     111.89      0.273      2.773      2.471      0.214      8.977      8.881     83.075      0.251     111.69     14.956     14.983     21.344     47.438      8.977     111.89     14.983     14.956      0.273       0.14      0.251      2.773      2.471     83.075     47.438
     4989.5      9.007      0.137      109.5      0.278       2.82      2.475      0.215      8.995      8.888     83.167      0.252     107.75     15.343     15.199     21.742     47.207      8.995      109.5     15.199     15.343      0.278      0.137      0.252       2.82      2.475     83.167     47.207
       4990      9.015      0.133     109.67      0.276      2.854      2.483      0.213      9.018      8.893     81.631      0.241      106.8     15.743     15.516     20.799     46.733      9.018     109.67     15.516     15.743      0.276      0.133      0.241      2.854      2.483     81.631     46.733
     4990.5      9.023      0.142     108.53      0.262      2.965      2.468       0.21       9.02      8.883     81.098      0.237        100     15.912     16.083     21.265     47.556       9.02     108.53     16.083     15.912      0.262      0.142      0.237      2.965      2.468     81.098     47.556
       4991      9.007      0.132     103.69      0.268      2.942      2.485      0.209       9.02      8.889     83.106      0.251     91.463      15.68      16.74     19.935     48.048       9.02     103.69      16.74      15.68      0.268      0.132      0.251      2.942      2.485     83.106     48.048
     4991.5      9.007       0.12     96.436      0.289      3.157      2.505      0.214      9.004      8.896      82.87      0.249     82.755     15.069     16.959      22.61       47.9      9.004     96.436     16.959     15.069      0.289       0.12      0.249      3.157      2.505      82.87       47.9
