~Version ---------------------------------------------------
VERS. 2.0 : CWLS log ASCII Standard -VERSION 2.0
WRAP.  NO : One line per depth step
~Well ------------------------------------------------------
STRT.F                     2587.0 : 
STOP.F                     9110.0 : 
STEP.F                        0.5 : 
NULL.                     -999.25 : 
COMP. HALLIBURTON ENERGY SERVICES : Company Name
WELL.        UNIVERSITY 6-17 NO.1 : Well Name
FLD .                     WILDCAT : Field Name
LOC .                  SECTION 17 : Location
SLOC.         2377 FSL X 1065 FWL : SURFACE Location
SECT.                             : Section
TOWN.                             : Township
RANG.                             : Range
COUN.                      REAGAN : County
STAT.                          TX : State
CTRY.                         USA : Country
SRVC. HALLIBURTON ENERGY SERVICES : Service Company
DATE.                    06-21-97 : DATE as MM/DD/YY
APIN.                42-303-34774 : API Well Number
UWI .              42303347740000 : UNIQUE WELL ID
PD  .                        G.L. : Permanent Datum
RUN .                         TWO : Run Number
DMF .                        K.B. : Drilling Measured From
LMF .                        K.B. : Logging Measured From
TCS .                             : Time Circulation Stopped
TLAB.                             : Time Logger at Bottom
DFT .                  FRESHWATER : Drilling Fluid Type
MCSS.                        MEAS : Mud Cake Sample Source
MFSS.                        MEAS : Mud Filtrate Sample Source
MSS .                         PIT : Mud Sample Source
LCCN.                             : Logging Company Name
LUL .                      ODESSA : Equiptment Location
LUN .                             : Logging Unit Number
ENGI.                     JOHNSON : Logging Engineer's Name
WITN.                    VAN-LIEW : Witness's Name
~Curves ----------------------------------------------------
DEPT     .F    00 000 00 00 : 1  Depth Curve
CALI     .INCH 99 075 22 05 : 2  CALIPER
DPHI     .DECP 99 075 22 05 : 3  DENSITY POROSITY -LIME-
GR       .GAPI 99 075 22 05 : 4  GAMMA RAY
NPHI     .DECP 99 075 22 05 : 5  NEUTRON POROSITY -LIME-
PE       .B/E  99 075 22 05 : 6  PHOTO-ELECTRIC FACTOR
RHOB     .G/C3 99 075 22 05 : 7  BULK DENSITY
PHIX     .DECP 99 075 22 05 : 8  CROSSPLOT POROSITY
C13      .INCH 99 075 22 05 : 9  CALIPER PADS 1 - 3    -FACT-
C24      .INCH 99 075 22 05 : 10  CALIPER PADS 2 - 4    -FACT-
DT       .US/F 99 075 22 05 : 11  SONIC TRANSIT TIME
SPHI     .DECP 99 075 22 05 : 12  SONIC POROSITY  -LIME-
GR3      .     99 075 22 05 : 13  GAMMA RAY
ILD      .OHMM 99 075 22 05 : 14  IL, DEEP RESISTIVITY
ILM      .OHMM 99 075 22 05 : 15  IL, MEDIUM RESISTIVITY
SGRD     .OHMM 99 075 22 05 : 16  SHORT GUARD RESISTIVITY
SP       .MV   99 075 22 05 : 17  SPONTANEOUS POTENTIAL
CAL_N    .INCH 99 075 22 05 : 9  CALIPER PADS 1 - 3    -FACT-
GR_N     .GAPI 99 075 22 05 : 4  GAMMA RAY
RESMED_N .OHMM 99 075 22 05 : 15  IL, MEDIUM RESISTIVITY
RESDEEP_N.OHMM 99 075 22 05 : 14  IL, DEEP RESISTIVITY
NPHI_N   .DECP 99 075 22 05 : 5  NEUTRON POROSITY -LIME-
DPHI_N   .DECP 99 075 22 05 : 3  DENSITY POROSITY -LIME-
SPHI_N   .DECP 99 075 22 05 : 12  SONIC POROSITY  -LIME-
PE_N     .B/E  99 075 22 05 : 6  PHOTO-ELECTRIC FACTOR
RHOB_N   .G/C3 99 075 22 05 : 7  BULK DENSITY
DTC_N    .US/F 99 075 22 05 : 11  SONIC TRANSIT TIME
SP_N     .MV   99 075 22 05 : 17  SPONTANEOUS POTENTIAL
~Params ----------------------------------------------------
EDF .F   2636.0 : Elevation, Derrick Floor
EGL .F   2653.0 : Elevation, Ground Level
EKB .F   2654.0 : Elevation, Kelly Bushing
EPD .F   2636.0 : Elevation Perminent Datum
TDD .F   9097.0 : Total Depth-Driller
TDL .F   9097.0 : Total Depth-Logger
CBD .F   3119.0 : Casing Bottom Driller 1
CBL .F   3119.0 : Casing Bottom Logger 1
TLI .F   3119.0 : Top Logged Interval
BLI .F   9093.0 : Bottom Logged Interval
DFD .LB/G   9.0 : Drilling Fluid Density
DFPH.----  10.5 : Drilling Fluid Ph
DFL .C3     8.0 : Drilling Fluid Loss
DFV .CP    54.0 : Drilling Fluid Viscosity
RM  .CP    54.0 : Mud Sample Resistivity
MST .DEGF  74.0 : Mud Sample Temperature
RMF .DEGF  74.0 : Mud Filtrate Resistivity
MFST.DEGF  74.0 : Mud Filtrate Sample Temp
RMC .DEGF  74.0 : Mud Cake Resistivity
MCST.DEGF  74.0 : Mud Cake Sample Temperature
MRT .DEGF 141.0 : Maximum Recorded Temperature
BHT .DEGF 141.0 : Bottom Hole Temperature
~Other -----------------------------------------------------
~ASCII -----------------------------------------------------
# ...
       2912    -999.25    -999.25    -999.25    -999.25    -999.25    -999.25    -999.25      3.697      3.721     73.337      0.182     16.854      1.956      1.958     19.945     79.187      3.697    -999.25      1.958      1.956    -999.25    -999.25      0.182    -999.25    -999.25     73.337     79.187
     2912.5    -999.25    -999.25    -999.25    -999.25    -999.25    -999.25    -999.25      3.698      3.721     72.969      0.179     17.416      1.956      1.958     19.945     79.644      3.698    -999.25      1.958      1.956    -999.25    -999.25      0.179    -999.25    -999.25     72.969     79.644
       2913    -999.25    -999.25    -999.25    -999.25    -999.25    -999.25    -999.25      3.687      3.721     71.139      0.166     17.866      1.956      1.958     19.944     80.106      3.687    -999.25      1.958      1.956    -999.25    -999.25      0.166    -999.25    -999.25     71.139     80.106
     2913.5    -999.25    -999.25    -999.25    -999.25    -999.25    -999.25    -999.25       3.68      3.718     68.452      0.147     17.191      1.955      1.958     19.945     79.342       3.68    -999.25      1.958      1.955    -999.25    -999.25      0.147    -999.25    -999.25     68.452     79.342
       2914    -999.25    -999.25    -999.25    -999.25    -999.25    -999.25    -999.25      3.684      3.726     66.506      0.134     18.989      1.955      1.958     19.945     79.336      3.684    -999.25      1.958      1.955    -999.25    -999.25      0.134    -999.25    -999.25     66.506     79.336
     2914.5    -999.25    -999.25    -999.25    -999.25    -999.25    -999.25    -999.25       3.69      3.723     65.966       0.13     20.506      1.955      1.958     19.945     79.739       3.69    -999.25      1.958      1.955    -999.25    -999.25       0.13    -999.25    -999.25     65.966     79.739
       2915    -999.25    -999.25    -999.25    -999.25    -999.25    -999.25    -999.25      3.689      3.724     66.555      0.134     19.439      1.955      1.958     19.945     80.533      3.689    -999.25      1.958      1.955    -999.25    -999.25      0.134    -999.25    -999.25     66.555     80.533
     2915.5    -999.25    -999.25    -999.25    -999.25    -999.25    -999.25    -999.25      3.698      3.718     66.719      0.135     17.809      1.955      1.958     19.945     79.756      3.698    -999.25      1.958      1.955    -999.25    -999.25      0.135    -999.25    -999.25     66.719     79.756
       2916    -999.25    -999.25    -999.25    -999.25    -999.25    -999.25    -999.25      3.691      3.719     67.141      0.138     15.674      1.955      1.958     19.946     79.294      3.691    -999.25      1.958      1.955    -999.25    -999.25      0.138    -999.25    -999.25     67.141     79.294
     2916.5    -999.25    -999.25    -999.25    -999.25    -999.25    -999.25    -999.25      3.689      3.718     65.644      0.128     13.652      1.955      1.958     19.946     79.786      3.689    -999.25      1.958      1.955    -999.25    -999.25      0.128    -999.25    -999.25     65.644     79.786
       2917    -999.25    -999.25    -999.25    -999.25    -999.25    -999.25    -999.25      3.687      3.716     66.358      0.133     11.461      1.955      1.958     19.947     80.112      3.687    -999.25      1.958      1.955    -999.25    -999.25      0.133    -999.25    -999.25     66.358     80.112
     2917.5    -999.25    -999.25    -999.25    -999.25    -999.25    -999.25    -999.25      3.686      3.714     67.427       0.14     11.573      1.955      1.958     19.947     79.567      3.686    -999.25      1.958      1.955    -999.25    -999.25       0.14    -999.25    -999.25     67.427     79.567
       2918    -999.25    -999.25    -999.25    -999.25    -999.25    -999.25    -999.25      3.693      3.716     61.533      0.099     13.427      1.955      1.958     19.946     79.371      3.693    -999.25      1.958      1.955    -999.25    -999.25      0.099    -999.25    -999.25     61.533     79.371
     2918.5    -999.25    -999.25    -999.25    -999.25    -999.25    -999.25    -999.25      3.698       3.72      62.57      0.106     15.955      1.955      1.958     19.946     78.518      3.698    -999.25      1.958      1.955    -999.25    -999.25      0.106    -999.25    -999.25      62.57     78.518
       2919    -999.25    -999.25    -999.25    -999.25    -999.25    -999.25    -999.25      3.696      3.723     62.578      0.106     20.955      1.955      1.958     19.945     79.436      3.696    -999.25      1.958      1.955    -999.25    -999.25      0.106    -999.25    -999.25     62.578     79.436
     2919.5    -999.25    -999.25    -999.25    -999.25    -999.25    -999.25    -999.25      3.701      3.723     55.295      0.054     26.405      1.955      1.958     19.945     80.035      3.701    -999.25      1.958      1.955    -999.25    -999.25      0.054    -999.25    -999.25     55.295     80.035
       2920    -999.25    -999.25    -999.25    -999.25    -999.25    -999.25    -999.25      3.701      3.721       60.4      0.091     28.315      1.955      1.958     19.946     80.325      3.701    -999.25      1.958      1.955    -999.25    -999.25      0.091    -999.25    -999.25       60.4     80.325
     2920.5    -999.25    -999.25    -999.25    -999.25    -999.25    -999.25    -999.25      3.696      3.717     69.438      0.154     30.338      1.955      1.958     19.946     79.744      3.696    -999.25      1.958      1.955    -999.25    -999.25      0.154    -999.25    -999.25     69.438     79.744
       2921    -999.25    -999.25    -999.25    -999.25    -999.25    -999.25    -999.25      3.689      3.723     71.078      0.166      29.72      1.955      1.958     19.946     80.734      3.689    -999.25      1.958      1.955    -999.25    -999.25      0.166    -999.25    -999.25     71.078     80.734
     2921.5    -999.25    -999.25    -999.25    -999.25    -999.25    -999.25    -999.25      3.687      3.726     78.423      0.218     26.574      1.955      1.958     19.947     80.586      3.687    -999.25      1.958      1.955    -999.25    -999.25      0.218    -999.25    -999.25     78.423     80.586
       2922    -999.25    -999.25    -999.25    -999.25    -999.25    -999.25    -999.25      3.685      3.722     78.012      0.215     23.652      1.955      1.958     19.948     79.958      3.685    -999.25      1.958      1.955    -999.25    -999.25      0.215    -999.25    -999.25     78.012     79.958
     2922.5    -999.25    -999.25    -999.25    -999.25    -999.25    -999.25    -999.25      3.687      3.721     76.936      0.207     21.461      1.955      1.958     19.948     80.094      3.687    -999.25      1.958      1.955    -999.25    -999.25      0.207    -999.25    -999.25     76.936     80.094
       2923    -999.25    -999.25    -999.25    -999.25    -999.25    -999.25    -999.25       3.69      3.721     75.297      0.196     16.686      1.955      1.958     19.947     79.383       3.69    -999.25      1.958      1.955    -999.25    -999.25      0.196    -999.25    -999.25     75.297     79.383
     2923.5    -999.25    -999.25    -999.25    -999.25    -999.25    -999.25    -999.25      3.695      3.723     71.534      0.169     14.663      1.955      1.958     19.947     79.845      3.695    -999.25      1.958      1.955    -999.25    -999.25      0.169    -999.25    -999.25     71.534     79.845
       2924    -999.25    -999.25    -999.25    -999.25    -999.25    -999.25    -999.25      3.693      3.726      68.83       0.15     15.337      1.955      1.958     19.947     80.219      3.693    -999.25      1.958      1.955    -999.25    -999.25       0.15    -999.25    -999.25      68.83     80.219
     2924.5    -999.25    -999.25    -999.25    -999.25    -999.25    -999.25    -999.25      3.692      3.722     64.547       0.12     14.382      1.955      1.958     19.946      79.91      3.692    -999.25      1.958      1.955    -999.25    -999.25       0.12    -999.25    -999.25     64.547      79.91
