~Version ---------------------------------------------------
VERS. 2.0 : CWLS log ASCII Standard -VERSION 2.0
WRAP.  NO : One line per depth step
~Well ------------------------------------------------------
STRT.F                     2587.0 : 
STOP.F                     9110.0 : 
STEP.F                        0.5 : 
NULL.                     -999.25 : 
COMP. HALLIBURTON ENERGY SERVICES : Company Name
WELL.        UNIVERSITY 6-17 NO.1 : Well Name
FLD .                     WILDCAT : Field Name
LOC .                  SECTION 17 : Location
SLOC.         2377 FSL X 1065 FWL : SURFACE Location
SECT.                             : Section
TOWN.                             : Township
RANG.                             : Range
COUN.                      REAGAN : County
STAT.                          TX : State
CTRY.                         USA : Country
SRVC. HALLIBURTON ENERGY SERVICES : Service Company
DATE.                    06-21-97 : DATE as MM/DD/YY
APIN.                42-303-34774 : API Well Number
UWI .              42303347740000 : UNIQUE WELL ID
PD  .                        G.L. : Permanent Datum
RUN .                         TWO : Run Number
DMF .                        K.B. : Drilling Measured From
LMF .                        K.B. : Logging Measured From
TCS .                             : Time Circulation Stopped
TLAB.                             : Time Logger at Bottom
DFT .                  FRESHWATER : Drilling Fluid Type
MCSS.                        MEAS : Mud Cake Sample Source
MFSS.                        MEAS : Mud Filtrate Sample Source
MSS .                         PIT : Mud Sample Source
LCCN.                             : Logging Company Name
LUL .                      ODESSA : Equiptment Location
LUN .                             : Logging Unit Number
ENGI.                     JOHNSON : Logging Engineer's Name
WITN.                    VAN-LIEW : Witness's Name
~Curves ----------------------------------------------------
DEPT     .F    00 000 00 00 : 1  Depth Curve
CALI     .INCH 99 075 22 05 : 2  CALIPER
DPHI     .DECP 99 075 22 05 : 3  DENSITY POROSITY -LIME-
GR       .GAPI 99 075 22 05 : 4  GAMMA RAY
NPHI     .DECP 99 075 22 05 : 5  NEUTRON POROSITY -LIME-
PE       .B/E  99 075 22 05 : 6  PHOTO-ELECTRIC FACTOR
RHOB     .G/C3 99 075 22 05 : 7  BULK DENSITY
PHIX     .DECP 99 075 22 05 : 8  CROSSPLOT POROSITY
C13      .INCH 99 075 22 05 : 9  CALIPER PADS 1 - 3    -FACT-
C24      .INCH 99 075 22 05 : 10  CALIPER PADS 2 - 4    -FACT-
DT       .US/F 99 075 22 05 : 11  SONIC TRANSIT TIME
SPHI     .DECP 99 075 22 05 : 12  SONIC POROSITY  -LIME-
GR3      .     99 075 22 05 : 13  GAMMA RAY
ILD      .OHMM 99 075 22 05 : 14  IL, DEEP RESISTIVITY
ILM      .OHMM 99 075 22 05 : 15  IL, MEDIUM RESISTIVITY
SGRD     .OHMM 99 075 22 05 : 16  SHORT GUARD RESISTIVITY
SP       .MV   99 075 22 05 : 17  SPONTANEOUS POTENTIAL
CAL_N    .INCH 99 075 22 05 : 9  CALIPER PADS 1 - 3    -FACT-
GR_N     .GAPI 99 075 22 05 : 4  GAMMA RAY
RESMED_N .OHMM 99 075 22 05 : 15  IL, MEDIUM RESISTIVITY
RESDEEP_N.OHMM 99 075 22 05 : 14  IL, DEEP RESISTIVITY
NPHI_N   .DECP 99 075 22 05 : 5  NEUTRON POROSITY -LIME-
DPHI_N   .DECP 99 075 22 05 : 3  DENSITY POROSITY -LIME-
SPHI_N   .DECP 99 075 22 05 : 12  SONIC POROSITY  -LIME-
PE_N     .B/E  99 075 22 05 : 6  PHOTO-ELECTRIC FACTOR
RHOB_N   .G/C3 99 075 22 05 : 7  BULK DENSITY
DTC_N    .US/F 99 075 22 05 : 11  SONIC TRANSIT TIME
SP_N     .MV   99 075 22 05 : 17  SPONTANEOUS POTENTIAL
~Params ----------------------------------------------------
EDF .F   2636.0 : Elevation, Derrick Floor
EGL .F   2653.0 : Elevation, Ground Level
EKB .F   2654.0 : Elevation, Kelly Bushing
EPD .F   2636.0 : Elevation Perminent Datum
TDD .F   9097.0 : Total Depth-Driller
TDL .F   9097.0 : Total Depth-Logger
CBD .F   3119.0 : Casing Bottom Driller 1
CBL .F   3119.0 : Casing Bottom Logger 1
TLI .F   3119.0 : Top Logged Interval
BLI .F   9093.0 : Bottom Logged Interval
DFD .LB/G   9.0 : Drilling Fluid Density
DFPH.----  10.5 : Drilling Fluid Ph
DFL .C3     8.0 : Drilling Fluid Loss
DFV .CP    54.0 : Drilling Fluid Viscosity
RM  .CP    54.0 : Mud Sample Resistivity
MST .DEGF  74.0 : Mud Sample Temperature
RMF .DEGF  74.0 : Mud Filtrate Resistivity
MFST.DEGF  74.0 : Mud Filtrate Sample Temp
RMC .DEGF  74.0 : Mud Cake Resistivity
MCST.DEGF  74.0 : Mud Cake Sample Temperature
MRT .DEGF 141.0 : Maximum Recorded Temperature
BHT .DEGF 141.0 : Bottom Hole Temperature
~Other -----------------------------------------------------
~ASCII -----------------------------------------------------
# ...
       7033      8.901      0.147     141.47      0.299       3.28      2.459       0.23      8.656      8.665     80.975      0.236        130     83.066     91.937     163.71     40.789      8.656     141.47     91.937     83.066      0.299      0.147      0.236       3.28      2.459     80.975     40.789
     7033.5      8.861      0.151     142.11      0.284      3.362      2.452      0.224      8.663      8.655     82.695      0.248     126.97     88.531     95.437     188.18     41.465      8.663     142.11     95.437     88.531      0.284      0.151      0.248      3.362      2.452     82.695     41.465
       7034      8.804      0.151     141.58      0.277      3.394      2.452      0.221      8.668      8.662     85.313      0.267      121.3     93.234     98.934     184.82     41.488      8.668     141.58     98.934     93.234      0.277      0.151      0.267      3.394      2.452     85.313     41.488
     7034.5      8.788      0.151     141.35      0.274      3.467      2.451      0.219      8.665       8.66     82.884       0.25     132.53      96.11     103.04     158.33     41.026      8.665     141.35     103.04      96.11      0.274      0.151       0.25      3.467      2.451     82.884     41.026
       7035      8.788      0.153     147.87       0.28      3.379      2.448      0.223      8.669      8.663     81.266      0.238     147.76     97.205     105.61      175.7     40.066      8.669     147.87     105.61     97.205       0.28      0.153      0.238      3.379      2.448     81.266     40.066
     7035.5      8.804      0.158     152.55      0.271      3.323       2.44      0.221      8.675      8.637     82.073      0.244     154.84     97.814     105.22     189.95     40.019      8.675     152.55     105.22     97.814      0.271      0.158      0.244      3.323       2.44     82.073     40.019
       7036      8.804      0.154     159.81      0.262      3.347      2.447      0.214      8.681      8.608     82.225      0.245     176.07     100.15     104.23     183.75     40.214      8.681     159.81     104.23     100.15      0.262      0.154      0.245      3.347      2.447     82.225     40.214
     7036.5       8.78      0.155     169.97      0.273      3.277      2.446       0.22      8.671      8.609     80.238      0.231     203.26     104.42     105.95      168.5     41.157      8.671     169.97     105.95     104.42      0.273      0.155      0.231      3.277      2.446     80.238     41.157
       7037      8.747      0.172     192.51        0.3      3.231      2.416      0.241      8.666      8.628     81.475       0.24     210.06     111.11     111.28     149.11      40.89      8.666     192.51     111.28     111.11        0.3      0.172       0.24      3.231      2.416     81.475      40.89
     7037.5      8.747      0.187     208.59      0.317      3.157      2.391      0.255      8.664      8.631     84.981      0.264     199.67     120.81     121.75      174.9     40.149      8.664     208.59     121.75     120.81      0.317      0.187      0.264      3.157      2.391     84.981     40.149
       7038      8.747      0.194      203.9      0.332      3.199      2.378      0.265      8.666       8.63      86.65      0.276     172.08     133.39     137.89     195.01     39.883      8.666      203.9     137.89     133.39      0.332      0.194      0.276      3.199      2.378      86.65     39.883
     7038.5       8.78      0.181     172.51      0.308      3.492        2.4      0.249      8.669      8.634     84.778      0.263     122.08     147.23      162.3     284.63     39.936      8.669     172.51      162.3     147.23      0.308      0.181      0.263      3.492        2.4     84.778     39.936
       7039      8.796       0.15     126.62      0.206      3.917      2.453      0.185      8.701      8.643     80.584      0.233     71.743     159.13     193.97     418.36     40.072      8.701     126.62     193.97     159.13      0.206       0.15      0.233      3.917      2.453     80.584     40.072
     7039.5      8.796      0.101     75.364      0.117      4.432      2.537      0.114      8.728      8.654     76.139      0.202      43.54     164.38      221.5     963.23     40.232      8.728     75.364      221.5     164.38      0.117      0.101      0.202      4.432      2.537     76.139     40.232
       7040      8.796      0.046     38.475      0.071      4.742      2.632      0.066      8.739      8.665     65.459      0.126     43.877     156.96     228.43     4027.3     40.902      8.739     38.475     228.43     156.96      0.071      0.046      0.126      4.742      2.632     65.459     40.902
     7040.5       8.78      0.026     38.457      0.062      4.726      2.666      0.053      8.728      8.685     54.136      0.046     73.822     137.92     206.17     754.99      40.92      8.728     38.457     206.17     137.92      0.062      0.026      0.046      4.726      2.666     54.136      40.92
       7041      8.772      0.046     64.113      0.073      4.386      2.631      0.067      8.713      8.713     54.192      0.047     112.47     113.98     165.04     328.04     41.708      8.713     64.113     165.04     113.98      0.073      0.046      0.047      4.386      2.631     54.192     41.708
     7041.5       8.78      0.088     97.522      0.118      3.986       2.56       0.11      8.716      8.722     58.558      0.077     142.36     92.322     122.34     225.72     41.915      8.716     97.522     122.34     92.322      0.118      0.088      0.077      3.986       2.56     58.558     41.915
       7042      8.788      0.123     125.09      0.198      3.672      2.499      0.169      8.729      8.728     61.264      0.097     158.26     75.962     90.035     182.13     42.419      8.729     125.09     90.035     75.962      0.198      0.123      0.097      3.672      2.499     61.264     42.419
     7042.5       8.78      0.142     142.11      0.263      3.352      2.467       0.21      8.738      8.718     70.191       0.16     161.18      64.92     69.213     144.99      43.61      8.738     142.11     69.213      64.92      0.263      0.142       0.16      3.352      2.467     70.191      43.61
       7043       8.78      0.147     150.97      0.272      3.256      2.459      0.216      8.773      8.716     80.344      0.232     151.69     57.539     56.752     108.32      44.41      8.773     150.97     56.752     57.539      0.272      0.147      0.232      3.256      2.459     80.344      44.41
     7043.5      8.796      0.142     144.15      0.263      3.307      2.467       0.21      8.802      8.717     83.044      0.251     136.07      52.56       49.5     81.149     44.836      8.802     144.15       49.5      52.56      0.263      0.142      0.251      3.307      2.467     83.044     44.836
       7044      8.845      0.122     131.65      0.256      3.368      2.502      0.198      8.819      8.742     79.291      0.224     129.83     49.129     45.585     65.599     45.239      8.819     131.65     45.585     49.129      0.256      0.122      0.224      3.368      2.502     79.291     45.239
     7044.5      8.942      0.106     130.17      0.251      3.354      2.529      0.189      8.813      8.778     77.591      0.212     122.42     46.752     43.877      65.09     45.453      8.813     130.17     43.877     46.752      0.251      0.106      0.212      3.354      2.529     77.591     45.453
       7045      8.991       0.11     125.45      0.238      3.313      2.522      0.185      8.811      8.817     78.556      0.219     121.07      45.06     43.381     62.753      46.14      8.811     125.45     43.381      45.06      0.238       0.11      0.219      3.313      2.522     78.556      46.14
     7045.5      8.991      0.118     122.13      0.241      3.332      2.509      0.189      8.816      8.832     77.152      0.209        125     44.193     43.379      74.83     46.217      8.816     122.13     43.379     44.193      0.241      0.118      0.209      3.332      2.509     77.152     46.217
