~Version ---------------------------------------------------
VERS. 2.0 : CWLS log ASCII Standard -VERSION 2.0
WRAP.  NO : One line per depth step
~Well ------------------------------------------------------
STRT.F                     2587.0 : 
STOP.F                     9110.0 : 
STEP.F                        0.5 : 
NULL.                     -999.25 : 
COMP. HALLIBURTON ENERGY SERVICES : Company Name
WELL.        UNIVERSITY 6-17 NO.1 : Well Name
FLD .                     WILDCAT : Field Name
LOC .                  SECTION 17 : Location
SLOC.         2377 FSL X 1065 FWL : SURFACE Location
SECT.                             : Section
TOWN.                             : Township
RANG.                             : Range
COUN.                      REAGAN : County
STAT.                          TX : State
CTRY.                         USA : Country
SRVC. HALLIBURTON ENERGY SERVICES : Service Company
DATE.                    06-21-97 : DATE as MM/DD/YY
APIN.                42-303-34774 : API Well Number
UWI .              42303347740000 : UNIQUE WELL ID
PD  .                        G.L. : Permanent Datum
RUN .                         TWO : Run Number
DMF .                        K.B. : Drilling Measured From
LMF .                        K.B. : Logging Measured From
TCS .                             : Time Circulation Stopped
TLAB.                             : Time Logger at Bottom
DFT .                  FRESHWATER : Drilling Fluid Type
MCSS.                        MEAS : Mud Cake Sample Source
MFSS.                        MEAS : Mud Filtrate Sample Source
MSS .                         PIT : Mud Sample Source
LCCN.                             : Logging Company Name
LUL .                      ODESSA : Equiptment Location
LUN .                             : Logging Unit Number
ENGI.                     JOHNSON : Logging Engineer's Name
WITN.                    VAN-LIEW : Witness's Name
~Curves ----------------------------------------------------
DEPT     .F    00 000 00 00 : 1  Depth Curve
CALI     .INCH 99 075 22 05 : 2  CALIPER
DPHI     .DECP 99 075 22 05 : 3  DENSITY POROSITY -LIME-
GR       .GAPI 99 075 22 05 : 4  GAMMA RAY
NPHI     .DECP 99 075 22 05 : 5  NEUTRON POROSITY -LIME-
PE       .B/E  99 075 22 05 : 6  PHOTO-ELECTRIC FACTOR
RHOB     .G/C3 99 075 22 05 : 7  BULK DENSITY
PHIX     .DECP 99 075 22 05 : 8  CROSSPLOT POROSITY
C13      .INCH 99 075 22 05 : 9  CALIPER PADS 1 - 3    -FACT-
C24      .INCH 99 075 22 05 : 10  CALIPER PADS 2 - 4    -FACT-
DT       .US/F 99 075 22 05 : 11  SONIC TRANSIT TIME
SPHI     .DECP 99 075 22 05 : 12  SONIC POROSITY  -LIME-
GR3      .     99 075 22 05 : 13  GAMMA RAY
ILD      .OHMM 99 075 22 05 : 14  IL, DEEP RESISTIVITY
ILM      .OHMM 99 075 22 05 : 15  IL, MEDIUM RESISTIVITY
SGRD     .OHMM 99 075 22 05 : 16  SHORT GUARD RESISTIVITY
SP       .MV   99 075 22 05 : 17  SPONTANEOUS POTENTIAL
CAL_N    .INCH 99 075 22 05 : 9  CALIPER PADS 1 - 3    -FACT-
GR_N     .GAPI 99 075 22 05 : 4  GAMMA RAY
RESMED_N .OHMM 99 075 22 05 : 15  IL, MEDIUM RESISTIVITY
RESDEEP_N.OHMM 99 075 22 05 : 14  IL, DEEP RESISTIVITY
NPHI_N   .DECP 99 075 22 05 : 5  NEUTRON POROSITY -LIME-
DPHI_N   .DECP 99 075 22 05 : 3  DENSITY POROSITY -LIME-
SPHI_N   .DECP 99 075 22 05 : 12  SONIC POROSITY  -LIME-
PE_N     .B/E  99 075 22 05 : 6  PHOTO-ELECTRIC FACTOR
RHOB_N   .G/C3 99 075 22 05 : 7  BULK DENSITY
DTC_N    .US/F 99 075 22 05 : 11  SONIC TRANSIT TIME
SP_N     .MV   99 075 22 05 : 17  SPONTANEOUS POTENTIAL
~Params ----------------------------------------------------
EDF .F   2636.0 : Elevation, Derrick Floor
EGL .F   2653.0 : Elevation, Ground Level
EKB .F   2654.0 : Elevation, Kelly Bushing
EPD .F   2636.0 : Elevation Perminent Datum
TDD .F   9097.0 : Total Depth-Driller
TDL .F   9097.0 : Total Depth-Logger
CBD .F   3119.0 : Casing Bottom Driller 1
CBL .F   3119.0 : Casing Bottom Logger 1
TLI .F   3119.0 : Top Logged Interval
BLI .F   9093.0 : Bottom Logged Interval
DFD .LB/G   9.0 : Drilling Fluid Density
DFPH.----  10.5 : Drilling Fluid Ph
DFL .C3     8.0 : Drilling Fluid Loss
DFV .CP    54.0 : Drilling Fluid Viscosity
RM  .CP    54.0 : Mud Sample Resistivity
MST .DEGF  74.0 : Mud Sample Temperature
RMF .DEGF  74.0 : Mud Filtrate Resistivity
MFST.DEGF  74.0 : Mud Filtrate Sample Temp
RMC .DEGF  74.0 : Mud Cake Resistivity
MCST.DEGF  74.0 : Mud Cake Sample Temperature
MRT .DEGF 141.0 : Maximum Recorded Temperature
BHT .DEGF 141.0 : Bottom Hole Temperature
~Other -----------------------------------------------------
~ASCII -----------------------------------------------------
# ...
       8281      8.772      0.085     73.486      0.159      3.373      2.565      0.133      8.689      8.655     71.806      0.171     57.923     41.512     61.998     63.029     71.929      8.689     73.486     61.998     41.512      0.159      0.085      0.171      3.373      2.565     71.806     71.929
     8281.5      8.764      0.067     67.662      0.129      3.432      2.595      0.109      8.596      8.527     71.278      0.167     55.619     45.596     54.192     96.618     71.354      8.596     67.662     54.192     45.596      0.129      0.067      0.167      3.432      2.595     71.278     71.354
       8282      8.764      0.051      64.75      0.106      3.375      2.623      0.089      8.619      8.427     71.025      0.166     53.597      54.79     51.428     79.959     70.809      8.619      64.75     51.428      54.79      0.106      0.051      0.166      3.375      2.623     71.025     70.809
     8282.5      8.723      0.059     62.062      0.104       3.57       2.61       0.09      8.614      8.416     68.936      0.151     51.967      68.86     59.855     63.526     69.446      8.614     62.062     59.855      68.86      0.104      0.059      0.151       3.57       2.61     68.936     69.446
       8283      8.723       0.06     56.514      0.105      3.739      2.607      0.092      8.632       8.42     63.438      0.112     48.596     88.366     79.088     62.947     68.024      8.632     56.514     79.088     88.366      0.105       0.06      0.112      3.739      2.607     63.438     68.024
     8283.5      8.699      0.052     51.518      0.072      3.753      2.622      0.068      8.626      8.405     58.947       0.08     37.754     110.59     106.54     95.754     66.744      8.626     51.518     106.54     110.59      0.072      0.052       0.08      3.753      2.622     58.947     66.744
       8284      8.731       0.04     40.783      0.041       3.85      2.641      0.044      8.626      8.398     62.491      0.105     30.169     136.01     128.62     246.93     65.268      8.626     40.783     128.62     136.01      0.041       0.04      0.105       3.85      2.641     62.491     65.268
     8284.5      8.772      0.031     31.548       0.03      4.077      2.658      0.033      8.643      8.389     60.684      0.093     30.843     158.98     152.15      778.1      63.71      8.643     31.548     152.15     158.98       0.03      0.031      0.093      4.077      2.658     60.684      63.71
       8285      8.764      0.017     30.239      0.032      4.181      2.681       0.03       8.65      8.386     53.216       0.04     31.012      186.3     194.65     585.44     62.465       8.65     30.239     194.65      186.3      0.032      0.017       0.04      4.181      2.681     53.216     62.465
     8285.5      8.772      0.032     30.997      0.037      4.183      2.655      0.039      8.656      8.379     51.875       0.03     33.147     204.28     309.85     409.81     61.031      8.656     30.997     309.85     204.28      0.037      0.032       0.03      4.183      2.655     51.875     61.031
       8286      8.723      0.033     31.979      0.046      4.194      2.654      0.045      8.672      8.408     50.717      0.022     35.675      211.5     496.81     385.56     60.534      8.672     31.979     496.81      211.5      0.046      0.033      0.022      4.194      2.654     50.717     60.534
     8286.5      8.707      0.037     34.184      0.048      3.956      2.646      0.048      8.686      8.437      48.97       0.01     38.484     211.63     678.15      402.4     59.615      8.686     34.184     678.15     211.63      0.048      0.037       0.01      3.956      2.646      48.97     59.615
       8287      8.691      0.024     37.527      0.043      3.872      2.669       0.04      8.744      8.446     52.089      0.032       35.9      210.9     677.07     527.77     58.732      8.744     37.527     677.07      210.9      0.043      0.024      0.032      3.872      2.669     52.089     58.732
     8287.5      8.699      0.054     38.836      0.038      3.846      2.618      0.047       8.91      8.445     52.917      0.038     33.315     208.05     726.26      533.8     57.968       8.91     38.836     726.26     208.05      0.038      0.054      0.038      3.846      2.618     52.917     57.968
       8288      8.731      0.061     37.458      0.036      3.877      2.606      0.047      8.888      8.459     51.431      0.027     32.192     209.71     777.32      600.3     57.452      8.888     37.458     777.32     209.71      0.036      0.061      0.027      3.877      2.606     51.431     57.452
     8288.5      8.755      0.059     37.424      0.032      3.999      2.609      0.044       8.75      8.484     51.042      0.024      26.18     206.39     643.33        900      56.38       8.75     37.424     643.33     206.39      0.032      0.059      0.024      3.999      2.609     51.042      56.38
       8289      8.772      0.028     33.874      0.025      4.169      2.662      0.029      8.661      8.504     51.478      0.027     24.214     200.99     441.44     2085.7     55.894      8.661     33.874     441.44     200.99      0.025      0.028      0.027      4.169      2.662     51.478     55.894
     8289.5      8.739      0.011     28.843       0.02      4.443       2.69      0.021      8.671      8.509     52.027      0.031     27.978     193.21     327.62     1542.9     55.811      8.671     28.843     327.62     193.21       0.02      0.011      0.031      4.443       2.69     52.027     55.811
       8290      8.731      0.014     31.496      0.021      4.512      2.686      0.022      8.674      8.527     50.931      0.024     34.664      187.2     272.54     618.82     56.528      8.674     31.496     272.54      187.2      0.021      0.014      0.024      4.512      2.686     50.931     56.528
     8290.5      8.723      0.019     37.751      0.026      4.465      2.678      0.027      8.672      8.546     49.742      0.015     37.529     178.92     244.53     361.82     57.701      8.672     37.751     244.53     178.92      0.026      0.019      0.015      4.465      2.678     49.742     57.701
       8291      8.747      0.024     41.679      0.035      4.338       2.67      0.034      8.674      8.547     49.759      0.015     44.439     173.31     229.93      282.9     58.839      8.674     41.679     229.93     173.31      0.035      0.024      0.015      4.338       2.67     49.759     58.839
     8291.5      8.707      0.028     45.074      0.046      4.226      2.662      0.044      8.684      8.559     50.086      0.018     46.181      169.4     222.03     253.95     59.153      8.684     45.074     222.03      169.4      0.046      0.028      0.018      4.226      2.662     50.086     59.153
       8292      8.691      0.036     47.813      0.053      4.061      2.649      0.051      8.698       8.58      51.28      0.026     45.787     167.72     219.93     253.77     59.899      8.698     47.813     219.93     167.72      0.053      0.036      0.026      4.061      2.649      51.28     59.899
     8292.5      8.682      0.037     47.245      0.055      3.947      2.648      0.052      8.696      8.597     52.922      0.038     46.012     167.13     221.21     235.23     60.137      8.696     47.245     221.21     167.13      0.055      0.037      0.038      3.947      2.648     52.922     60.137
       8293      8.699      0.037     45.418      0.056       3.86      2.646      0.053      8.688      8.627      53.88      0.044     49.832     168.09     224.82     220.76     61.245      8.688     45.418     224.82     168.09      0.056      0.037      0.044       3.86      2.646      53.88     61.245
     8293.5      8.715       0.05     45.987      0.058      3.899      2.625      0.058      8.675      8.648      53.68      0.043     50.731     169.33     230.82     215.56     60.788      8.675     45.987     230.82     169.33      0.058       0.05      0.043      3.899      2.625      53.68     60.788
