~Version ---------------------------------------------------
VERS. 2.0 : CWLS log ASCII Standard -VERSION 2.0
WRAP.  NO : One line per depth step
~Well ------------------------------------------------------
STRT.F                     2587.0 : 
STOP.F                     9110.0 : 
STEP.F                        0.5 : 
NULL.                     -999.25 : 
COMP. HALLIBURTON ENERGY SERVICES : Company Name
WELL.        UNIVERSITY 6-17 NO.1 : Well Name
FLD .                     WILDCAT : Field Name
LOC .                  SECTION 17 : Location
SLOC.         2377 FSL X 1065 FWL : SURFACE Location
SECT.                             : Section
TOWN.                             : Township
RANG.                             : Range
COUN.                      REAGAN : County
STAT.                          TX : State
CTRY.                         USA : Country
SRVC. HALLIBURTON ENERGY SERVICES : Service Company
DATE.                    06-21-97 : DATE as MM/DD/YY
APIN.                42-303-34774 : API Well Number
UWI .              42303347740000 : UNIQUE WELL ID
PD  .                        G.L. : Permanent Datum
RUN .                         TWO : Run Number
DMF .                        K.B. : Drilling Measured From
LMF .                        K.B. : Logging Measured From
TCS .                             : Time Circulation Stopped
TLAB.                             : Time Logger at Bottom
DFT .                  FRESHWATER : Drilling Fluid Type
MCSS.                        MEAS : Mud Cake Sample Source
MFSS.                        MEAS : Mud Filtrate Sample Source
MSS .                         PIT : Mud Sample Source
LCCN.                             : Logging Company Name
LUL .                      ODESSA : Equiptment Location
LUN .                             : Logging Unit Number
ENGI.                     JOHNSON : Logging Engineer's Name
WITN.                    VAN-LIEW : Witness's Name
~Curves ----------------------------------------------------
DEPT     .F    00 000 00 00 : 1  Depth Curve
CALI     .INCH 99 075 22 05 : 2  CALIPER
DPHI     .DECP 99 075 22 05 : 3  DENSITY POROSITY -LIME-
GR       .GAPI 99 075 22 05 : 4  GAMMA RAY
NPHI     .DECP 99 075 22 05 : 5  NEUTRON POROSITY -LIME-
PE       .B/E  99 075 22 05 : 6  PHOTO-ELECTRIC FACTOR
RHOB     .G/C3 99 075 22 05 : 7  BULK DENSITY
PHIX     .DECP 99 075 22 05 : 8  CROSSPLOT POROSITY
C13      .INCH 99 075 22 05 : 9  CALIPER PADS 1 - 3    -FACT-
C24      .INCH 99 075 22 05 : 10  CALIPER PADS 2 - 4    -FACT-
DT       .US/F 99 075 22 05 : 11  SONIC TRANSIT TIME
SPHI     .DECP 99 075 22 05 : 12  SONIC POROSITY  -LIME-
GR3      .     99 075 22 05 : 13  GAMMA RAY
ILD      .OHMM 99 075 22 05 : 14  IL, DEEP RESISTIVITY
ILM      .OHMM 99 075 22 05 : 15  IL, MEDIUM RESISTIVITY
SGRD     .OHMM 99 075 22 05 : 16  SHORT GUARD RESISTIVITY
SP       .MV   99 075 22 05 : 17  SPONTANEOUS POTENTIAL
CAL_N    .INCH 99 075 22 05 : 9  CALIPER PADS 1 - 3    -FACT-
GR_N     .GAPI 99 075 22 05 : 4  GAMMA RAY
RESMED_N .OHMM 99 075 22 05 : 15  IL, MEDIUM RESISTIVITY
RESDEEP_N.OHMM 99 075 22 05 : 14  IL, DEEP RESISTIVITY
NPHI_N   .DECP 99 075 22 05 : 5  NEUTRON POROSITY -LIME-
DPHI_N   .DECP 99 075 22 05 : 3  DENSITY POROSITY -LIME-
SPHI_N   .DECP 99 075 22 05 : 12  SONIC POROSITY  -LIME-
PE_N     .B/E  99 075 22 05 : 6  PHOTO-ELECTRIC FACTOR
RHOB_N   .G/C3 99 075 22 05 : 7  BULK DENSITY
DTC_N    .US/F 99 075 22 05 : 11  SONIC TRANSIT TIME
SP_N     .MV   99 075 22 05 : 17  SPONTANEOUS POTENTIAL
~Params ----------------------------------------------------
EDF .F   2636.0 : Elevation, Derrick Floor
EGL .F   2653.0 : Elevation, Ground Level
EKB .F   2654.0 : Elevation, Kelly Bushing
EPD .F   2636.0 : Elevation Perminent Datum
TDD .F   9097.0 : Total Depth-Driller
TDL .F   9097.0 : Total Depth-Logger
CBD .F   3119.0 : Casing Bottom Driller 1
CBL .F   3119.0 : Casing Bottom Logger 1
TLI .F   3119.0 : Top Logged Interval
BLI .F   9093.0 : Bottom Logged Interval
DFD .LB/G   9.0 : Drilling Fluid Density
DFPH.----  10.5 : Drilling Fluid Ph
DFL .C3     8.0 : Drilling Fluid Loss
DFV .CP    54.0 : Drilling Fluid Viscosity
RM  .CP    54.0 : Mud Sample Resistivity
MST .DEGF  74.0 : Mud Sample Temperature
RMF .DEGF  74.0 : Mud Filtrate Resistivity
MFST.DEGF  74.0 : Mud Filtrate Sample Temp
RMC .DEGF  74.0 : Mud Cake Resistivity
MCST.DEGF  74.0 : Mud Cake Sample Temperature
MRT .DEGF 141.0 : Maximum Recorded Temperature
BHT .DEGF 141.0 : Bottom Hole Temperature
~Other -----------------------------------------------------
~ASCII -----------------------------------------------------
# ...
       6214      9.193      0.135     91.836      0.243      3.058       2.48      0.197      8.957       8.87     79.064      0.223     98.878     17.806     18.199     22.391     54.033      8.957     91.836     18.199     17.806      0.243      0.135      0.223      3.058       2.48     79.064     54.033
     6214.5      9.218      0.137     90.733      0.247      2.988      2.476        0.2      8.952      8.875     79.783      0.228     96.912     17.171     18.082     22.905     54.205      8.952     90.733     18.082     17.171      0.247      0.137      0.228      2.988      2.476     79.783     54.205
       6215      9.209      0.135     90.044      0.262      2.976       2.48      0.207      8.954      8.851     77.602      0.212     96.631     16.512      17.55     24.596     54.318      8.954     90.044      17.55     16.512      0.262      0.135      0.212      2.976       2.48     77.602     54.318
     6215.5      9.209      0.132     90.285       0.27       2.95      2.485      0.209      8.977      8.829     78.028      0.215     95.451     16.049     16.596     25.459     54.454      8.977     90.285     16.596     16.049       0.27      0.132      0.215       2.95      2.485     78.028     54.454
       6216      9.161      0.128     85.288      0.252      2.987      2.491      0.199      8.967      8.845     80.711      0.234     89.609     15.873     15.541     25.117     54.312      8.967     85.288     15.541     15.873      0.252      0.128      0.234      2.987      2.491     80.711     54.312
     6216.5      9.153      0.119     82.945       0.24      2.939      2.507      0.189      8.971      8.865     79.109      0.223     87.418     15.851     14.852     21.841      53.76      8.971     82.945     14.852     15.851       0.24      0.119      0.223      2.939      2.507     79.109      53.76
       6217      9.161      0.105     82.445      0.227      2.988      2.531      0.177      8.955      8.862     76.041      0.201     79.777     15.696     14.725     18.168     54.211      8.955     82.445     14.725     15.696      0.227      0.105      0.201      2.988      2.531     76.041     54.211
     6217.5      9.136      0.104     77.845      0.217      3.326      2.533      0.171      8.947      8.853     74.306      0.189     71.462     15.283      14.95     15.953     54.472      8.947     77.845      14.95     15.283      0.217      0.104      0.189      3.326      2.533     74.306     54.472
       6218      9.055      0.082     73.107      0.209      3.445      2.569      0.159      8.944      8.835      72.27      0.174     69.271     14.719     15.061     18.672     54.312      8.944     73.107     15.061     14.719      0.209      0.082      0.174      3.445      2.569      72.27     54.312
     6218.5      9.031      0.067     70.298      0.183        3.5      2.596      0.139      8.974       8.79     72.106      0.173     68.822     14.282     14.708     22.132     54.703      8.974     70.298     14.708     14.282      0.183      0.067      0.173        3.5      2.596     72.106     54.703
       6219      9.007      0.072     69.609      0.169      3.453      2.586      0.133      9.025      8.754     70.706      0.163     74.721      14.11     14.164     23.949     55.852      9.025     69.609     14.164      14.11      0.169      0.072      0.163      3.453      2.586     70.706     55.852
     6219.5      9.072       0.09     74.847      0.185       3.39      2.557      0.149       9.07       8.76      67.67      0.142     89.384     14.212     13.672     22.224     56.634       9.07     74.847     13.672     14.212      0.185       0.09      0.142       3.39      2.557      67.67     56.634
       6220      9.169       0.11     84.547      0.222      3.159      2.523      0.176      9.078      8.767     68.406      0.147     95.845     14.514     13.335     18.829     57.286      9.078     84.547     13.335     14.514      0.222       0.11      0.147      3.159      2.523     68.406     57.286
     6220.5      9.242      0.116     93.748      0.242      2.828      2.512      0.189      9.099      8.793     74.705      0.192     100.62     14.908     13.366     19.086     57.126      9.099     93.748     13.366     14.908      0.242      0.116      0.192      2.828      2.512     74.705     57.126
       6221      9.266       0.13     100.43       0.25      2.777      2.487      0.198      9.195      8.786     80.578      0.233     102.25     15.352     13.819     17.372     57.529      9.195     100.43     13.819     15.352       0.25       0.13      0.233      2.777      2.487     80.578     57.529
     6221.5      9.266      0.147     101.07      0.261      2.699      2.459      0.211      9.145      8.796     81.036      0.236     96.912     15.687     14.957      17.81     57.517      9.145     101.07     14.957     15.687      0.261      0.147      0.236      2.699      2.459     81.036     57.517
       6222       9.25      0.143     95.799      0.265      2.625      2.466      0.211       9.06       8.77     80.558      0.233     92.249     15.844     16.342     18.572       57.5       9.06     95.799     16.342     15.844      0.265      0.143      0.233      2.625      2.466     80.558       57.5
     6222.5      9.209      0.142     93.266      0.247      2.595      2.467      0.202      9.001      8.749     85.598      0.269     92.305     15.906     17.391     21.312     57.328      9.001     93.266     17.391     15.906      0.247      0.142      0.269      2.595      2.467     85.598     57.328
       6223      9.153      0.136     91.767      0.236      2.618      2.477      0.194      8.996      8.717     84.467      0.261     92.586     15.886     17.625      26.81     57.624      8.996     91.767     17.625     15.886      0.236      0.136      0.261      2.618      2.477     84.467     57.624
     6223.5      9.128      0.155     86.684      0.241      2.627      2.444      0.205      8.993      8.719     78.334      0.217     93.597     15.861     17.143     29.657     57.826      8.993     86.684     17.143     15.861      0.241      0.155      0.217      2.627      2.444     78.334     57.826
       6224      9.112      0.158     87.545      0.243      2.626       2.44      0.207      8.991      8.717     76.252      0.203     93.485      15.84     16.272     31.126     57.594      8.991     87.545     16.272      15.84      0.243      0.158      0.203      2.626       2.44     76.252     57.594
     6224.5       9.12       0.15     90.027      0.234      2.663      2.454      0.199      9.003      8.715     77.977      0.215     91.968     15.657     15.422     26.166     57.014      9.003     90.027     15.422     15.657      0.234       0.15      0.215      2.663      2.454     77.977     57.014
       6225      9.153      0.136     89.492      0.218      2.714      2.478      0.185      8.995      8.722      79.15      0.223     89.384     15.294      14.81     19.964     57.132      8.995     89.492      14.81     15.294      0.218      0.136      0.223      2.714      2.478      79.15     57.132
     6225.5      9.161      0.122     89.027      0.211       2.79      2.501      0.175      8.982      8.726     77.144      0.209     85.058     14.855     14.487     17.264     56.551      8.982     89.027     14.487     14.855      0.211      0.122      0.209       2.79      2.501     77.144     56.551
       6226      9.153       0.12     92.525      0.219      2.871      2.505      0.179      8.945      8.719     76.195      0.202     90.283     14.594     14.295     17.659     56.605      8.945     92.525     14.295     14.594      0.219       0.12      0.202      2.871      2.505     76.195     56.605
     6226.5      9.177      0.122     93.162      0.231      2.924      2.501      0.186      8.913      8.716     76.942      0.208     98.036     14.718     14.267     19.013     57.488      8.913     93.162     14.267     14.718      0.231      0.122      0.208      2.924      2.501     76.942     57.488
