~Version ---------------------------------------------------
VERS. 2.0 : CWLS log ASCII Standard -VERSION 2.0
WRAP.  NO : One line per depth step
~Well ------------------------------------------------------
STRT.F                     2587.0 : 
STOP.F                     9110.0 : 
STEP.F                        0.5 : 
NULL.                     -999.25 : 
COMP. HALLIBURTON ENERGY SERVICES : Company Name
WELL.        UNIVERSITY 6-17 NO.1 : Well Name
FLD .                     WILDCAT : Field Name
LOC .                  SECTION 17 : Location
SLOC.         2377 FSL X 1065 FWL : SURFACE Location
SECT.                             : Section
TOWN.                             : Township
RANG.                             : Range
COUN.                      REAGAN : County
STAT.                          TX : State
CTRY.                         USA : Country
SRVC. HALLIBURTON ENERGY SERVICES : Service Company
DATE.                    06-21-97 : DATE as MM/DD/YY
APIN.                42-303-34774 : API Well Number
UWI .              42303347740000 : UNIQUE WELL ID
PD  .                        G.L. : Permanent Datum
RUN .                         TWO : Run Number
DMF .                        K.B. : Drilling Measured From
LMF .                        K.B. : Logging Measured From
TCS .                             : Time Circulation Stopped
TLAB.                             : Time Logger at Bottom
DFT .                  FRESHWATER : Drilling Fluid Type
MCSS.                        MEAS : Mud Cake Sample Source
MFSS.                        MEAS : Mud Filtrate Sample Source
MSS .                         PIT : Mud Sample Source
LCCN.                             : Logging Company Name
LUL .                      ODESSA : Equiptment Location
LUN .                             : Logging Unit Number
ENGI.                     JOHNSON : Logging Engineer's Name
WITN.                    VAN-LIEW : Witness's Name
~Curves ----------------------------------------------------
DEPT     .F    00 000 00 00 : 1  Depth Curve
CALI     .INCH 99 075 22 05 : 2  CALIPER
DPHI     .DECP 99 075 22 05 : 3  DENSITY POROSITY -LIME-
GR       .GAPI 99 075 22 05 : 4  GAMMA RAY
NPHI     .DECP 99 075 22 05 : 5  NEUTRON POROSITY -LIME-
PE       .B/E  99 075 22 05 : 6  PHOTO-ELECTRIC FACTOR
RHOB     .G/C3 99 075 22 05 : 7  BULK DENSITY
PHIX     .DECP 99 075 22 05 : 8  CROSSPLOT POROSITY
C13      .INCH 99 075 22 05 : 9  CALIPER PADS 1 - 3    -FACT-
C24      .INCH 99 075 22 05 : 10  CALIPER PADS 2 - 4    -FACT-
DT       .US/F 99 075 22 05 : 11  SONIC TRANSIT TIME
SPHI     .DECP 99 075 22 05 : 12  SONIC POROSITY  -LIME-
GR3      .     99 075 22 05 : 13  GAMMA RAY
ILD      .OHMM 99 075 22 05 : 14  IL, DEEP RESISTIVITY
ILM      .OHMM 99 075 22 05 : 15  IL, MEDIUM RESISTIVITY
SGRD     .OHMM 99 075 22 05 : 16  SHORT GUARD RESISTIVITY
SP       .MV   99 075 22 05 : 17  SPONTANEOUS POTENTIAL
CAL_N    .INCH 99 075 22 05 : 9  CALIPER PADS 1 - 3    -FACT-
GR_N     .GAPI 99 075 22 05 : 4  GAMMA RAY
RESMED_N .OHMM 99 075 22 05 : 15  IL, MEDIUM RESISTIVITY
RESDEEP_N.OHMM 99 075 22 05 : 14  IL, DEEP RESISTIVITY
NPHI_N   .DECP 99 075 22 05 : 5  NEUTRON POROSITY -LIME-
DPHI_N   .DECP 99 075 22 05 : 3  DENSITY POROSITY -LIME-
SPHI_N   .DECP 99 075 22 05 : 12  SONIC POROSITY  -LIME-
PE_N     .B/E  99 075 22 05 : 6  PHOTO-ELECTRIC FACTOR
RHOB_N   .G/C3 99 075 22 05 : 7  BULK DENSITY
DTC_N    .US/F 99 075 22 05 : 11  SONIC TRANSIT TIME
SP_N     .MV   99 075 22 05 : 17  SPONTANEOUS POTENTIAL
~Params ----------------------------------------------------
EDF .F   2636.0 : Elevation, Derrick Floor
EGL .F   2653.0 : Elevation, Ground Level
EKB .F   2654.0 : Elevation, Kelly Bushing
EPD .F   2636.0 : Elevation Perminent Datum
TDD .F   9097.0 : Total Depth-Driller
TDL .F   9097.0 : Total Depth-Logger
CBD .F   3119.0 : Casing Bottom Driller 1
CBL .F   3119.0 : Casing Bottom Logger 1
TLI .F   3119.0 : Top Logged Interval
BLI .F   9093.0 : Bottom Logged Interval
DFD .LB/G   9.0 : Drilling Fluid Density
DFPH.----  10.5 : Drilling Fluid Ph
DFL .C3     8.0 : Drilling Fluid Loss
DFV .CP    54.0 : Drilling Fluid Viscosity
RM  .CP    54.0 : Mud Sample Resistivity
MST .DEGF  74.0 : Mud Sample Temperature
RMF .DEGF  74.0 : Mud Filtrate Resistivity
MFST.DEGF  74.0 : Mud Filtrate Sample Temp
RMC .DEGF  74.0 : Mud Cake Resistivity
MCST.DEGF  74.0 : Mud Cake Sample Temperature
MRT .DEGF 141.0 : Maximum Recorded Temperature
BHT .DEGF 141.0 : Bottom Hole Temperature
~Other -----------------------------------------------------
~ASCII -----------------------------------------------------
# ...
       3731      8.491      0.037     33.478      0.068      4.901      2.647      0.061      8.505      8.734     57.091      0.067     39.551     20.576     34.712     54.828     28.334      8.505     33.478     34.712     20.576      0.068      0.037      0.067      4.901      2.647     57.091     28.334
     3731.5      8.515      0.036       31.6      0.066      4.835      2.648      0.059      8.508      8.742     55.919      0.059      42.36     17.409     29.409     49.386     28.944      8.508       31.6     29.409     17.409      0.066      0.036      0.059      4.835      2.648     55.919     28.944
       3732      8.531      0.038     31.617      0.069       4.73      2.645      0.062      8.515      8.755     56.419      0.062     38.933     14.545     23.685     40.916     29.205      8.515     31.617     23.685     14.545      0.069      0.038      0.062       4.73      2.645     56.419     29.205
     3732.5      8.547      0.043     35.287      0.073      4.413      2.637      0.066      8.515      8.745     57.266      0.068     39.383      12.11     18.746     30.256     29.039      8.515     35.287     18.746      12.11      0.073      0.043      0.068      4.413      2.637     57.266     29.039
       3733      8.555      0.054     36.441      0.083      3.953      2.618      0.076      8.522      8.743     57.225      0.068     43.091     10.163     14.929     21.871     29.465      8.522     36.441     14.929     10.163      0.083      0.054      0.068      3.953      2.618     57.225     29.465
     3733.5       8.58      0.065     39.439      0.097      3.545      2.599      0.089      8.549      8.772      58.58      0.078     43.933       8.59     12.167     16.663     29.471      8.549     39.439     12.167       8.59      0.097      0.065      0.078      3.545      2.599      58.58     29.471
       3734      8.612      0.083     43.661      0.117       3.21      2.568      0.108      8.601      8.829     60.094      0.088     45.507      7.383       9.78     14.461      29.85      8.601     43.661       9.78      7.383      0.117      0.083      0.088       3.21      2.568     60.094      29.85
     3734.5      8.693      0.103     47.796      0.133      2.988      2.534      0.124      8.649      8.862     61.336      0.097      51.63      6.478      8.313     13.365     29.311      8.649     47.796      8.313      6.478      0.133      0.103      0.097      2.988      2.534     61.336     29.311
       3735      8.782       0.12     52.035      0.151      2.777      2.504      0.142      8.675      8.896     63.875      0.115     53.934      5.813      7.255     12.642     29.234      8.675     52.035      7.255      5.813      0.151       0.12      0.115      2.777      2.504     63.875     29.234
     3735.5      8.799      0.137     56.101       0.17      2.615      2.475       0.16       8.71      8.926      65.98       0.13     52.361       5.34      6.525     11.524     28.908       8.71     56.101      6.525       5.34       0.17      0.137       0.13      2.615      2.475      65.98     28.908
       3736      8.807      0.148      57.91       0.18      2.573      2.457       0.17      8.749      8.981     66.878      0.136     55.956      5.013      6.055      9.616     29.228      8.749      57.91      6.055      5.013       0.18      0.148      0.136      2.573      2.457     66.878     29.228
     3736.5      8.807      0.156     57.979      0.197      2.553      2.444      0.182      8.758      9.032     68.367      0.147     58.934      4.753      5.791      8.813     28.292      8.758     57.979      5.791      4.753      0.197      0.156      0.147      2.553      2.444     68.367     28.292
       3737      8.823      0.166     56.807      0.206      2.491      2.426      0.191      8.751      9.023     70.605      0.163      57.81       4.57      5.654      8.537      26.26      8.751     56.807      5.654       4.57      0.206      0.166      0.163      2.491      2.426     70.605      26.26
     3737.5      8.823      0.177     57.531      0.208      2.415      2.407      0.198      8.752      8.984     72.186      0.174     59.159      4.437      5.587      8.681     24.369      8.752     57.531      5.587      4.437      0.208      0.177      0.174      2.415      2.407     72.186     24.369
       3738      8.823      0.184     56.583      0.214      2.386      2.395      0.204        8.8      8.953     72.886      0.179     58.147      4.348      5.565      8.869     22.829        8.8     56.583      5.565      4.348      0.214      0.184      0.179      2.386      2.395     72.886     22.829
     3738.5      8.815      0.194     57.376      0.218       2.32      2.379      0.211      8.861      8.945     73.081       0.18     59.159      4.286      5.569      8.726     22.023      8.861     57.376      5.569      4.286      0.218      0.194       0.18       2.32      2.379     73.081     22.023
       3739      8.823      0.205      56.98      0.225      2.283       2.36       0.22      8.933      8.954     74.005      0.187     58.372      4.239      5.582      8.697     21.507      8.933      56.98      5.582      4.239      0.225      0.205      0.187      2.283       2.36     74.005     21.507
     3739.5      8.799      0.202      57.29      0.221      2.301      2.365      0.216      8.984      8.967     74.662      0.191     60.338      4.193      5.587      8.742     20.849      8.984      57.29      5.587      4.193      0.221      0.202      0.191      2.301      2.365     74.662     20.849
       3740      8.831      0.202     60.081      0.217      2.337      2.364      0.214      8.995      8.998     74.462       0.19     64.215      4.141      5.572      8.782     19.978      8.995     60.081      5.572      4.141      0.217      0.202       0.19      2.337      2.364     74.462     19.978
     3740.5      8.872      0.201     61.201      0.221      2.361      2.366      0.216       8.99      9.023     74.589      0.191     62.698      4.088      5.541      8.797     19.729       8.99     61.201      5.541      4.088      0.221      0.201      0.191      2.361      2.366     74.589     19.729
       3741      8.855      0.203     64.044      0.223      2.363      2.364      0.218      8.989      9.032     74.655      0.191      64.72      4.036      5.504      8.786     19.984      8.989     64.044      5.504      4.036      0.223      0.203      0.191      2.363      2.364     74.655     19.984
     3741.5      8.888      0.204      64.13      0.225      2.393      2.362      0.219      8.988      9.041     74.678      0.192     66.518       3.99      5.463      8.744     19.546      8.988      64.13      5.463       3.99      0.225      0.204      0.192      2.393      2.362     74.678     19.546
       3742      8.904      0.197     60.202      0.222        2.4      2.373      0.214      8.984      9.075     74.753      0.192     65.732      3.955      5.421      8.786     19.226      8.984     60.202      5.421      3.955      0.222      0.197      0.192        2.4      2.373     74.753     19.226
     3742.5      8.928      0.195     57.772      0.222      2.345      2.377      0.213      8.991      9.115     74.695      0.192     64.833      3.927      5.386       8.79     19.078      8.991     57.772      5.386      3.927      0.222      0.195      0.192      2.345      2.377     74.695     19.078
       3743      8.936      0.188     56.325      0.224      2.349      2.389      0.211      8.993      9.134     74.977      0.194     66.574      3.906      5.359      8.757     19.445      8.993     56.325      5.359      3.906      0.224      0.188      0.194      2.349      2.389     74.977     19.445
     3743.5      8.969      0.188     53.413      0.228      2.317      2.389      0.213      8.993      9.134     75.145      0.195     63.822       3.89      5.341      8.689     19.267      8.993     53.413      5.341       3.89      0.228      0.188      0.195      2.317      2.389     75.145     19.267
