~Version ---------------------------------------------------
VERS. 2.0 : CWLS log ASCII Standard -VERSION 2.0
WRAP.  NO : One line per depth step
~Well ------------------------------------------------------
STRT.F                     2587.0 : 
STOP.F                     9110.0 : 
STEP.F                        0.5 : 
NULL.                     -999.25 : 
COMP. HALLIBURTON ENERGY SERVICES : Company Name
WELL.        UNIVERSITY 6-17 NO.1 : Well Name
FLD .                     WILDCAT : Field Name
LOC .                  SECTION 17 : Location
SLOC.         2377 FSL X 1065 FWL : SURFACE Location
SECT.                             : Section
TOWN.                             : Township
RANG.                             : Range
COUN.                      REAGAN : County
STAT.                          TX : State
CTRY.                         USA : Country
SRVC. HALLIBURTON ENERGY SERVICES : Service Company
DATE.                    06-21-97 : DATE as MM/DD/YY
APIN.                42-303-34774 : API Well Number
UWI .              42303347740000 : UNIQUE WELL ID
PD  .                        G.L. : Permanent Datum
RUN .                         TWO : Run Number
DMF .                        K.B. : Drilling Measured From
LMF .                        K.B. : Logging Measured From
TCS .                             : Time Circulation Stopped
TLAB.                             : Time Logger at Bottom
DFT .                  FRESHWATER : Drilling Fluid Type
MCSS.                        MEAS : Mud Cake Sample Source
MFSS.                        MEAS : Mud Filtrate Sample Source
MSS .                         PIT : Mud Sample Source
LCCN.                             : Logging Company Name
LUL .                      ODESSA : Equiptment Location
LUN .                             : Logging Unit Number
ENGI.                     JOHNSON : Logging Engineer's Name
WITN.                    VAN-LIEW : Witness's Name
~Curves ----------------------------------------------------
DEPT     .F    00 000 00 00 : 1  Depth Curve
CALI     .INCH 99 075 22 05 : 2  CALIPER
DPHI     .DECP 99 075 22 05 : 3  DENSITY POROSITY -LIME-
GR       .GAPI 99 075 22 05 : 4  GAMMA RAY
NPHI     .DECP 99 075 22 05 : 5  NEUTRON POROSITY -LIME-
PE       .B/E  99 075 22 05 : 6  PHOTO-ELECTRIC FACTOR
RHOB     .G/C3 99 075 22 05 : 7  BULK DENSITY
PHIX     .DECP 99 075 22 05 : 8  CROSSPLOT POROSITY
C13      .INCH 99 075 22 05 : 9  CALIPER PADS 1 - 3    -FACT-
C24      .INCH 99 075 22 05 : 10  CALIPER PADS 2 - 4    -FACT-
DT       .US/F 99 075 22 05 : 11  SONIC TRANSIT TIME
SPHI     .DECP 99 075 22 05 : 12  SONIC POROSITY  -LIME-
GR3      .     99 075 22 05 : 13  GAMMA RAY
ILD      .OHMM 99 075 22 05 : 14  IL, DEEP RESISTIVITY
ILM      .OHMM 99 075 22 05 : 15  IL, MEDIUM RESISTIVITY
SGRD     .OHMM 99 075 22 05 : 16  SHORT GUARD RESISTIVITY
SP       .MV   99 075 22 05 : 17  SPONTANEOUS POTENTIAL
CAL_N    .INCH 99 075 22 05 : 9  CALIPER PADS 1 - 3    -FACT-
GR_N     .GAPI 99 075 22 05 : 4  GAMMA RAY
RESMED_N .OHMM 99 075 22 05 : 15  IL, MEDIUM RESISTIVITY
RESDEEP_N.OHMM 99 075 22 05 : 14  IL, DEEP RESISTIVITY
NPHI_N   .DECP 99 075 22 05 : 5  NEUTRON POROSITY -LIME-
DPHI_N   .DECP 99 075 22 05 : 3  DENSITY POROSITY -LIME-
SPHI_N   .DECP 99 075 22 05 : 12  SONIC POROSITY  -LIME-
PE_N     .B/E  99 075 22 05 : 6  PHOTO-ELECTRIC FACTOR
RHOB_N   .G/C3 99 075 22 05 : 7  BULK DENSITY
DTC_N    .US/F 99 075 22 05 : 11  SONIC TRANSIT TIME
SP_N     .MV   99 075 22 05 : 17  SPONTANEOUS POTENTIAL
~Params ----------------------------------------------------
EDF .F   2636.0 : Elevation, Derrick Floor
EGL .F   2653.0 : Elevation, Ground Level
EKB .F   2654.0 : Elevation, Kelly Bushing
EPD .F   2636.0 : Elevation Perminent Datum
TDD .F   9097.0 : Total Depth-Driller
TDL .F   9097.0 : Total Depth-Logger
CBD .F   3119.0 : Casing Bottom Driller 1
CBL .F   3119.0 : Casing Bottom Logger 1
TLI .F   3119.0 : Top Logged Interval
BLI .F   9093.0 : Bottom Logged Interval
DFD .LB/G   9.0 : Drilling Fluid Density
DFPH.----  10.5 : Drilling Fluid Ph
DFL .C3     8.0 : Drilling Fluid Loss
DFV .CP    54.0 : Drilling Fluid Viscosity
RM  .CP    54.0 : Mud Sample Resistivity
MST .DEGF  74.0 : Mud Sample Temperature
RMF .DEGF  74.0 : Mud Filtrate Resistivity
MFST.DEGF  74.0 : Mud Filtrate Sample Temp
RMC .DEGF  74.0 : Mud Cake Resistivity
MCST.DEGF  74.0 : Mud Cake Sample Temperature
MRT .DEGF 141.0 : Maximum Recorded Temperature
BHT .DEGF 141.0 : Bottom Hole Temperature
~Other -----------------------------------------------------
~ASCII -----------------------------------------------------
# ...
       3328      9.091      0.127     13.336      0.129       4.46      2.494      0.132      8.942      8.808     62.269      0.104     18.764      7.585      9.767      15.78      7.955      8.942     13.336      9.767      7.585      0.129      0.127      0.104       4.46      2.494     62.269      7.955
     3328.5      9.091      0.133     14.577       0.13      4.447      2.482      0.136      8.948      8.837     62.658      0.106     17.528      7.691      9.859     15.657      7.931      8.948     14.577      9.859      7.691       0.13      0.133      0.106      4.447      2.482     62.658      7.931
       3329      9.066       0.14     16.076       0.13      4.457      2.471      0.138      8.937       8.86     62.384      0.105     16.686      7.804      9.967     15.744      7.736      8.937     16.076      9.967      7.804       0.13       0.14      0.105      4.457      2.471     62.384      7.736
     3329.5      9.066      0.136     15.903      0.128      4.525      2.478      0.135      8.945      8.882     62.155      0.103     15.281      7.923     10.081     15.889      7.143      8.945     15.903     10.081      7.923      0.128      0.136      0.103      4.525      2.478     62.155      7.143
       3330      9.066      0.133     13.836      0.125      4.552      2.483      0.132      8.954      8.873      61.88      0.101     14.607      8.046     10.194     15.866      7.481      8.954     13.836     10.194      8.046      0.125      0.133      0.101      4.552      2.483      61.88      7.481
     3330.5      9.066      0.129     12.578      0.123      4.518      2.489       0.13      8.943      8.863     61.289      0.097     14.832      8.181     10.301     16.145      6.871      8.943     12.578     10.301      8.181      0.123      0.129      0.097      4.518      2.489     61.289      6.871
       3331      9.066      0.132     11.613      0.124      4.435      2.484      0.131      8.941      8.817     61.795        0.1     14.438      8.328       10.4     16.462       7.57      8.941     11.613       10.4      8.328      0.124      0.132        0.1      4.435      2.484     61.795       7.57
     3331.5      9.066      0.128      11.63      0.127      4.485      2.491      0.131      8.936      8.764     62.153      0.103     15.899      8.491     10.511     16.451      7.244      8.936      11.63     10.511      8.491      0.127      0.128      0.103      4.485      2.491     62.153      7.244
       3332      9.066      0.129     12.888      0.126      4.424       2.49      0.131      8.952      8.722     61.255      0.097     16.573      8.675     10.667     16.321      7.155      8.952     12.888     10.667      8.675      0.126      0.129      0.097      4.424       2.49     61.255      7.155
     3332.5      9.066      0.132     13.767      0.126      4.368      2.485      0.132      8.962      8.721     61.736        0.1     16.854      8.878     11.273     15.976       6.45      8.962     13.767     11.273      8.878      0.126      0.132        0.1      4.368      2.485     61.736       6.45
       3333      9.066      0.126     14.749      0.124      4.323      2.495      0.129      8.965      8.727     62.878      0.108     16.854      9.107     11.557     15.753      7.209      8.965     14.749     11.557      9.107      0.124      0.126      0.108      4.323      2.495     62.878      7.209
     3333.5      9.066      0.121     15.628      0.122      4.237      2.503      0.125      8.962      8.723      62.18      0.103     16.686      9.363     11.878     16.267      7.037      8.962     15.628     11.878      9.363      0.122      0.121      0.103      4.237      2.503      62.18      7.037
       3334      9.058       0.12     17.075      0.116      4.096      2.505      0.122      8.957      8.722     62.098      0.103     17.416      9.648     12.202     17.288      6.859      8.957     17.075     12.202      9.648      0.116       0.12      0.103      4.096      2.505     62.098      6.859
     3334.5      9.058      0.119     18.557      0.116      4.056      2.507      0.121      8.959      8.699     62.048      0.102     16.461      9.972     12.526     18.547      6.195      8.959     18.557     12.526      9.972      0.116      0.119      0.102      4.056      2.507     62.048      6.195
       3335      9.058      0.116     20.159      0.113      4.067      2.511      0.118      8.956      8.676     61.086      0.095      16.91     10.321     12.853       20.5      6.207      8.956     20.159     12.853     10.321      0.113      0.116      0.095      4.067      2.511     61.086      6.207
     3335.5      9.066      0.113     20.418       0.11      4.205      2.516      0.115      8.955      8.664     60.609      0.092     18.203     10.694     13.211     21.447      6.136      8.955     20.418     13.211     10.694       0.11      0.113      0.092      4.205      2.516     60.609      6.136
       3336      9.066      0.103     19.263      0.107      4.357      2.533      0.109      8.959      8.672     60.219      0.089     17.641     11.096     13.628     21.643      6.266      8.959     19.263     13.628     11.096      0.107      0.103      0.089      4.357      2.533     60.219      6.266
     3336.5      9.066      0.103     16.885      0.105      4.451      2.534      0.108      8.954      8.697      59.42      0.084     17.753     11.501     14.085     21.658       6.16      8.954     16.885     14.085     11.501      0.105      0.103      0.084      4.451      2.534      59.42       6.16
       3337      9.058      0.108     13.991      0.099      4.433      2.525      0.107      8.946      8.717     59.305      0.083     17.641     11.902     14.539     22.012      5.822      8.946     13.991     14.539     11.902      0.099      0.108      0.083      4.433      2.525     59.305      5.822
     3337.5      9.058      0.108     11.889      0.098      4.458      2.525      0.106      8.938      8.736     59.695      0.086     16.292       12.3     14.937     23.118      6.343      8.938     11.889     14.937       12.3      0.098      0.108      0.086      4.458      2.525     59.695      6.343
       3338      9.082      0.107     11.475      0.099      4.422      2.527      0.106      8.928      8.748     59.217      0.082     15.674     12.711     15.269     24.814      5.295      8.928     11.475     15.269     12.711      0.099      0.107      0.082      4.422      2.527     59.217      5.295
     3338.5      9.091      0.103     11.441      0.104      4.452      2.534      0.108      8.928      8.792      58.97       0.08     14.719     13.135     15.572      25.49      5.579      8.928     11.441     15.572     13.135      0.104      0.103       0.08      4.452      2.534      58.97      5.579
       3339      9.091        0.1     11.854      0.108      4.446      2.539      0.109      8.924      8.846     59.389      0.083     14.326     13.579     15.896     23.834      5.277      8.924     11.854     15.896     13.579      0.108        0.1      0.083      4.446      2.539     59.389      5.277
     3339.5      9.074      0.097     12.216      0.111      4.577      2.545      0.109      8.909      8.876     58.956       0.08     13.933     14.035     16.271     22.676      5.218      8.909     12.216     16.271     14.035      0.111      0.097       0.08      4.577      2.545     58.956      5.218
       3340      9.074      0.093     11.286      0.109      4.649      2.551      0.107        8.9      8.884     58.723      0.079     13.764     14.513     16.698     22.022      4.939        8.9     11.286     16.698     14.513      0.109      0.093      0.079      4.649      2.551     58.723      4.939
     3340.5      9.066      0.091     11.027      0.108      4.635      2.555      0.105      8.931      8.876     59.573      0.085     14.832     15.024     17.187     22.915      5.028      8.931     11.027     17.187     15.024      0.108      0.091      0.085      4.635      2.555     59.573      5.028
