~Version ---------------------------------------------------
VERS. 2.0 : CWLS log ASCII Standard -VERSION 2.0
WRAP.  NO : One line per depth step
~Well ------------------------------------------------------
STRT.F                     2587.0 : 
STOP.F                     9110.0 : 
STEP.F                        0.5 : 
NULL.                     -999.25 : 
COMP. HALLIBURTON ENERGY SERVICES : Company Name
WELL.        UNIVERSITY 6-17 NO.1 : Well Name
FLD .                     WILDCAT : Field Name
LOC .                  SECTION 17 : Location
SLOC.         2377 FSL X 1065 FWL : SURFACE Location
SECT.                             : Section
TOWN.                             : Township
RANG.                             : Range
COUN.                      REAGAN : County
STAT.                          TX : State
CTRY.                         USA : Country
SRVC. HALLIBURTON ENERGY SERVICES : Service Company
DATE.                    06-21-97 : DATE as MM/DD/YY
APIN.                42-303-34774 : API Well Number
UWI .              42303347740000 : UNIQUE WELL ID
PD  .                        G.L. : Permanent Datum
RUN .                         TWO : Run Number
DMF .                        K.B. : Drilling Measured From
LMF .                        K.B. : Logging Measured From
TCS .                             : Time Circulation Stopped
TLAB.                             : Time Logger at Bottom
DFT .                  FRESHWATER : Drilling Fluid Type
MCSS.                        MEAS : Mud Cake Sample Source
MFSS.                        MEAS : Mud Filtrate Sample Source
MSS .                         PIT : Mud Sample Source
LCCN.                             : Logging Company Name
LUL .                      ODESSA : Equiptment Location
LUN .                             : Logging Unit Number
ENGI.                     JOHNSON : Logging Engineer's Name
WITN.                    VAN-LIEW : Witness's Name
~Curves ----------------------------------------------------
DEPT     .F    00 000 00 00 : 1  Depth Curve
CALI     .INCH 99 075 22 05 : 2  CALIPER
DPHI     .DECP 99 075 22 05 : 3  DENSITY POROSITY -LIME-
GR       .GAPI 99 075 22 05 : 4  GAMMA RAY
NPHI     .DECP 99 075 22 05 : 5  NEUTRON POROSITY -LIME-
PE       .B/E  99 075 22 05 : 6  PHOTO-ELECTRIC FACTOR
RHOB     .G/C3 99 075 22 05 : 7  BULK DENSITY
PHIX     .DECP 99 075 22 05 : 8  CROSSPLOT POROSITY
C13      .INCH 99 075 22 05 : 9  CALIPER PADS 1 - 3    -FACT-
C24      .INCH 99 075 22 05 : 10  CALIPER PADS 2 - 4    -FACT-
DT       .US/F 99 075 22 05 : 11  SONIC TRANSIT TIME
SPHI     .DECP 99 075 22 05 : 12  SONIC POROSITY  -LIME-
GR3      .     99 075 22 05 : 13  GAMMA RAY
ILD      .OHMM 99 075 22 05 : 14  IL, DEEP RESISTIVITY
ILM      .OHMM 99 075 22 05 : 15  IL, MEDIUM RESISTIVITY
SGRD     .OHMM 99 075 22 05 : 16  SHORT GUARD RESISTIVITY
SP       .MV   99 075 22 05 : 17  SPONTANEOUS POTENTIAL
CAL_N    .INCH 99 075 22 05 : 9  CALIPER PADS 1 - 3    -FACT-
GR_N     .GAPI 99 075 22 05 : 4  GAMMA RAY
RESMED_N .OHMM 99 075 22 05 : 15  IL, MEDIUM RESISTIVITY
RESDEEP_N.OHMM 99 075 22 05 : 14  IL, DEEP RESISTIVITY
NPHI_N   .DECP 99 075 22 05 : 5  NEUTRON POROSITY -LIME-
DPHI_N   .DECP 99 075 22 05 : 3  DENSITY POROSITY -LIME-
SPHI_N   .DECP 99 075 22 05 : 12  SONIC POROSITY  -LIME-
PE_N     .B/E  99 075 22 05 : 6  PHOTO-ELECTRIC FACTOR
RHOB_N   .G/C3 99 075 22 05 : 7  BULK DENSITY
DTC_N    .US/F 99 075 22 05 : 11  SONIC TRANSIT TIME
SP_N     .MV   99 075 22 05 : 17  SPONTANEOUS POTENTIAL
~Params ----------------------------------------------------
EDF .F   2636.0 : Elevation, Derrick Floor
EGL .F   2653.0 : Elevation, Ground Level
EKB .F   2654.0 : Elevation, Kelly Bushing
EPD .F   2636.0 : Elevation Perminent Datum
TDD .F   9097.0 : Total Depth-Driller
TDL .F   9097.0 : Total Depth-Logger
CBD .F   3119.0 : Casing Bottom Driller 1
CBL .F   3119.0 : Casing Bottom Logger 1
TLI .F   3119.0 : Top Logged Interval
BLI .F   9093.0 : Bottom Logged Interval
DFD .LB/G   9.0 : Drilling Fluid Density
DFPH.----  10.5 : Drilling Fluid Ph
DFL .C3     8.0 : Drilling Fluid Loss
DFV .CP    54.0 : Drilling Fluid Viscosity
RM  .CP    54.0 : Mud Sample Resistivity
MST .DEGF  74.0 : Mud Sample Temperature
RMF .DEGF  74.0 : Mud Filtrate Resistivity
MFST.DEGF  74.0 : Mud Filtrate Sample Temp
RMC .DEGF  74.0 : Mud Cake Resistivity
MCST.DEGF  74.0 : Mud Cake Sample Temperature
MRT .DEGF 141.0 : Maximum Recorded Temperature
BHT .DEGF 141.0 : Bottom Hole Temperature
~Other -----------------------------------------------------
~ASCII -----------------------------------------------------
# ...
       8684      8.953      0.028     52.414      0.032      4.122      2.662      0.034      8.379      8.349     52.084      0.032     48.128     214.78     257.41     317.61     50.869      8.379     52.414     257.41     214.78      0.032      0.028      0.032      4.122      2.662     52.084     50.869
     8684.5      8.953      0.022     56.204      0.033      4.154      2.672      0.033      8.349      8.324     53.756      0.044      52.51     198.92     221.44     336.03     51.195      8.349     56.204     221.44     198.92      0.033      0.022      0.044      4.154      2.672     53.756     51.195
       8685      8.953      0.023      58.84      0.041      4.134       2.67      0.038      8.323      8.301     53.688      0.043     57.829     192.02     197.39     262.66     51.212      8.323      58.84     197.39     192.02      0.041      0.023      0.043      4.134       2.67     53.688     51.212
     8685.5      8.936      0.017     60.977       0.05      4.144      2.681      0.043      8.294      8.295     52.963      0.038     62.061     182.28     189.98     187.01     52.161      8.294     60.977     189.98     182.28       0.05      0.017      0.038      4.144      2.681     52.963     52.161
       8686      8.936      0.017     59.357      0.052      4.087      2.682      0.044       8.29      8.294     53.641      0.043     64.009     169.32      187.1      166.4     51.965       8.29     59.357      187.1     169.32      0.052      0.017      0.043      4.087      2.682     53.641     51.965
     8686.5       8.92      0.016     57.738      0.049      4.209      2.682      0.042      8.279      8.297     55.089      0.053     60.994     158.75     177.61     194.53     52.558      8.279     57.738     177.61     158.75      0.049      0.016      0.053      4.209      2.682     55.089     52.558
       8687      8.912      0.019      58.72      0.045      4.251      2.678       0.04      8.283      8.299     54.884      0.052     57.717     154.25     167.38        271     53.038      8.283      58.72     167.38     154.25      0.045      0.019      0.052      4.251      2.678     54.884     53.038
     8687.5      8.912      0.022     57.962      0.047       4.29      2.672      0.042      8.281       8.31     54.247      0.047     57.136     155.98     165.79     209.72     53.559      8.281     57.962     165.79     155.98      0.047      0.022      0.047       4.29      2.672     54.247     53.559
       8688       8.88      0.028     57.979      0.051      4.253      2.662      0.047      8.283       8.31     53.614      0.043     56.986        162     176.86     190.59     54.596      8.283     57.979     176.86        162      0.051      0.028      0.043      4.253      2.662     53.614     54.596
     8688.5      8.839      0.028     58.358       0.05      4.073      2.661      0.046      8.282      8.313     53.786      0.044     56.537      170.4      196.1     186.63     55.402      8.282     58.358      196.1      170.4       0.05      0.028      0.044      4.073      2.661     53.786     55.402
       8689      8.799      0.031     57.169      0.046      4.011      2.657      0.045      8.264      8.309     54.652       0.05     56.593     175.09     215.81     249.67     56.048      8.264     57.169     215.81     175.09      0.046      0.031       0.05      4.011      2.657     54.652     56.048
     8689.5      8.758      0.038     52.879      0.047      3.865      2.646      0.047      8.252      8.303     54.291      0.047     55.488     160.71     229.87     271.34     56.421      8.252     52.879     229.87     160.71      0.047      0.038      0.047      3.865      2.646     54.291     56.421
       8690      8.758      0.036     52.414       0.05      3.611      2.648      0.048      8.246      8.283     53.405      0.041     53.054     126.93     220.74     283.29     57.434      8.246     52.414     220.74     126.93       0.05      0.036      0.041      3.611      2.648     53.405     57.434
     8690.5      8.742      0.043     52.827      0.051      3.406      2.637      0.051      8.285      8.264     53.436      0.041       55.9      88.74     168.89     280.46     58.288      8.285     52.827     168.89      88.74      0.051      0.043      0.041      3.406      2.637     53.436     58.288
       8691       8.75      0.051     51.225      0.053       3.29      2.623      0.056      8.327      8.261     54.669       0.05      60.32     60.006     108.96      260.6     59.431      8.327     51.225     108.96     60.006      0.053      0.051       0.05       3.29      2.623     54.669     59.431
     8691.5      8.766      0.048     54.205      0.063      3.239      2.628      0.061      8.333       8.27     55.078      0.053     67.661     42.912     65.581     181.51     60.534      8.333     54.205     65.581     42.912      0.063      0.048      0.053      3.239      2.628     55.078     60.534
       8692      8.693      0.047     68.799       0.08      3.113       2.63      0.072      8.316      8.278     54.744      0.051      79.59     33.756     40.407     140.28     62.305      8.316     68.799     40.407     33.756       0.08      0.047      0.051      3.113       2.63     54.744     62.305
     8692.5      8.693       0.05     91.095      0.101      3.067      2.625      0.086      8.301      8.287     57.709      0.071     94.421     29.091     27.898     77.888     63.526      8.301     91.095     27.898     29.091      0.101       0.05      0.071      3.067      2.625     57.709     63.526
       8693      8.701      0.052     103.95      0.126      2.975      2.621      0.102      8.285      8.295     62.527      0.106     103.32     27.032     22.313     39.021     64.978      8.285     103.95     22.313     27.032      0.126      0.052      0.106      2.975      2.621     62.527     64.978
     8693.5      8.701      0.059     110.94      0.151      2.933      2.608      0.119      8.257      8.303     63.947      0.116     110.84     26.186     20.448     24.599     66.204      8.257     110.94     20.448     26.186      0.151      0.059      0.116      2.933      2.608     63.947     66.204
       8694      8.693      0.069     113.89      0.147      2.785      2.593       0.12      8.246      8.304     66.995      0.137     112.29     25.839     21.053      21.25     65.961      8.246     113.89     21.053     25.839      0.147      0.069      0.137      2.785      2.593     66.995     65.961
     8694.5      8.701      0.073      102.6      0.124      2.732      2.585      0.108      8.246      8.309     71.564      0.169     107.87     26.192     23.117     24.923      65.25      8.246      102.6     23.117     26.192      0.124      0.073      0.169      2.732      2.585     71.564      65.25
       8695      8.742      0.076     89.992      0.108      2.765       2.58      0.099      8.243      8.309       71.3      0.168     99.328     27.911     26.276     38.127      63.55      8.243     89.992     26.276     27.911      0.108      0.076      0.168      2.765       2.58       71.3      63.55
     8695.5      8.791      0.067     84.789      0.098      2.913      2.595       0.09       8.25      8.307     66.498      0.134     91.275     31.665      30.76     64.512     61.464       8.25     84.789      30.76     31.665      0.098      0.067      0.134      2.913      2.595     66.498     61.464
       8696      8.782      0.058     86.942      0.101      2.998      2.611      0.089      8.257      8.306     63.381      0.112     92.174     38.272     37.065     96.275     58.993      8.257     86.942     37.065     38.272      0.101      0.058      0.112      2.998      2.611     63.381     58.993
     8696.5      8.774      0.071     98.452      0.121      3.031      2.588      0.106      8.262      8.304     63.244      0.111     102.94     47.903     45.011     121.66     56.634      8.262     98.452     45.011     47.903      0.121      0.071      0.111      3.031      2.588     63.244     56.634
