~Version ---------------------------------------------------
VERS. 2.0 : CWLS log ASCII Standard -VERSION 2.0
WRAP.  NO : One line per depth step
~Well ------------------------------------------------------
STRT.F                     2587.0 : 
STOP.F                     9110.0 : 
STEP.F                        0.5 : 
NULL.                     -999.25 : 
COMP. HALLIBURTON ENERGY SERVICES : Company Name
WELL.        UNIVERSITY 6-17 NO.1 : Well Name
FLD .                     WILDCAT : Field Name
LOC .                  SECTION 17 : Location
SLOC.         2377 FSL X 1065 FWL : SURFACE Location
SECT.                             : Section
TOWN.                             : Township
RANG.                             : Range
COUN.                      REAGAN : County
STAT.                          TX : State
CTRY.                         USA : Country
SRVC. HALLIBURTON ENERGY SERVICES : Service Company
DATE.                    06-21-97 : DATE as MM/DD/YY
APIN.                42-303-34774 : API Well Number
UWI .              42303347740000 : UNIQUE WELL ID
PD  .                        G.L. : Permanent Datum
RUN .                         TWO : Run Number
DMF .                        K.B. : Drilling Measured From
LMF .                        K.B. : Logging Measured From
TCS .                             : Time Circulation Stopped
TLAB.                             : Time Logger at Bottom
DFT .                  FRESHWATER : Drilling Fluid Type
MCSS.                        MEAS : Mud Cake Sample Source
MFSS.                        MEAS : Mud Filtrate Sample Source
MSS .                         PIT : Mud Sample Source
LCCN.                             : Logging Company Name
LUL .                      ODESSA : Equiptment Location
LUN .                             : Logging Unit Number
ENGI.                     JOHNSON : Logging Engineer's Name
WITN.                    VAN-LIEW : Witness's Name
~Curves ----------------------------------------------------
DEPT     .F    00 000 00 00 : 1  Depth Curve
CALI     .INCH 99 075 22 05 : 2  CALIPER
DPHI     .DECP 99 075 22 05 : 3  DENSITY POROSITY -LIME-
GR       .GAPI 99 075 22 05 : 4  GAMMA RAY
NPHI     .DECP 99 075 22 05 : 5  NEUTRON POROSITY -LIME-
PE       .B/E  99 075 22 05 : 6  PHOTO-ELECTRIC FACTOR
RHOB     .G/C3 99 075 22 05 : 7  BULK DENSITY
PHIX     .DECP 99 075 22 05 : 8  CROSSPLOT POROSITY
C13      .INCH 99 075 22 05 : 9  CALIPER PADS 1 - 3    -FACT-
C24      .INCH 99 075 22 05 : 10  CALIPER PADS 2 - 4    -FACT-
DT       .US/F 99 075 22 05 : 11  SONIC TRANSIT TIME
SPHI     .DECP 99 075 22 05 : 12  SONIC POROSITY  -LIME-
GR3      .     99 075 22 05 : 13  GAMMA RAY
ILD      .OHMM 99 075 22 05 : 14  IL, DEEP RESISTIVITY
ILM      .OHMM 99 075 22 05 : 15  IL, MEDIUM RESISTIVITY
SGRD     .OHMM 99 075 22 05 : 16  SHORT GUARD RESISTIVITY
SP       .MV   99 075 22 05 : 17  SPONTANEOUS POTENTIAL
CAL_N    .INCH 99 075 22 05 : 9  CALIPER PADS 1 - 3    -FACT-
GR_N     .GAPI 99 075 22 05 : 4  GAMMA RAY
RESMED_N .OHMM 99 075 22 05 : 15  IL, MEDIUM RESISTIVITY
RESDEEP_N.OHMM 99 075 22 05 : 14  IL, DEEP RESISTIVITY
NPHI_N   .DECP 99 075 22 05 : 5  NEUTRON POROSITY -LIME-
DPHI_N   .DECP 99 075 22 05 : 3  DENSITY POROSITY -LIME-
SPHI_N   .DECP 99 075 22 05 : 12  SONIC POROSITY  -LIME-
PE_N     .B/E  99 075 22 05 : 6  PHOTO-ELECTRIC FACTOR
RHOB_N   .G/C3 99 075 22 05 : 7  BULK DENSITY
DTC_N    .US/F 99 075 22 05 : 11  SONIC TRANSIT TIME
SP_N     .MV   99 075 22 05 : 17  SPONTANEOUS POTENTIAL
~Params ----------------------------------------------------
EDF .F   2636.0 : Elevation, Derrick Floor
EGL .F   2653.0 : Elevation, Ground Level
EKB .F   2654.0 : Elevation, Kelly Bushing
EPD .F   2636.0 : Elevation Perminent Datum
TDD .F   9097.0 : Total Depth-Driller
TDL .F   9097.0 : Total Depth-Logger
CBD .F   3119.0 : Casing Bottom Driller 1
CBL .F   3119.0 : Casing Bottom Logger 1
TLI .F   3119.0 : Top Logged Interval
BLI .F   9093.0 : Bottom Logged Interval
DFD .LB/G   9.0 : Drilling Fluid Density
DFPH.----  10.5 : Drilling Fluid Ph
DFL .C3     8.0 : Drilling Fluid Loss
DFV .CP    54.0 : Drilling Fluid Viscosity
RM  .CP    54.0 : Mud Sample Resistivity
MST .DEGF  74.0 : Mud Sample Temperature
RMF .DEGF  74.0 : Mud Filtrate Resistivity
MFST.DEGF  74.0 : Mud Filtrate Sample Temp
RMC .DEGF  74.0 : Mud Cake Resistivity
MCST.DEGF  74.0 : Mud Cake Sample Temperature
MRT .DEGF 141.0 : Maximum Recorded Temperature
BHT .DEGF 141.0 : Bottom Hole Temperature
~Other -----------------------------------------------------
~ASCII -----------------------------------------------------
# ...
       7865      9.096      0.089     79.999      0.235      2.977      2.558      0.175      8.851      9.042     77.606      0.212     81.181     11.132     11.436     17.359     67.129      8.851     79.999     11.436     11.132      0.235      0.089      0.212      2.977      2.558     77.606     67.129
     7865.5       9.08      0.094     75.984      0.229      2.986      2.549      0.174      8.849       9.05     77.616      0.212      83.26     11.042     11.248     18.407     67.561      8.849     75.984     11.248     11.042      0.229      0.094      0.212      2.986      2.549     77.616     67.561
       7866       9.08      0.089     78.844      0.228       2.94      2.557      0.172      8.848      9.061     75.558      0.198     81.687     10.977     10.678     18.887     67.952      8.848     78.844     10.678     10.977      0.228      0.089      0.198       2.94      2.557     75.558     67.952
     7866.5      9.096      0.086     82.394       0.23      2.987      2.562      0.172       8.85       9.05     73.861      0.186     83.597     10.945     10.478     18.377     67.632       8.85     82.394     10.478     10.945       0.23      0.086      0.186      2.987      2.562     73.861     67.632
       7867      9.145      0.086     83.841      0.232      3.013      2.563      0.173      8.851      9.056      74.48       0.19     84.833     10.989     10.283      17.35     67.289      8.851     83.841     10.283     10.989      0.232      0.086       0.19      3.013      2.563      74.48     67.289
     7867.5      9.185      0.081     85.116      0.234      3.049      2.571      0.172      8.848      9.056     75.113      0.195     83.429     11.125     10.176     16.258     67.401      8.848     85.116     10.176     11.125      0.234      0.081      0.195      3.049      2.571     75.113     67.401
       7868      9.153      0.073     85.943      0.238       3.05      2.585      0.171      8.851      9.055     75.927        0.2     86.406     11.354     10.246     15.181     67.674      8.851     85.943     10.246     11.354      0.238      0.073        0.2       3.05      2.585     75.927     67.674
     7868.5      9.104      0.083     87.132      0.249      3.031      2.568       0.18      8.853      9.063     77.773      0.213     88.373     11.663     10.524     14.475     67.976      8.853     87.132     10.524     11.663      0.249      0.083      0.213      3.031      2.568     77.773     67.976
       7869      8.999      0.095     89.682      0.268      2.928      2.548      0.194      8.853      9.084     79.313      0.224     94.328     12.054     11.384     14.699     68.136      8.853     89.682     11.384     12.054      0.268      0.095      0.224      2.928      2.548     79.313     68.136
     7869.5      8.885      0.105      90.13      0.266      2.926       2.53      0.197      8.847      9.093       79.6      0.226     97.586     12.571     12.063     15.343      68.16      8.847      90.13     12.063     12.571      0.266      0.105      0.226      2.926       2.53       79.6      68.16
       7870      8.772      0.116     88.683      0.254      2.969      2.512      0.195      8.848      9.065     80.377      0.232     92.867     13.216      12.95     16.875     68.024      8.848     88.683      12.95     13.216      0.254      0.116      0.232      2.969      2.512     80.377     68.024
     7870.5       8.78      0.119     82.756      0.243      3.036      2.507       0.19      8.853       9.05     81.423      0.239     89.103     13.945     14.032     18.878     68.178      8.853     82.756     14.032     13.945      0.243      0.119      0.239      3.036      2.507     81.423     68.178
       7871      8.788      0.113     79.206      0.237      3.125      2.517      0.185      8.853      9.049     78.212      0.216     83.204     14.696     15.125     22.537      69.28      8.853     79.206     15.125     14.696      0.237      0.113      0.216      3.125      2.517     78.212      69.28
     7871.5      8.869      0.096     81.205       0.24      3.178      2.545      0.181      8.852      9.041      76.57      0.205     79.833      15.47     15.893     26.772     70.038      8.852     81.205     15.893      15.47       0.24      0.096      0.205      3.178      2.545      76.57     70.038
       7872      8.982       0.08     82.376      0.245       3.27      2.573      0.177      8.859      9.039       75.9        0.2     84.384     16.261     16.376     31.134     70.145      8.859     82.376     16.376     16.261      0.245       0.08        0.2       3.27      2.573       75.9     70.145
     7872.5      9.023       0.11     87.752       0.26      3.106      2.522      0.195      8.883      9.014      74.52       0.19     92.361     17.082     16.907     30.359       70.5      8.883     87.752     16.907     17.082       0.26       0.11       0.19      3.106      2.522      74.52       70.5
       7873      9.007      0.123     87.787      0.263      2.992      2.499      0.202        8.9      9.008     78.748       0.22     96.182      17.82     17.891     27.138     70.672        8.9     87.787     17.891      17.82      0.263      0.123       0.22      2.992      2.499     78.748     70.672
     7873.5      9.023      0.115     80.154      0.254      3.108      2.513      0.195      8.884       9.01     83.478      0.254     94.721     18.378      19.27     24.032     70.506      8.884     80.154      19.27     18.378      0.254      0.115      0.254      3.108      2.513     83.478     70.506
       7874      9.023      0.095     78.224      0.218      3.126      2.548      0.168      8.825      8.983     84.484      0.261     87.249     18.977     20.383     24.315     70.133      8.825     78.224     20.383     18.977      0.218      0.095      0.261      3.126      2.548     84.484     70.133
     7874.5      9.007      0.091     78.327      0.186      3.114      2.554       0.15      8.821      8.932     81.927      0.243     83.372     19.823      21.09     30.194     71.324      8.821     78.327      21.09     19.823      0.186      0.091      0.243      3.114      2.554     81.927     71.324
       7875      8.999      0.094     75.071      0.183      3.112      2.548      0.149      8.807      8.898     80.283      0.231     78.372     20.909     21.929     37.102     71.644      8.807     75.071     21.929     20.909      0.183      0.094      0.231      3.112      2.548     80.283     71.644
     7875.5      9.007      0.097     70.643      0.191      3.322      2.543      0.155      8.801      8.888     77.308       0.21     72.192     21.976     23.704     44.886     72.586      8.801     70.643     23.704     21.976      0.191      0.097       0.21      3.322      2.543     77.308     72.586
       7876      8.991      0.087     67.938      0.176      3.263      2.561      0.143      8.795      8.899     70.705      0.163     65.956     22.595      25.97     51.494     73.197      8.795     67.938      25.97     22.595      0.176      0.087      0.163      3.263      2.561     70.705     73.197
     7876.5      8.982      0.077     62.717      0.145      3.348      2.579      0.122      8.786      8.901      69.52      0.155     61.012     22.718     27.366     66.292     73.807      8.786     62.717     27.366     22.718      0.145      0.077      0.155      3.348      2.579      69.52     73.807
       7877      8.982       0.08     66.818      0.139      3.395      2.573      0.119      8.807      8.891     74.059      0.187     56.462     22.755     26.814     90.677     74.702      8.807     66.818     26.814     22.755      0.139       0.08      0.187      3.395      2.573     74.059     74.702
     7877.5      9.007      0.097     75.329      0.167      3.461      2.544      0.142      8.816      8.899     73.539      0.183     61.069     22.848      25.45     89.595     75.691      8.816     75.329      25.45     22.848      0.167      0.097      0.183      3.461      2.544     73.539     75.691
