~Version ---------------------------------------------------
VERS. 2.0 : CWLS log ASCII Standard -VERSION 2.0
WRAP.  NO : One line per depth step
~Well ------------------------------------------------------
STRT.F                     2587.0 : 
STOP.F                     9110.0 : 
STEP.F                        0.5 : 
NULL.                     -999.25 : 
COMP. HALLIBURTON ENERGY SERVICES : Company Name
WELL.        UNIVERSITY 6-17 NO.1 : Well Name
FLD .                     WILDCAT : Field Name
LOC .                  SECTION 17 : Location
SLOC.         2377 FSL X 1065 FWL : SURFACE Location
SECT.                             : Section
TOWN.                             : Township
RANG.                             : Range
COUN.                      REAGAN : County
STAT.                          TX : State
CTRY.                         USA : Country
SRVC. HALLIBURTON ENERGY SERVICES : Service Company
DATE.                    06-21-97 : DATE as MM/DD/YY
APIN.                42-303-34774 : API Well Number
UWI .              42303347740000 : UNIQUE WELL ID
PD  .                        G.L. : Permanent Datum
RUN .                         TWO : Run Number
DMF .                        K.B. : Drilling Measured From
LMF .                        K.B. : Logging Measured From
TCS .                             : Time Circulation Stopped
TLAB.                             : Time Logger at Bottom
DFT .                  FRESHWATER : Drilling Fluid Type
MCSS.                        MEAS : Mud Cake Sample Source
MFSS.                        MEAS : Mud Filtrate Sample Source
MSS .                         PIT : Mud Sample Source
LCCN.                             : Logging Company Name
LUL .                      ODESSA : Equiptment Location
LUN .                             : Logging Unit Number
ENGI.                     JOHNSON : Logging Engineer's Name
WITN.                    VAN-LIEW : Witness's Name
~Curves ----------------------------------------------------
DEPT     .F    00 000 00 00 : 1  Depth Curve
CALI     .INCH 99 075 22 05 : 2  CALIPER
DPHI     .DECP 99 075 22 05 : 3  DENSITY POROSITY -LIME-
GR       .GAPI 99 075 22 05 : 4  GAMMA RAY
NPHI     .DECP 99 075 22 05 : 5  NEUTRON POROSITY -LIME-
PE       .B/E  99 075 22 05 : 6  PHOTO-ELECTRIC FACTOR
RHOB     .G/C3 99 075 22 05 : 7  BULK DENSITY
PHIX     .DECP 99 075 22 05 : 8  CROSSPLOT POROSITY
C13      .INCH 99 075 22 05 : 9  CALIPER PADS 1 - 3    -FACT-
C24      .INCH 99 075 22 05 : 10  CALIPER PADS 2 - 4    -FACT-
DT       .US/F 99 075 22 05 : 11  SONIC TRANSIT TIME
SPHI     .DECP 99 075 22 05 : 12  SONIC POROSITY  -LIME-
GR3      .     99 075 22 05 : 13  GAMMA RAY
ILD      .OHMM 99 075 22 05 : 14  IL, DEEP RESISTIVITY
ILM      .OHMM 99 075 22 05 : 15  IL, MEDIUM RESISTIVITY
SGRD     .OHMM 99 075 22 05 : 16  SHORT GUARD RESISTIVITY
SP       .MV   99 075 22 05 : 17  SPONTANEOUS POTENTIAL
CAL_N    .INCH 99 075 22 05 : 9  CALIPER PADS 1 - 3    -FACT-
GR_N     .GAPI 99 075 22 05 : 4  GAMMA RAY
RESMED_N .OHMM 99 075 22 05 : 15  IL, MEDIUM RESISTIVITY
RESDEEP_N.OHMM 99 075 22 05 : 14  IL, DEEP RESISTIVITY
NPHI_N   .DECP 99 075 22 05 : 5  NEUTRON POROSITY -LIME-
DPHI_N   .DECP 99 075 22 05 : 3  DENSITY POROSITY -LIME-
SPHI_N   .DECP 99 075 22 05 : 12  SONIC POROSITY  -LIME-
PE_N     .B/E  99 075 22 05 : 6  PHOTO-ELECTRIC FACTOR
RHOB_N   .G/C3 99 075 22 05 : 7  BULK DENSITY
DTC_N    .US/F 99 075 22 05 : 11  SONIC TRANSIT TIME
SP_N     .MV   99 075 22 05 : 17  SPONTANEOUS POTENTIAL
~Params ----------------------------------------------------
EDF .F   2636.0 : Elevation, Derrick Floor
EGL .F   2653.0 : Elevation, Ground Level
EKB .F   2654.0 : Elevation, Kelly Bushing
EPD .F   2636.0 : Elevation Perminent Datum
TDD .F   9097.0 : Total Depth-Driller
TDL .F   9097.0 : Total Depth-Logger
CBD .F   3119.0 : Casing Bottom Driller 1
CBL .F   3119.0 : Casing Bottom Logger 1
TLI .F   3119.0 : Top Logged Interval
BLI .F   9093.0 : Bottom Logged Interval
DFD .LB/G   9.0 : Drilling Fluid Density
DFPH.----  10.5 : Drilling Fluid Ph
DFL .C3     8.0 : Drilling Fluid Loss
DFV .CP    54.0 : Drilling Fluid Viscosity
RM  .CP    54.0 : Mud Sample Resistivity
MST .DEGF  74.0 : Mud Sample Temperature
RMF .DEGF  74.0 : Mud Filtrate Resistivity
MFST.DEGF  74.0 : Mud Filtrate Sample Temp
RMC .DEGF  74.0 : Mud Cake Resistivity
MCST.DEGF  74.0 : Mud Cake Sample Temperature
MRT .DEGF 141.0 : Maximum Recorded Temperature
BHT .DEGF 141.0 : Bottom Hole Temperature
~Other -----------------------------------------------------
~ASCII -----------------------------------------------------
# ...
       5382     10.409      0.525     73.693      0.324      1.677      1.812      0.475     13.949      8.654     83.833      0.256     85.507     22.012     20.226     24.079     46.099     13.949     73.693     20.226     22.012      0.324      0.525      0.256      1.677      1.812     83.833     46.099
     5382.5     10.499      0.538     72.211      0.331      1.637      1.791      0.487     13.754      8.639     85.428      0.268     85.283     23.468     22.192     24.646     46.134     13.754     72.211     22.192     23.468      0.331      0.538      0.268      1.637      1.791     85.428     46.134
       5383     10.636      0.556     67.197      0.324      1.649      1.759      0.501     13.949      8.621     83.905      0.257     79.384     24.393     24.927     25.166     46.448     13.949     67.197     24.927     24.393      0.324      0.556      0.257      1.649      1.759     83.905     46.448
     5383.5     10.799      0.549     55.308      0.325      1.804       1.77      0.496     14.873      8.604       81.2      0.238      67.81     24.526     27.462     26.351     47.343     14.873     55.308     27.462     24.526      0.325      0.549      0.238      1.804       1.77       81.2     47.343
       5384     10.839      0.566     47.744      0.299      1.711      1.742      0.504     15.996      8.595     79.322      0.224     56.125     24.033     28.208     30.201     47.568     15.996     47.744     28.208     24.033      0.299      0.566      0.224      1.711      1.742     79.322     47.568
     5384.5     10.701      0.594     46.521      0.259      1.541      1.694      0.521     15.504      8.591     75.606      0.198     48.203     23.378     26.532     34.607     47.971     15.504     46.521     26.532     23.378      0.259      0.594      0.198      1.541      1.694     75.606     47.971
       5385      10.45      0.622     48.468      0.259      1.469      1.647      0.547     14.163      8.584       69.4      0.154     47.248     22.655      23.78     34.142     48.664     14.163     48.468      23.78     22.655      0.259      0.622      0.154      1.469      1.647       69.4     48.664
     5385.5     10.296      0.652     59.099      0.339      1.342      1.596      0.593     13.553      8.565     67.597      0.141     54.439     21.681     21.467     28.447     49.281     13.553     59.099     21.467     21.681      0.339      0.652      0.141      1.342      1.596     67.597     49.281
       5386     10.393      0.673     70.229       0.35      1.178      1.559      0.615     14.885      8.564     69.728      0.156     67.192     20.366     19.766     22.189      50.14     14.885     70.229     19.766     20.366       0.35      0.673      0.156      1.178      1.559     69.728      50.14
     5386.5     10.482      0.687     72.521      0.325       1.05      1.535      0.625     15.721      8.541     74.711      0.192     76.968     18.836     18.484     19.357     51.331     15.721     72.521     18.484     18.836      0.325      0.687      0.192       1.05      1.535     74.711     51.331
       5387      10.45      0.677     71.315      0.315      1.097      1.553      0.613     15.846      8.445     83.453      0.254     78.934     17.404     17.323     18.452      51.55     15.846     71.315     17.323     17.404      0.315      0.677      0.254      1.097      1.553     83.453      51.55
     5387.5      10.28      0.664     70.574      0.309      1.147      1.575      0.599     14.964      8.348     87.214       0.28     73.485     16.284     16.266     18.456     51.349     14.964     70.574     16.266     16.284      0.309      0.664       0.28      1.147      1.575     87.214     51.349
       5388     10.345      0.666     68.403      0.292      1.136      1.572      0.597     14.905       8.32     87.184       0.28     70.844      15.53     15.318     18.736     51.491     14.905     68.403     15.318      15.53      0.292      0.666       0.28      1.136      1.572     87.184     51.491
     5388.5      10.88      0.682     68.644      0.285      1.069      1.543      0.613     15.563      8.351      86.85      0.278     70.957     15.067     14.561     18.758     52.131     15.563     68.644     14.561     15.067      0.285      0.682      0.278      1.069      1.543      86.85     52.131
       5389     11.374      0.699     69.127      0.295      0.985      1.514      0.632     16.354      8.416     87.672      0.283     71.631     14.824     13.968     18.455     52.238     16.354     69.127     13.968     14.824      0.295      0.699      0.283      0.985      1.514     87.672     52.238
     5389.5      11.65      0.711     71.522      0.304      0.956      1.493      0.646     16.492      8.451     87.367      0.281     76.181     14.696     13.628      18.16     52.925     16.492     71.522     13.628     14.696      0.304      0.711      0.281      0.956      1.493     87.367     52.925
       5390     11.682      0.704     73.917      0.311      1.015      1.506       0.64     16.535      8.464     85.661      0.269      80.17     14.597      13.49     17.857     53.186     16.535     73.917      13.49     14.597      0.311      0.704      0.269      1.015      1.506     85.661     53.186
     5390.5     11.626      0.665     75.312      0.314      1.196      1.574        0.6     16.387      8.439     85.005      0.265     76.518     14.469     13.525      17.76     53.008     16.387     75.312     13.525     14.469      0.314      0.665      0.265      1.196      1.574     85.005     53.008
       5391     11.634      0.589     77.259      0.299      1.443      1.703      0.525       16.1      8.432     85.961      0.271      73.99     14.322     13.629     17.745     52.712       16.1     77.259     13.629     14.322      0.299      0.589      0.271      1.443      1.703     85.961     52.712
     5391.5     11.699      0.499     80.636        0.3       1.81      1.856      0.446     15.688      8.426       86.4      0.274      74.44     14.197     13.684     17.791     52.783     15.688     80.636     13.684     14.197        0.3      0.499      0.274       1.81      1.856       86.4     52.783
       5392     11.626      0.406     78.379      0.315      2.176      2.016       0.38     15.062      8.443     85.642      0.269     75.226      14.15     13.672     18.405     52.795     15.062     78.379     13.672      14.15      0.315      0.406      0.269      2.176      2.016     85.642     52.795
     5392.5     11.528      0.323     75.622      0.323      2.483      2.158      0.329     14.585      8.468     85.631      0.269      76.35      14.19     13.631     19.066     52.001     14.585     75.622     13.631      14.19      0.323      0.323      0.269      2.483      2.158     85.631     52.001
       5393     11.488      0.275     75.657      0.314      2.534      2.239      0.298     13.962      8.495     86.448      0.275     79.665     14.293     13.703     19.599     52.818     13.962     75.657     13.703     14.293      0.314      0.275      0.275      2.534      2.239     86.448     52.818
     5393.5     11.285      0.257     71.074      0.299      2.587      2.271      0.281     13.153       8.51     87.355      0.281     81.687     14.406     13.862     19.742     52.913     13.153     71.074     13.862     14.406      0.299      0.257      0.281      2.587      2.271     87.355     52.913
       5394     11.082      0.252     70.333      0.302      2.528      2.279       0.28      12.34      8.477     86.592      0.276     79.271     14.462     14.011     19.746     53.281      12.34     70.333     14.011     14.462      0.302      0.252      0.276      2.528      2.279     86.592     53.281
     5394.5     10.969      0.232     70.505      0.303      2.575      2.313       0.27      12.05      8.402     87.352      0.281     78.597      14.44     14.055     19.777     53.198      12.05     70.505     14.055      14.44      0.303      0.232      0.281      2.575      2.313     87.352     53.198
