~Version ---------------------------------------------------
VERS. 2.0 : CWLS log ASCII Standard -VERSION 2.0
WRAP.  NO : One line per depth step
~Well ------------------------------------------------------
STRT.F                     2587.0 : 
STOP.F                     9110.0 : 
STEP.F                        0.5 : 
NULL.                     -999.25 : 
COMP. HALLIBURTON ENERGY SERVICES : Company Name
WELL.        UNIVERSITY 6-17 NO.1 : Well Name
FLD .                     WILDCAT : Field Name
LOC .                  SECTION 17 : Location
SLOC.         2377 FSL X 1065 FWL : SURFACE Location
SECT.                             : Section
TOWN.                             : Township
RANG.                             : Range
COUN.                      REAGAN : County
STAT.                          TX : State
CTRY.                         USA : Country
SRVC. HALLIBURTON ENERGY SERVICES : Service Company
DATE.                    06-21-97 : DATE as MM/DD/YY
APIN.                42-303-34774 : API Well Number
UWI .              42303347740000 : UNIQUE WELL ID
PD  .                        G.L. : Permanent Datum
RUN .                         TWO : Run Number
DMF .                        K.B. : Drilling Measured From
LMF .                        K.B. : Logging Measured From
TCS .                             : Time Circulation Stopped
TLAB.                             : Time Logger at Bottom
DFT .                  FRESHWATER : Drilling Fluid Type
MCSS.                        MEAS : Mud Cake Sample Source
MFSS.                        MEAS : Mud Filtrate Sample Source
MSS .                         PIT : Mud Sample Source
LCCN.                             : Logging Company Name
LUL .                      ODESSA : Equiptment Location
LUN .                             : Logging Unit Number
ENGI.                     JOHNSON : Logging Engineer's Name
WITN.                    VAN-LIEW : Witness's Name
~Curves ----------------------------------------------------
DEPT     .F    00 000 00 00 : 1  Depth Curve
CALI     .INCH 99 075 22 05 : 2  CALIPER
DPHI     .DECP 99 075 22 05 : 3  DENSITY POROSITY -LIME-
GR       .GAPI 99 075 22 05 : 4  GAMMA RAY
NPHI     .DECP 99 075 22 05 : 5  NEUTRON POROSITY -LIME-
PE       .B/E  99 075 22 05 : 6  PHOTO-ELECTRIC FACTOR
RHOB     .G/C3 99 075 22 05 : 7  BULK DENSITY
PHIX     .DECP 99 075 22 05 : 8  CROSSPLOT POROSITY
C13      .INCH 99 075 22 05 : 9  CALIPER PADS 1 - 3    -FACT-
C24      .INCH 99 075 22 05 : 10  CALIPER PADS 2 - 4    -FACT-
DT       .US/F 99 075 22 05 : 11  SONIC TRANSIT TIME
SPHI     .DECP 99 075 22 05 : 12  SONIC POROSITY  -LIME-
GR3      .     99 075 22 05 : 13  GAMMA RAY
ILD      .OHMM 99 075 22 05 : 14  IL, DEEP RESISTIVITY
ILM      .OHMM 99 075 22 05 : 15  IL, MEDIUM RESISTIVITY
SGRD     .OHMM 99 075 22 05 : 16  SHORT GUARD RESISTIVITY
SP       .MV   99 075 22 05 : 17  SPONTANEOUS POTENTIAL
CAL_N    .INCH 99 075 22 05 : 9  CALIPER PADS 1 - 3    -FACT-
GR_N     .GAPI 99 075 22 05 : 4  GAMMA RAY
RESMED_N .OHMM 99 075 22 05 : 15  IL, MEDIUM RESISTIVITY
RESDEEP_N.OHMM 99 075 22 05 : 14  IL, DEEP RESISTIVITY
NPHI_N   .DECP 99 075 22 05 : 5  NEUTRON POROSITY -LIME-
DPHI_N   .DECP 99 075 22 05 : 3  DENSITY POROSITY -LIME-
SPHI_N   .DECP 99 075 22 05 : 12  SONIC POROSITY  -LIME-
PE_N     .B/E  99 075 22 05 : 6  PHOTO-ELECTRIC FACTOR
RHOB_N   .G/C3 99 075 22 05 : 7  BULK DENSITY
DTC_N    .US/F 99 075 22 05 : 11  SONIC TRANSIT TIME
SP_N     .MV   99 075 22 05 : 17  SPONTANEOUS POTENTIAL
~Params ----------------------------------------------------
EDF .F   2636.0 : Elevation, Derrick Floor
EGL .F   2653.0 : Elevation, Ground Level
EKB .F   2654.0 : Elevation, Kelly Bushing
EPD .F   2636.0 : Elevation Perminent Datum
TDD .F   9097.0 : Total Depth-Driller
TDL .F   9097.0 : Total Depth-Logger
CBD .F   3119.0 : Casing Bottom Driller 1
CBL .F   3119.0 : Casing Bottom Logger 1
TLI .F   3119.0 : Top Logged Interval
BLI .F   9093.0 : Bottom Logged Interval
DFD .LB/G   9.0 : Drilling Fluid Density
DFPH.----  10.5 : Drilling Fluid Ph
DFL .C3     8.0 : Drilling Fluid Loss
DFV .CP    54.0 : Drilling Fluid Viscosity
RM  .CP    54.0 : Mud Sample Resistivity
MST .DEGF  74.0 : Mud Sample Temperature
RMF .DEGF  74.0 : Mud Filtrate Resistivity
MFST.DEGF  74.0 : Mud Filtrate Sample Temp
RMC .DEGF  74.0 : Mud Cake Resistivity
MCST.DEGF  74.0 : Mud Cake Sample Temperature
MRT .DEGF 141.0 : Maximum Recorded Temperature
BHT .DEGF 141.0 : Bottom Hole Temperature
~Other -----------------------------------------------------
~ASCII -----------------------------------------------------
# ...
       4563      9.736      0.124     79.378      0.214      2.821      2.498      0.177      9.608      9.487     71.927      0.172     85.788      6.974      6.893      8.091     38.964      9.608     79.378      6.893      6.974      0.214      0.124      0.172      2.821      2.498     71.927     38.964
     4563.5      9.745      0.117       78.5      0.224      2.882       2.51       0.18      9.607      9.505     72.328      0.175     88.148      6.919      6.847      8.424     39.551      9.607       78.5      6.847      6.919      0.224      0.117      0.175      2.882       2.51     72.328     39.551
       4564      9.761      0.105     77.294      0.226        2.9       2.53      0.177        9.6      9.531     72.414      0.175     85.844      6.863      6.786      8.333     39.729        9.6     77.294      6.786      6.863      0.226      0.105      0.175        2.9       2.53     72.414     39.729
     4564.5      9.753      0.101     79.775       0.23      2.898      2.537      0.177      9.598      9.554     71.613       0.17     85.114      6.762      6.704       8.12     40.054      9.598     79.775      6.704      6.762       0.23      0.101       0.17      2.898      2.537     71.613     40.054
       4565      9.785      0.095     82.204      0.224      2.921      2.547      0.172        9.6      9.592     71.627       0.17     83.429        6.6      6.574      7.891     40.825        9.6     82.204      6.574        6.6      0.224      0.095       0.17      2.921      2.547     71.627     40.825
     4565.5      9.801      0.096     83.944      0.219      2.924      2.546      0.169       9.59      9.611     71.958      0.172     86.069      6.418      6.385      7.695     40.126       9.59     83.944      6.385      6.418      0.219      0.096      0.172      2.924      2.546     71.958     40.126
       4566      9.801      0.096     86.667      0.221      2.863      2.546      0.171      9.582      9.642     71.919      0.172     88.092      6.273       6.16      7.572     39.865      9.582     86.667       6.16      6.273      0.221      0.096      0.172      2.863      2.546     71.919     39.865
     4566.5      9.809       0.09     86.891      0.223      2.858      2.557      0.169      9.574      9.675     72.114      0.173     90.339      6.202      5.954      7.279     39.255      9.574     86.891      5.954      6.202      0.223       0.09      0.173      2.858      2.557     72.114     39.255
       4567      9.818      0.098     82.497      0.223      2.816      2.542      0.172      9.575      9.695     72.266      0.174     84.946        6.2      5.839      6.822     38.804      9.575     82.497      5.839        6.2      0.223      0.098      0.174      2.816      2.542     72.266     38.804
     4567.5      9.842      0.102     78.207      0.215      2.838      2.535      0.169      9.577      9.696     72.322      0.175     75.002      6.215      5.855      6.393     36.849      9.577     78.207      5.855      6.215      0.215      0.102      0.175      2.838      2.535     72.322     36.849
       4568      9.809      0.104     71.642      0.211      2.886      2.532      0.168      9.567      9.688     72.241      0.174     67.529      6.178      5.987      6.228     35.272      9.567     71.642      5.987      6.178      0.211      0.104      0.174      2.886      2.532     72.241     35.272
     4568.5      9.801      0.106     69.264      0.204      2.985      2.528      0.166      9.553      9.657     71.677       0.17     59.889      6.057      6.132      6.637     34.401      9.553     69.264      6.132      6.057      0.204      0.106       0.17      2.985      2.528     71.677     34.401
       4569      9.826      0.098     66.663      0.194       3.06      2.542      0.157      9.562      9.625       70.6      0.163     59.608       5.87      6.145      7.668     34.283      9.562     66.663      6.145       5.87      0.194      0.098      0.163       3.06      2.542       70.6     34.283
     4569.5      9.818      0.084     66.749       0.18      3.133      2.566      0.144      9.583      9.595     69.245      0.153     60.563       5.66      5.945      8.422     33.151      9.583     66.749      5.945       5.66       0.18      0.084      0.153      3.133      2.566     69.245     33.151
       4570      9.809      0.083     63.268      0.175      3.189      2.568      0.141      9.605      9.539     67.906      0.144      61.63      5.451      5.587      8.362     33.252      9.605     63.268      5.587      5.451      0.175      0.083      0.144      3.189      2.568     67.906     33.252
     4570.5      9.818      0.091     59.598      0.177      3.139      2.555      0.145       9.61      9.478     66.367      0.133      62.81      5.242      5.184      7.501      32.31       9.61     59.598      5.184      5.242      0.177      0.091      0.133      3.139      2.555     66.367      32.31
       4571      9.826       0.11     59.409      0.181      2.923      2.522      0.155      9.636      9.478     65.661      0.128     61.574      5.026      4.825       6.39     31.966      9.636     59.409      4.825      5.026      0.181       0.11      0.128      2.923      2.522     65.661     31.966
     4571.5       9.85      0.118     57.962      0.188      2.799      2.508      0.162      9.675      9.484     66.902      0.137     64.327      4.786      4.533      5.695     31.397      9.675     57.962      4.533      4.786      0.188      0.118      0.137      2.799      2.508     66.902     31.397
       4572      9.866      0.127     56.824      0.198      2.757      2.493      0.171      9.688      9.504     68.455      0.147     69.046      4.593      4.331      5.223     31.824      9.688     56.824      4.331      4.593      0.198      0.127      0.147      2.757      2.493     68.455     31.824
     4572.5      9.899      0.134     60.339      0.203      2.645      2.481      0.176      9.693      9.519     69.988      0.158     73.091      4.476      4.212       5.03     31.972      9.693     60.339      4.212      4.476      0.203      0.134      0.158      2.645      2.481     69.988     31.972
       4573      9.891      0.141     61.666      0.205      2.547      2.469       0.18      9.691      9.532      71.68       0.17     76.575      4.453      4.174      5.014     32.855      9.691     61.666      4.174      4.453      0.205      0.141       0.17      2.547      2.469      71.68     32.855
     4573.5      9.907      0.141     63.182      0.213       2.58      2.469      0.184      9.686      9.533     72.798      0.178     75.563      4.524      4.217      5.092     33.151      9.686     63.182      4.217      4.524      0.213      0.141      0.178       2.58      2.469     72.798     33.151
       4574      9.907       0.14     65.646      0.218      2.645       2.47      0.187      9.679      9.539     73.161      0.181     74.496       4.67       4.34       5.19     33.987      9.679     65.646       4.34       4.67      0.218       0.14      0.181      2.645       2.47     73.161     33.987
     4574.5       9.85       0.14     69.161      0.214      2.583      2.471      0.184      9.691       9.54     72.995       0.18      72.53      4.863      4.524      5.361     35.041      9.691     69.161      4.524      4.863      0.214       0.14       0.18      2.583      2.471     72.995     35.041
       4575      9.842      0.134     70.677      0.206      2.714       2.48      0.178      9.697      9.554     72.769      0.178     70.114      5.071       4.75      5.667     35.367      9.697     70.677       4.75      5.071      0.206      0.134      0.178      2.714       2.48     72.769     35.367
     4575.5      9.882       0.12     73.021      0.205      2.763      2.505      0.171      9.692      9.553     72.481      0.176     74.945      5.247      4.968      5.975     36.084      9.692     73.021      4.968      5.247      0.205       0.12      0.176      2.763      2.505     72.481     36.084
