~Version Information                                                          
 VERS.                             1.20: CWLS log ASCII Standard -VERSION 1.20
 WRAP.                               NO: One line per depth step              
~Well Information Block                                                       
#MNEM.UNIT           Data Type           Information                          
#--------- ----------------------------  -------------------------------------
 STRT.F                         92.0000:                                      
 STOP.F                       9060.0000:                                      
 STEP.F                          0.5000:                                      
 NULL.                        -999.2500:                                      
 COMP.                     Company Name: ENRON OIL & GAS                      
 WELL.                        Well Name: UNIVERSITY 6-18W NO.1                
 FLD .                       Field Name: WILDCAT                              
 LOC .                         Location: SECTION 18, BLOCK 6                  
 SLOC.                 SURFACE Location: 1216' FNL & 505' FWL                 
 SECT.                          Section: 18                                   
 TOWN.                         Township:                                      
 RANG.                            Range:                                      
 COUN.                           County: REAGAN                               
 STAT.                            State: TX                                   
 CTRY.                          Country: USA                                  
 SRVC.                  Service Company: HALLIBURTON ENERGY SERVICES          
 DATE.                 DATE as MM/DD/YY: 08/17/97                             
 APIN.                  API Well Number: 42-383-34800                         
 UWI .                   UNIQUE WELL ID: 42383348000000                       
 PD  .                  Permanent Datum: G.L.                                 
 RUN .                       Run Number: 1&2                                  
 DMF .           Drilling Measured From: KELLY BUSHING                        
 LMF .            Logging Measured From: K.B.                                 
 TCS .         Time Circulation Stopped: 0100                                 
 TLAB.            Time Logger at Bottom: 0830                                 
 DFT .              Drilling Fluid Type: FW-PAC-STARCH                        
 MCSS.           Mud Cake Sample Source: N/A                                  
 MFSS.       Mud Filtrate Sample Source: MEAS                                 
 MSS .                Mud Sample Source: MUD PIT                              
 LCCN.             Logging Company Name: HALLIBURTON ENERGY SERVICES          
 LUL .              Equiptment Location: ODTX                                 
 LUN .              Logging Unit Number: 52525                                
 ENGI.          Logging Engineer's Name: LAUFER                               
 WITN.                   Witness's Name: N. VAN LIEW                          
~Curve Information Block                                                      
#MNEM.UNIT                   API CODE    Curve Description                  
#---------                 ------------  -------------------------------------
 DEPT.F                    00 000 00 00:   1  Depth Curve                     
 GR2 .GAPI                 00 000 00 00:   2  GAMMA RAY -DENSITY-NEUTRON- 
 NPHI.DECP                 00 000 00 00:   3  NEUTRON POROSITY -LIME-     
 DPHI.DECP                 00 000 00 00:   4  DENSITY POROSITY -LIME-     
 RHOB.G/C3                 00 000 00 00:   5  BULK DENSITY                
 DRHO.G/C3                 00 000 00 00:   6  DENSITY CORRECTION          
 PE  .B/E                  00 000 00 00:   7  PHOTO-ELECTRIC FACTOR       
 CALI.IN                   00 000 00 00:   8  CALIPER -DENSITY-           
 PHIX.DECP                 00 000 00 00:   9  CROSSPLOT POROSITY          
 LLS .OHMM                 00 000 00 00:  10  LATERO-LOG, SHALLOW RESIS.  
 LLD .OHMM                 00 000 00 00:  11  LATERO-LOG, DEEP RESISTIVITY
 CLLD.MMHO                 00 000 00 00:  12  LATERO-LOG, DEEP CONDUCTIVTY
 MGRD.OHMM                 00 000 00 00:  13  MICRO-SFL   RESISTIVITY     
 CAL2.IN                   00 000 00 00:  14  CALIPER -MICRO-SFL-         
 GR  .GAPI                 00 000 00 00:  15  GAMMA RAY -SONIC-           
 C13 .IN                   00 000 00 00:  16  CALIPER PADS 1 - 3    -FACT-
 C24 .IN                   00 000 00 00:  17  CALIPER PADS 2 - 4    -FACT-
 DT  .US/F                 00 000 00 00:  18  SONIC TRANSIT TIME          
 SPHI.DECP                 00 000 00 00:  19  SONIC POROSITY  -LIME-      
~Parameter Information Block                                                  
#MNEM.UNIT            Value              Description                          
#--------- ----------------------------  -------------------------------------
 EDF .F                       2695.0000: Elevation, Derrick Floor    
 EGL .F                       2678.0000: Elevation, Ground Level     
 EKB .F                       2696.0000: Elevation, Kelly Bushing    
 EPD .F                       2678.0000: Elevation Perminent Datum   
 TDD .F                       9050.0000: Total Depth-Driller         
 TDL .F                       9044.0000: Total Depth-Logger          
 CBD .F                       3050.0000: Casing Bottom Driller 1     
 CBL .F                       3044.0000: Casing Bottom Logger 1      
 TLI .F                       2900.0000: Top Logged Interval         
 BLI .F                       9037.0000: Bottom Logged Interval      
 DFD .LB/G                       9.1000: Drilling Fluid Density      
 DFPH.----                      10.5000: Drilling Fluid Ph           
 DFL .C3                         5.6000: Drilling Fluid Loss         
 DFV .CP                        52.0000: Drilling Fluid Viscosity    
 RM  .CP                        52.0000: Mud Sample Resistivity      
 MST .DEGF                      69.0000: Mud Sample Temperature      
 RMF .DEGF                      69.0000: Mud Filtrate Resistivity    
 MFST.DEGF                      69.0000: Mud Filtrate Sample Temp    
 RMC .DEGF                      69.0000: Mud Cake Resistivity        
 MCST.DEGF                      69.0000: Mud Cake Sample Temperature 
 MRT .DEGF                     150.0000: Maximum Recorded Temperature
 BHT .DEGF                     111.0000: Bottom Hole Temperature     
~A   DEPT       GR2        NPHI       DPHI       RHOB       DRHO       PE         CALI       PHIX       LLS        LLD        CLLD       MGRD       CAL2       GR         C13        C24        DT         SPHI  
# ...
  7034.0000    111.356      0.270      0.148      2.472      0.048      3.130      8.427      0.218     47.863     50.369     19.854     76.529      8.137    103.694      8.590      8.406     85.656      0.251
  7034.5000    111.917      0.269      0.140      2.485      0.052      3.041      8.427      0.214     48.747     50.121     19.952     37.156      8.137    105.570      8.543      8.418     82.277      0.254
  7035.0000    108.674      0.277      0.134      2.494      0.048      3.023      8.394      0.215     55.011     54.534     18.337     27.652      8.136    104.448      8.529      8.418     81.256      0.251
  7035.5000    105.974      0.279      0.140      2.484      0.041      3.143      8.402      0.219     62.060     58.959     16.961     32.723      8.136     98.908      8.521      8.421     83.736      0.249
  7036.0000    105.535      0.280      0.142      2.481      0.040      3.201      8.411      0.220     64.376     60.500     16.529     41.847      8.136     94.314      8.537      8.422     84.009      0.255
  7036.5000     98.592      0.269      0.135      2.493      0.044      3.201      8.402      0.212     61.616     57.928     17.263     30.261      8.136     92.438      8.578      8.411     83.933      0.258
  7037.0000     95.909      0.270      0.136      2.492      0.039      3.230      8.385      0.213     55.124     52.214     19.152     30.345      8.135     93.682      8.615      8.409     84.034      0.257
  7037.5000     98.715      0.269      0.136      2.492      0.040      3.283      8.402      0.212     50.165     48.495     20.621     34.256      8.146     97.382      8.620      8.418     84.109      0.249
  7038.0000    103.098      0.266      0.129      2.502      0.046      3.268      8.411      0.208     51.502     49.565     20.176     28.691      8.155    103.677      8.624      8.401     81.614      0.245
  7038.5000    110.936      0.277      0.119      2.518      0.060      3.245      8.402      0.209     53.788     52.123     19.186     30.773      8.147    113.215      8.629      8.423     80.384      0.244
  7039.0000    120.754      0.290      0.124      2.510      0.059      3.233      8.402      0.218     60.758     58.852     16.992     38.812      8.135    118.984      8.633      8.439     82.698      0.242
  7039.5000    132.186      0.303      0.132      2.498      0.062      3.301      8.402      0.227     70.289     67.867     14.735     31.321      8.122    125.699      8.639      8.421     82.914      0.254
  7040.0000    144.986      0.315      0.140      2.485      0.062      3.279      8.402      0.236     76.815     75.781     13.196     32.335      8.098    139.095      8.620      8.398     84.808      0.262
  7040.5000    149.931      0.313      0.149      2.469      0.060      3.440      8.377      0.239     90.308     88.214     11.336     39.685      8.075    143.811      8.584      8.390     86.289      0.269
  7041.0000    151.403      0.299      0.154      2.463      0.051      3.450      8.377      0.234    106.160    104.180      9.599     50.356      8.072    138.008      8.564      8.353     86.478      0.274
  7041.5000    158.873      0.276      0.158      2.456      0.041      3.485      8.360      0.225    130.554    122.181      8.185     56.273      8.071    142.724      8.581      8.324     87.005      0.258
  7042.0000    158.610      0.275      0.149      2.470      0.039      3.514      8.318      0.221    143.813    130.926      7.638    108.461      8.072    144.162      8.585      8.304     81.095      0.253
  7042.5000    153.753      0.280      0.131      2.500      0.050      3.410      8.301      0.215    131.802    120.944      8.268    158.442      8.072    140.410      8.600      8.288     80.003      0.251
  7043.0000    153.683      0.288      0.131      2.499      0.046      3.399      8.318      0.220    111.429    102.604      9.746    250.787      8.073    146.582      8.600      8.296     84.825      0.244
  7043.5000    145.161      0.271      0.129      2.502      0.047      3.367      8.360      0.210     89.117     84.909     11.777    135.005      8.072    147.020      8.600      8.311     84.106      0.252
  7044.0000    132.975      0.267      0.122      2.514      0.052      3.232      8.369      0.205     81.070     75.544     13.237     71.500      8.074    133.659      8.596      8.318     82.072      0.255
  7044.5000    121.736      0.257      0.116      2.523      0.052      3.230      8.385      0.198     76.288     70.787     14.127     63.433      8.075    119.983      8.564      8.324     83.283      0.242
  7045.0000    119.895      0.239      0.116      2.523      0.044      3.237      8.394      0.189     79.316     71.832     13.921     48.444      8.074    108.165      8.533      8.335     81.752      0.229
  7045.5000    117.581      0.225      0.109      2.534      0.044      3.383      8.402      0.179     82.716     73.649     13.578     43.553      8.072    100.012      8.521      8.342     76.942      0.212
  7046.0000    115.477      0.218      0.107      2.538      0.048      3.358      8.402      0.174     83.082     73.238     13.654     34.197      8.072     99.574      8.521      8.327     73.123      0.195
  7046.5000    117.546      0.231      0.113      2.528      0.046      3.384      8.402      0.184     82.943     72.550     13.784     37.873      8.072    105.114      8.521      8.316     72.955      0.194
  7047.0000    120.123      0.245      0.124      2.511      0.049      3.374      8.394      0.195     78.506     70.631     14.158     52.434      8.073    117.213      8.521      8.309     76.777      0.205
  7047.5000    119.895      0.275      0.135      2.492      0.047      3.461      8.402      0.215     80.932     73.312     13.640     56.157      8.073    124.770      8.527      8.297     80.075      0.226
  7048.0000    121.000      0.300      0.135      2.492      0.051      3.402      8.402      0.227     91.415     82.152     12.173     53.566      8.073    122.683      8.557      8.273     82.302      0.252
  7048.5000    121.789      0.304      0.142      2.482      0.053      3.405      8.352      0.232    107.586     96.143     10.401     47.805      8.072    122.052      8.589      8.246     86.705      0.262
  7049.0000    121.105      0.288      0.148      2.472      0.053      3.432      8.301      0.226    131.911    114.094      8.765     74.097      8.071    118.598      8.600      8.237     87.228      0.264
  7049.5000    122.753      0.280      0.148      2.472      0.057      3.468      8.326      0.223    138.492    121.309      8.243    124.040      8.071    116.143      8.600      8.246     83.480      0.267
  7050.0000    125.278      0.280      0.156      2.459      0.046      3.413      8.335      0.226    137.386    122.337      8.174    166.764      8.070    118.861      8.600      8.260     83.417      0.260
  7050.5000    128.855      0.279      0.150      2.468      0.050      3.376      8.352      0.223    134.898    121.928      8.202    100.905      8.069    119.913      8.600      8.270     84.867      0.256
  7051.0000    137.850      0.263      0.150      2.469      0.044      3.409      8.326      0.215    137.163    124.020      8.063    100.927      8.069    124.489      8.600      8.257     84.256      0.251
  7051.5000    151.158      0.255      0.152      2.466      0.037      3.215      8.343      0.212    151.188    134.642      7.427     81.392      8.070    135.553      8.600      8.251     81.630      0.242
  7052.0000    163.011      0.254      0.147      2.474      0.039      3.230      8.377      0.209    155.767    139.084      7.190    101.363      8.071    142.566      8.600      8.248     78.927      0.239
  7052.5000    174.390      0.271      0.152      2.465      0.042      3.237      8.394      0.220    156.146    143.048      6.991    176.062      8.069    158.645      8.600      8.265     80.966      0.242
  7053.0000    192.081      0.294      0.171      2.434      0.036      3.185      8.394      0.239    157.039    145.853      6.856     66.993      8.070    178.721      8.600      8.270     84.109      0.258
