~Version Information                                                          
 VERS.                             1.20: CWLS log ASCII Standard -VERSION 1.20
 WRAP.                               NO: One line per depth step              
~Well Information Block                                                       
#MNEM.UNIT           Data Type           Information                          
#--------- ----------------------------  -------------------------------------
 STRT.F                         93.0000:                                      
 STOP.F                       8960.0000:                                      
 STEP.F                          0.5000:                                      
 NULL.                        -999.2500:                                      
 COMP.                     Company Name: ENRON OIL & GAS COMPANY              
 WELL.                        Well Name: UNIVERSITY 6-7 NO.1                  
 FLD .                       Field Name: GRIERSON                             
 LOC .                         Location: SECTION 7,BLOCK6                     
 SLOC.                 SURFACE Location: 874 FEL X 2193 FSL                   
 SECT.                          Section:                                      
 TOWN.                         Township:                                      
 RANG.                            Range:                                      
 COUN.                           County: REAGAN                               
 STAT.                            State: TEXAS                                
 CTRY.                          Country: USA                                  
 SRVC.                  Service Company: HALLIBURTON ENERGY SERVICES          
 DATE.                 DATE as MM/DD/YY: 04/29/97                             
 APIN.                  API Well Number: 42-383-34746                         
 UWI .                   UNIQUE WELL ID: 42383347460000                       
 PD  .                  Permanent Datum: G.L.                                 
 RUN .                       Run Number: ONE                                  
 DMF .           Drilling Measured From: KELLY BUSHING                        
 LMF .            Logging Measured From: K.B.                                 
 TCS .         Time Circulation Stopped:                                      
 TLAB.            Time Logger at Bottom:                                      
 DFT .              Drilling Fluid Type: FRESH GEL                            
 MCSS.           Mud Cake Sample Source: MEAS.                                
 MFSS.       Mud Filtrate Sample Source: MEAS.                                
 MSS .                Mud Sample Source: FLOWLINE                             
 LCCN.             Logging Company Name: HALLIBURTON ENERGY SERVICES          
 LUL .              Equiptment Location: ODESSA                               
 LUN .              Logging Unit Number: 51941                                
 ENGI.          Logging Engineer's Name: MART RILEY                           
 WITN.                   Witness's Name: N. VAN LIEW                          
~Curve Information Block                                                      
#MNEM.UNIT                   API CODE    Curve Description                  
#---------                 ------------  -------------------------------------
 DEPT.F                    00 000 00 00:   1  Depth Curve                     
 C13 .INCH                 99 075 22 05:   2  CALIPER PADS 1 - 3    -FACT-
 C24 .INCH                 99 075 22 05:   3  CALIPER PADS 2 - 4    -FACT-
 DT  .US/F                 99 075 22 05:   4  SONIC TRANSIT TIME          
 ILD .OHMM                 99 075 22 05:   5  IL, DEEP RESISTIVITY        
 ILM .OHMM                 99 075 22 05:   6  IL, MEDIUM RESISTIVITY      
 SGRD.OHMM                 99 075 22 05:   7  SHORT GUARD RESISTIVITY     
 SP  .MV                   99 075 22 05:   8  SPONTANEOUS POTENTIAL       
 SPHI.DECP                 99 075 22 05:   9  SONIC POROSITY  -LIME-      
 GR  .GAPI                 99 075 22 05:  10  GAMMA RAY                   
 CALI.INCH                 99 075 22 05:  11  CALIPER                     
 DPHI.DECP                 99 075 22 05:  12  DENSITY POROSITY -LIME-     
 GR2 .GAPI                 99 075 22 05:  13  GAMMA RAY 2ND SERVICE       
 NPHI.DECP                 99 075 22 05:  14  NEUTRON POROSITY -LIME-     
 PE  .B/E                  99 075 22 05:  15  PHOTO-ELECTRIC FACTOR       
 RHOB.G/C3                 99 075 22 05:  16  BULK DENSITY                
 DRHO.G/C3                 99 075 22 05:  17  DENSITY CORRECTION          
~Parameter Information Block                                                  
#MNEM.UNIT            Value              Description                          
#--------- ----------------------------  -------------------------------------
 EDF .F                       2732.0000: Elevation, Derrick Floor    
 EGL .F                       2715.0000: Elevation, Ground Level     
 EKB .F                       2733.0000: Elevation, Kelly Bushing    
 EPD .F                       2715.0000: Elevation Perminent Datum   
 TDD .F                       8950.0000: Total Depth-Driller         
 TDL .F                       8946.0000: Total Depth-Logger          
 CBD .F                       3000.0000: Casing Bottom Driller 1     
 CBL .F                       2998.0000: Casing Bottom Logger 1      
 TLI .F                       2980.0000: Top Logged Interval         
 BLI .F                       8941.0000: Bottom Logged Interval      
 DFD .LB/G                       9.4000: Drilling Fluid Density      
 DFPH.----                      10.0000: Drilling Fluid Ph           
 DFL .C3                        11.2000: Drilling Fluid Loss         
 DFV .CP                        46.0000: Drilling Fluid Viscosity    
 RM  .CP                        46.0000: Mud Sample Resistivity      
 MST .DEGF                      74.0000: Mud Sample Temperature      
 RMF .DEGF                      74.0000: Mud Filtrate Resistivity    
 MFST.DEGF                      74.0000: Mud Filtrate Sample Temp    
 RMC .DEGF                      74.0000: Mud Cake Resistivity        
 MCST.DEGF                      74.0000: Mud Cake Sample Temperature 
 MRT .DEGF                     165.0000: Maximum Recorded Temperature
 BHT .DEGF                     165.0000: Bottom Hole Temperature     
~A   DEPT       C13        C24        DT         ILD        ILM        SGRD       SP         SPHI       GR         CALI       DPHI       GR2        NPHI       PE         RHOB       DRHO  
# ...
  5747.5000      9.337      9.369     71.433      5.108      4.867      5.906     95.197      0.169     76.391      8.925      0.118     81.039      0.213      2.986      2.508      0.042
  5748.0000      9.342      9.346     74.063      4.934      4.694      5.807     95.132      0.187     78.075      8.953      0.114     82.925      0.204      3.041      2.515      0.053
  5748.5000      9.353      9.349     74.352      4.890      4.599      5.767     95.203      0.189     76.997      8.966      0.109     88.382      0.212      2.969      2.524      0.056
  5749.0000      9.350      9.344     73.802      4.974      4.589      5.536     95.303      0.185     76.189      8.966      0.105     88.786      0.212      2.993      2.531      0.055
  5749.5000      9.348      9.330     74.978      5.102      4.663      5.411     95.356      0.194     77.401      8.960      0.096     84.812      0.213      3.073      2.546      0.064
  5750.0000      9.346      9.299     75.262      5.233      4.801      5.576     95.545      0.196     78.614      8.953      0.099     81.241      0.204      3.020      2.541      0.061
  5750.5000      9.344      9.300     75.127      5.315      4.962      5.874     95.863      0.195     76.458      8.939      0.095     76.526      0.191      3.036      2.547      0.064
  5751.0000      9.334      9.295     73.877      5.330      5.089      6.536     96.146      0.186     76.863      8.953      0.099     80.298      0.194      2.962      2.541      0.063
  5751.5000      9.352      9.295     73.023      5.301      5.129      7.183     96.069      0.180     77.199      8.932      0.103     79.759      0.206      2.909      2.535      0.065
  5752.0000      9.372      9.308     73.934      5.255      5.074      7.330     95.392      0.186     76.256      8.973      0.113     82.521      0.212      2.863      2.517      0.052
  5752.5000      9.406      9.329     73.631      5.202      4.967      7.164     94.237      0.184     74.303      9.001      0.107     80.568      0.207      2.863      2.527      0.054
  5753.0000      9.418      9.338     73.531      5.147      4.845      6.569     92.994      0.183     74.976      9.015      0.103     75.246      0.193      2.825      2.535      0.057
  5753.5000      9.416      9.341     73.739      5.111      4.734      6.214     92.216      0.185     73.158      9.022      0.099     73.158      0.182      2.787      2.541      0.055
  5754.0000      9.426      9.343     72.841      5.107      4.676      6.137     92.428      0.179     65.276      9.043      0.095     69.655      0.174      2.811      2.548      0.055
  5754.5000      9.435      9.342     71.983      5.142      4.711      6.014     93.618      0.172     67.970      9.077      0.092     73.629      0.174      2.847      2.553      0.060
  5755.0000      9.436      9.336     71.855      5.211      4.850      5.976     95.350      0.172     72.686      9.077      0.094     76.189      0.184      2.854      2.550      0.059
  5755.5000      9.431      9.320     72.692      5.302      5.068      6.293     97.342      0.177     78.075      9.050      0.101     79.894      0.200      2.926      2.536      0.054
  5756.0000      9.448      9.267     74.320      5.410      5.308      6.946     99.033      0.189     84.879      9.050      0.104     88.382      0.216      2.932      2.531      0.051
  5756.5000      9.455      9.224     75.427      5.532      5.510      7.622    100.193      0.197     87.978      9.050      0.106     92.895      0.232      2.932      2.528      0.049
  5757.0000      9.442      9.210     76.781      5.649      5.629      8.125    100.617      0.206     87.304      9.105      0.108     97.409      0.237      2.946      2.526      0.049
  5757.5000      9.426      9.205     77.519      5.729      5.636      8.189    100.517      0.212     86.630      9.112      0.111     94.579      0.231      2.869      2.520      0.045
  5758.0000      9.412      9.192     77.031      5.736      5.564      7.807    100.305      0.208     81.376      9.071      0.109     90.403      0.220      2.812      2.523      0.048
  5758.5000      9.404      9.196     76.017      5.644      5.467      7.303    100.246      0.201     77.536      9.043      0.108     83.262      0.205      2.756      2.525      0.049
  5759.0000      9.409      9.196     75.025      5.484      5.373      6.742    100.523      0.194     75.246      9.084      0.107     78.883      0.195      2.778      2.528      0.048
  5759.5000      9.402      9.209     74.042      5.327      5.267      6.683    100.765      0.187     73.899      9.112      0.103     77.132      0.191      2.782      2.534      0.049
  5760.0000      9.415      9.200     73.323      5.242      5.132      6.834    100.747      0.182     74.774      9.112      0.101     75.381      0.189      2.861      2.537      0.051
  5760.5000      9.414      9.205     73.938      5.269      5.017      6.878    100.435      0.186     77.132      9.091      0.100     76.256      0.197      2.913      2.540      0.049
  5761.0000      9.417      9.232     73.550      5.385      4.990      6.671     99.916      0.184     76.122      9.133      0.103     76.324      0.202      2.887      2.533      0.045
  5761.5000      9.379      9.254     73.845      5.533      5.101      6.231     99.628      0.186     75.044      9.119      0.105     74.640      0.210      2.972      2.531      0.049
  5762.0000      9.341      9.267     75.337      5.654      5.340      6.196    100.146      0.196     74.842      9.133      0.111     79.355      0.210      2.910      2.521      0.047
  5762.5000      9.329      9.263     75.281      5.712      5.620      6.761    101.130      0.196     78.479      9.098      0.114     89.729      0.218      2.892      2.516      0.046
  5763.0000      9.312      9.265     75.423      5.727      5.827      7.830    102.090      0.197     79.961      9.050      0.126     91.211      0.233      2.862      2.495      0.034
  5763.5000      9.312      9.263     76.569      5.731      5.881      8.793    102.862      0.205     83.666      9.008      0.122     94.512      0.245      2.897      2.501      0.039
  5764.0000      9.316      9.280     78.305      5.744      5.793      9.103    103.139      0.217     85.081      9.036      0.119     96.129      0.246      2.944      2.507      0.041
  5764.5000      9.316      9.305     79.272      5.760      5.638      8.479    102.833      0.224     80.500      9.098      0.109     86.765      0.238      2.931      2.524      0.045
  5765.0000      9.316      9.329     78.752      5.764      5.495      7.503    102.226      0.220     83.195      9.126      0.101     81.174      0.236      2.906      2.537      0.049
  5765.5000      9.326      9.355     77.798      5.764      5.414      6.782    101.978      0.214     81.982      9.119      0.096     77.401      0.221      2.904      2.545      0.052
  5766.0000      9.328      9.357     76.956      5.781      5.429      6.416    102.462      0.208     78.075      9.105      0.091     77.132      0.209      2.881      2.554      0.056
  5766.5000      9.338      9.340     75.819      5.842      5.566      6.443    103.463      0.200     82.117      9.098      0.095     79.086      0.212      2.864      2.548      0.054
  5767.0000      9.339      9.298     75.734      5.964      5.810      6.778    104.565      0.199     89.864      9.050      0.101     85.216      0.221      2.923      2.537      0.057
  5767.5000      9.308      9.253     77.592      6.136      6.123      7.567    105.508      0.212     95.455      9.015      0.110     90.807      0.233      3.065      2.522      0.051
  5768.0000      9.275      9.222     79.314      6.335      6.452      8.708    106.209      0.224    102.259      8.987      0.114     96.331      0.243      3.147      2.515      0.053
  5768.5000      9.263      9.192     79.572      6.552      6.746      9.506    106.574      0.226     99.632      8.966      0.118     90.740      0.257      3.388      2.508      0.045
