~Version Information                                                          
 VERS.                             1.20: CWLS log ASCII Standard -VERSION 1.20
 WRAP.                               NO: One line per depth step              
~Well Information Block                                                       
#MNEM.UNIT           Data Type           Information                          
#--------- ----------------------------  -------------------------------------
 STRT.F                         93.0000:                                      
 STOP.F                       8960.0000:                                      
 STEP.F                          0.5000:                                      
 NULL.                        -999.2500:                                      
 COMP.                     Company Name: ENRON OIL & GAS COMPANY              
 WELL.                        Well Name: UNIVERSITY 6-7 NO.1                  
 FLD .                       Field Name: GRIERSON                             
 LOC .                         Location: SECTION 7,BLOCK6                     
 SLOC.                 SURFACE Location: 874 FEL X 2193 FSL                   
 SECT.                          Section:                                      
 TOWN.                         Township:                                      
 RANG.                            Range:                                      
 COUN.                           County: REAGAN                               
 STAT.                            State: TEXAS                                
 CTRY.                          Country: USA                                  
 SRVC.                  Service Company: HALLIBURTON ENERGY SERVICES          
 DATE.                 DATE as MM/DD/YY: 04/29/97                             
 APIN.                  API Well Number: 42-383-34746                         
 UWI .                   UNIQUE WELL ID: 42383347460000                       
 PD  .                  Permanent Datum: G.L.                                 
 RUN .                       Run Number: ONE                                  
 DMF .           Drilling Measured From: KELLY BUSHING                        
 LMF .            Logging Measured From: K.B.                                 
 TCS .         Time Circulation Stopped:                                      
 TLAB.            Time Logger at Bottom:                                      
 DFT .              Drilling Fluid Type: FRESH GEL                            
 MCSS.           Mud Cake Sample Source: MEAS.                                
 MFSS.       Mud Filtrate Sample Source: MEAS.                                
 MSS .                Mud Sample Source: FLOWLINE                             
 LCCN.             Logging Company Name: HALLIBURTON ENERGY SERVICES          
 LUL .              Equiptment Location: ODESSA                               
 LUN .              Logging Unit Number: 51941                                
 ENGI.          Logging Engineer's Name: MART RILEY                           
 WITN.                   Witness's Name: N. VAN LIEW                          
~Curve Information Block                                                      
#MNEM.UNIT                   API CODE    Curve Description                  
#---------                 ------------  -------------------------------------
 DEPT.F                    00 000 00 00:   1  Depth Curve                     
 C13 .INCH                 99 075 22 05:   2  CALIPER PADS 1 - 3    -FACT-
 C24 .INCH                 99 075 22 05:   3  CALIPER PADS 2 - 4    -FACT-
 DT  .US/F                 99 075 22 05:   4  SONIC TRANSIT TIME          
 ILD .OHMM                 99 075 22 05:   5  IL, DEEP RESISTIVITY        
 ILM .OHMM                 99 075 22 05:   6  IL, MEDIUM RESISTIVITY      
 SGRD.OHMM                 99 075 22 05:   7  SHORT GUARD RESISTIVITY     
 SP  .MV                   99 075 22 05:   8  SPONTANEOUS POTENTIAL       
 SPHI.DECP                 99 075 22 05:   9  SONIC POROSITY  -LIME-      
 GR  .GAPI                 99 075 22 05:  10  GAMMA RAY                   
 CALI.INCH                 99 075 22 05:  11  CALIPER                     
 DPHI.DECP                 99 075 22 05:  12  DENSITY POROSITY -LIME-     
 GR2 .GAPI                 99 075 22 05:  13  GAMMA RAY 2ND SERVICE       
 NPHI.DECP                 99 075 22 05:  14  NEUTRON POROSITY -LIME-     
 PE  .B/E                  99 075 22 05:  15  PHOTO-ELECTRIC FACTOR       
 RHOB.G/C3                 99 075 22 05:  16  BULK DENSITY                
 DRHO.G/C3                 99 075 22 05:  17  DENSITY CORRECTION          
~Parameter Information Block                                                  
#MNEM.UNIT            Value              Description                          
#--------- ----------------------------  -------------------------------------
 EDF .F                       2732.0000: Elevation, Derrick Floor    
 EGL .F                       2715.0000: Elevation, Ground Level     
 EKB .F                       2733.0000: Elevation, Kelly Bushing    
 EPD .F                       2715.0000: Elevation Perminent Datum   
 TDD .F                       8950.0000: Total Depth-Driller         
 TDL .F                       8946.0000: Total Depth-Logger          
 CBD .F                       3000.0000: Casing Bottom Driller 1     
 CBL .F                       2998.0000: Casing Bottom Logger 1      
 TLI .F                       2980.0000: Top Logged Interval         
 BLI .F                       8941.0000: Bottom Logged Interval      
 DFD .LB/G                       9.4000: Drilling Fluid Density      
 DFPH.----                      10.0000: Drilling Fluid Ph           
 DFL .C3                        11.2000: Drilling Fluid Loss         
 DFV .CP                        46.0000: Drilling Fluid Viscosity    
 RM  .CP                        46.0000: Mud Sample Resistivity      
 MST .DEGF                      74.0000: Mud Sample Temperature      
 RMF .DEGF                      74.0000: Mud Filtrate Resistivity    
 MFST.DEGF                      74.0000: Mud Filtrate Sample Temp    
 RMC .DEGF                      74.0000: Mud Cake Resistivity        
 MCST.DEGF                      74.0000: Mud Cake Sample Temperature 
 MRT .DEGF                     165.0000: Maximum Recorded Temperature
 BHT .DEGF                     165.0000: Bottom Hole Temperature     
~A   DEPT       C13        C24        DT         ILD        ILM        SGRD       SP         SPHI       GR         CALI       DPHI       GR2        NPHI       PE         RHOB       DRHO  
# ...
  6951.5000      8.745      8.524     57.766     14.873     18.963     81.012     97.937      0.072     60.291      8.729      0.001     57.462      0.070      3.469      2.709      0.068
  6952.0000      8.765      8.556     59.117     13.681     16.196     41.345     97.925      0.081     76.054      8.743      0.028     69.048      0.084      3.323      2.661      0.067
  6952.5000      8.800      8.616     61.344     12.598     13.877     23.444     97.613      0.097     90.537      8.868      0.051     78.547      0.114      3.216      2.623      0.068
  6953.0000      8.845      8.656     65.489     11.624     12.077     15.845     97.194      0.127    103.067      8.903      0.070     92.020      0.159      3.120      2.590      0.065
  6953.5000      8.894      8.680     72.278     10.854     10.891     12.654     97.106      0.175    105.560      8.917      0.081    100.777      0.195      3.033      2.571      0.063
  6954.0000      8.935      8.697     76.337     10.308      9.917     11.893     97.348      0.203    105.829      8.896      0.095    103.674      0.204      2.880      2.548      0.051
  6954.5000      8.949      8.704     76.764     10.060      9.816     12.236     97.560      0.206    102.394      8.903      0.101    103.539      0.213      2.894      2.538      0.047
  6955.0000      8.960      8.714     78.139     10.122     10.022     13.428     97.566      0.216     95.792      8.965      0.105    102.528      0.218      2.895      2.531      0.037
  6955.5000      8.963      8.726     78.170     10.436     10.363     14.915     97.336      0.216     94.108      8.979      0.101    100.844      0.213      2.907      2.537      0.042
  6956.0000      8.989      8.742     77.408     10.929     11.123     16.434     97.135      0.211     87.708      8.965      0.103     95.657      0.194      2.888      2.533      0.039
  6956.5000      9.017      8.754     76.325     11.480     11.575     16.992     97.082      0.203     87.035      8.993      0.097     93.636      0.185      2.862      2.544      0.042
  6957.0000      9.025      8.769     74.108     11.969     12.073     17.317     97.171      0.187     90.942      9.035      0.098     97.543      0.200      2.970      2.542      0.047
  6957.5000      9.025      8.785     74.006     12.314     12.538     17.852     97.300      0.187    101.383      9.049      0.109    112.700      0.217      2.970      2.524      0.044
  6958.0000      9.024      8.792     75.994     12.543     12.902     18.645     97.100      0.201    113.374      9.021      0.110    124.354      0.235      3.026      2.522      0.049
  6958.5000      9.025      8.785     77.156     12.696     13.097     18.477     96.576      0.209    119.437      9.014      0.113    132.910      0.246      3.090      2.517      0.042
  6959.0000      9.033      8.786     79.192     12.782     13.231     18.457     96.022      0.223    122.704      9.021      0.104    130.148      0.246      3.194      2.532      0.047
  6959.5000      9.051      8.818     80.419     12.788     13.337     18.304     95.368      0.232    114.553      9.069      0.102    119.571      0.237      3.171      2.535      0.045
  6960.0000      9.061      8.835     79.367     12.751     13.393     18.697     94.743      0.225    106.132      9.055      0.096    101.585      0.227      3.119      2.547      0.047
  6960.5000      9.073      8.846     77.066     12.714     13.391     19.144     94.313      0.208     93.333      9.062      0.089     84.071      0.203      3.118      2.558      0.049
  6961.0000      9.080      8.855     74.264     12.704     13.355     18.774     94.101      0.189     84.003      9.076      0.096     78.614      0.193      3.025      2.545      0.045
  6961.5000      9.080      8.857     73.400     12.755     13.304     18.403     94.090      0.182     84.744      9.083      0.098     83.330      0.187      2.969      2.543      0.048
  6962.0000      9.079      8.861     73.519     12.858     13.260     18.140     94.196      0.183     86.395      9.083      0.103     86.226      0.195      2.959      2.534      0.045
  6962.5000      9.077      8.863     73.662     12.950     13.282     17.757     94.266      0.184     91.110      9.097      0.102     91.009      0.200      3.009      2.535      0.045
  6963.0000      9.087      8.857     73.887     12.949     13.423     17.360     94.237      0.186     94.613      9.118      0.100     91.683      0.205      3.054      2.538      0.050
  6963.5000      9.095      8.846     73.752     12.775     13.598     17.363     94.066      0.185     96.162      9.104      0.101     89.190      0.205      2.998      2.538      0.049
  6964.0000      9.096      8.856     73.255     12.426     13.607     18.812     93.760      0.181     91.817      9.132      0.095     87.506      0.196      3.095      2.548      0.053
  6964.5000      9.094      8.867     73.823     12.015     13.233     19.248     93.418      0.185     94.849      9.125      0.093     93.097      0.192      3.111      2.551      0.056
  6965.0000      9.101      8.880     74.619     11.634     12.515     19.308     93.229      0.191     97.543      9.111      0.085    102.057      0.201      3.121      2.564      0.061
  6965.5000      9.110      8.873     73.903     11.312     11.725     17.566     93.082      0.186     98.150      9.090      0.089    108.120      0.218      3.062      2.558      0.056
  6966.0000      9.122      8.894     74.758     11.066     11.067     15.363     92.782      0.192    106.099      9.083      0.096    114.654      0.234      3.052      2.546      0.050
  6966.5000      9.147      8.922     77.008     10.910     10.300     14.112     92.434      0.208    108.120      9.097      0.098    114.721      0.235      3.015      2.543      0.047
  6967.0000      9.172      8.958     77.006     10.849     10.207     13.202     92.228      0.208    105.627      9.090      0.098    106.974      0.240      2.982      2.543      0.053
  6967.5000      9.189      8.969     75.933     10.914     10.391     13.218     92.228      0.200    104.684      9.111      0.099    108.052      0.241      3.012      2.542      0.055
  6968.0000      9.114      8.890     75.670     11.086     11.154     14.231     92.245      0.199    103.808      9.125      0.100    108.995      0.236      3.031      2.539      0.052
  6968.5000      9.048      8.809     75.566     11.302     11.675     15.719     92.340      0.198    106.974      9.104      0.094    111.555      0.228      3.151      2.550      0.060
  6969.0000      8.993      8.782     75.756     11.502     12.233     17.442     92.369      0.199    104.010      9.097      0.094    109.736      0.223      3.188      2.548      0.061
  6969.5000      8.976      8.760     75.008     11.614     12.613     19.285     92.328      0.194     99.295      9.042      0.089     97.409      0.218      3.370      2.557      0.055
  6970.0000      8.970      8.751     71.948     11.615     12.632     21.764     92.293      0.172     89.594      9.021      0.080     92.289      0.205      3.421      2.573      0.058
  6970.5000      8.969      8.758     72.470     11.599     12.238     21.317     92.310      0.176     83.397      9.021      0.077     86.024      0.182      3.347      2.578      0.061
  6971.0000      8.970      8.751     71.825     11.603     11.664     20.132     92.458      0.171     78.883      9.083      0.083     84.677      0.182      3.225      2.568      0.052
  6971.5000      8.971      8.751     67.967     11.598     11.246     17.076     92.770      0.144     83.127      9.125      0.083     93.434      0.196      3.178      2.568      0.050
  6972.0000      8.973      8.743     70.494     11.563     11.112     15.001     93.159      0.162     91.346      9.118      0.097     95.186      0.207      3.084      2.544      0.044
  6972.5000      8.965      8.732     74.230     11.475     11.256     14.994     93.471      0.188    102.933      9.083      0.098    102.798      0.216      2.992      2.543      0.044
