~Version Information                                                          
 VERS.                             1.20: CWLS log ASCII Standard -VERSION 1.20
 WRAP.                               NO: One line per depth step              
~Well Information Block                                                       
#MNEM.UNIT           Data Type           Information                          
#--------- ----------------------------  -------------------------------------
 STRT.F                         92.0000:                                      
 STOP.F                       9060.0000:                                      
 STEP.F                          0.5000:                                      
 NULL.                        -999.2500:                                      
 COMP.                     Company Name: ENRON OIL & GAS                      
 WELL.                        Well Name: UNIVERSITY 6-18W NO.1                
 FLD .                       Field Name: WILDCAT                              
 LOC .                         Location: SECTION 18, BLOCK 6                  
 SLOC.                 SURFACE Location: 1216' FNL & 505' FWL                 
 SECT.                          Section: 18                                   
 TOWN.                         Township:                                      
 RANG.                            Range:                                      
 COUN.                           County: REAGAN                               
 STAT.                            State: TX                                   
 CTRY.                          Country: USA                                  
 SRVC.                  Service Company: HALLIBURTON ENERGY SERVICES          
 DATE.                 DATE as MM/DD/YY: 08/17/97                             
 APIN.                  API Well Number: 42-383-34800                         
 UWI .                   UNIQUE WELL ID: 42383348000000                       
 PD  .                  Permanent Datum: G.L.                                 
 RUN .                       Run Number: 1&2                                  
 DMF .           Drilling Measured From: KELLY BUSHING                        
 LMF .            Logging Measured From: K.B.                                 
 TCS .         Time Circulation Stopped: 0100                                 
 TLAB.            Time Logger at Bottom: 0830                                 
 DFT .              Drilling Fluid Type: FW-PAC-STARCH                        
 MCSS.           Mud Cake Sample Source: N/A                                  
 MFSS.       Mud Filtrate Sample Source: MEAS                                 
 MSS .                Mud Sample Source: MUD PIT                              
 LCCN.             Logging Company Name: HALLIBURTON ENERGY SERVICES          
 LUL .              Equiptment Location: ODTX                                 
 LUN .              Logging Unit Number: 52525                                
 ENGI.          Logging Engineer's Name: LAUFER                               
 WITN.                   Witness's Name: N. VAN LIEW                          
~Curve Information Block                                                      
#MNEM.UNIT                   API CODE    Curve Description                  
#---------                 ------------  -------------------------------------
 DEPT.F                    00 000 00 00:   1  Depth Curve                     
 GR2 .GAPI                 00 000 00 00:   2  GAMMA RAY -DENSITY-NEUTRON- 
 NPHI.DECP                 00 000 00 00:   3  NEUTRON POROSITY -LIME-     
 DPHI.DECP                 00 000 00 00:   4  DENSITY POROSITY -LIME-     
 RHOB.G/C3                 00 000 00 00:   5  BULK DENSITY                
 DRHO.G/C3                 00 000 00 00:   6  DENSITY CORRECTION          
 PE  .B/E                  00 000 00 00:   7  PHOTO-ELECTRIC FACTOR       
 CALI.IN                   00 000 00 00:   8  CALIPER -DENSITY-           
 PHIX.DECP                 00 000 00 00:   9  CROSSPLOT POROSITY          
 LLS .OHMM                 00 000 00 00:  10  LATERO-LOG, SHALLOW RESIS.  
 LLD .OHMM                 00 000 00 00:  11  LATERO-LOG, DEEP RESISTIVITY
 CLLD.MMHO                 00 000 00 00:  12  LATERO-LOG, DEEP CONDUCTIVTY
 MGRD.OHMM                 00 000 00 00:  13  MICRO-SFL   RESISTIVITY     
 CAL2.IN                   00 000 00 00:  14  CALIPER -MICRO-SFL-         
 GR  .GAPI                 00 000 00 00:  15  GAMMA RAY -SONIC-           
 C13 .IN                   00 000 00 00:  16  CALIPER PADS 1 - 3    -FACT-
 C24 .IN                   00 000 00 00:  17  CALIPER PADS 2 - 4    -FACT-
 DT  .US/F                 00 000 00 00:  18  SONIC TRANSIT TIME          
 SPHI.DECP                 00 000 00 00:  19  SONIC POROSITY  -LIME-      
~Parameter Information Block                                                  
#MNEM.UNIT            Value              Description                          
#--------- ----------------------------  -------------------------------------
 EDF .F                       2695.0000: Elevation, Derrick Floor    
 EGL .F                       2678.0000: Elevation, Ground Level     
 EKB .F                       2696.0000: Elevation, Kelly Bushing    
 EPD .F                       2678.0000: Elevation Perminent Datum   
 TDD .F                       9050.0000: Total Depth-Driller         
 TDL .F                       9044.0000: Total Depth-Logger          
 CBD .F                       3050.0000: Casing Bottom Driller 1     
 CBL .F                       3044.0000: Casing Bottom Logger 1      
 TLI .F                       2900.0000: Top Logged Interval         
 BLI .F                       9037.0000: Bottom Logged Interval      
 DFD .LB/G                       9.1000: Drilling Fluid Density      
 DFPH.----                      10.5000: Drilling Fluid Ph           
 DFL .C3                         5.6000: Drilling Fluid Loss         
 DFV .CP                        52.0000: Drilling Fluid Viscosity    
 RM  .CP                        52.0000: Mud Sample Resistivity      
 MST .DEGF                      69.0000: Mud Sample Temperature      
 RMF .DEGF                      69.0000: Mud Filtrate Resistivity    
 MFST.DEGF                      69.0000: Mud Filtrate Sample Temp    
 RMC .DEGF                      69.0000: Mud Cake Resistivity        
 MCST.DEGF                      69.0000: Mud Cake Sample Temperature 
 MRT .DEGF                     150.0000: Maximum Recorded Temperature
 BHT .DEGF                     111.0000: Bottom Hole Temperature     
~A   DEPT       GR2        NPHI       DPHI       RHOB       DRHO       PE         CALI       PHIX       LLS        LLD        CLLD       MGRD       CAL2       GR         C13        C24        DT         SPHI  
# ...
  4616.0000     68.013      0.242      0.134      2.495      0.056      2.722      9.277      0.197      3.851      4.682    213.581      5.219      8.832     71.853      9.286      9.182     74.158      0.186
  4616.5000     66.453      0.241      0.136      2.491      0.059      2.776      9.277      0.198      3.835      4.649    215.099      5.345      8.803     69.223      9.280      9.178     74.155      0.188
  4617.0000     63.717      0.240      0.137      2.489      0.061      2.807      9.277      0.198      3.891      4.703    212.632      5.583      8.778     67.487      9.276      9.180     74.348      0.190
  4617.5000     62.578      0.227      0.140      2.484      0.055      2.767      9.261      0.192      3.989      4.814    207.713      5.903      8.766     65.401      9.258      9.177     74.548      0.191
  4618.0000     63.542      0.228      0.141      2.482      0.051      2.782      9.218      0.193      4.109      4.973    201.104      6.206      8.756     65.032      9.233      9.152     74.945      0.192
  4618.5000     61.701      0.218      0.143      2.479      0.048      2.787      9.193      0.189      4.163      5.069    197.288      7.043      8.743     67.645      9.208      9.120     74.877      0.191
  4619.0000     61.806      0.218      0.138      2.487      0.049      2.764      9.202      0.186      4.224      5.162    193.721      7.824      8.726     70.415      9.184      9.094     74.330      0.190
  4619.5000     67.487      0.217      0.142      2.481      0.044      2.732      9.160      0.188      4.373      5.363    186.465      7.735      8.710     72.169      9.165      9.078     73.889      0.188
  4620.0000     71.415      0.222      0.137      2.489      0.043      2.784      9.092      0.188      4.609      5.605    178.410      6.993      8.685     70.766      9.145      9.044     74.111      0.187
  4620.5000     73.729      0.225      0.130      2.501      0.046      2.858      9.042      0.187      4.927      5.968    167.547      6.491      8.654     71.117      9.119      9.005     74.064      0.186
  4621.0000     74.483      0.226      0.123      2.512      0.046      2.887      9.016      0.184      5.283      6.431    155.507      6.431      8.613     70.591      9.100      8.971     73.783      0.183
  4621.5000     72.449      0.223      0.115      2.525      0.041      3.012      9.016      0.180      5.918      7.075    141.350      6.933      8.570     68.539      9.077      8.939     72.811      0.179
  4622.0000     65.892      0.216      0.101      2.548      0.037      3.225      9.000      0.171      6.998      8.156    122.616      6.978      8.535     64.804      9.056      8.903     71.984      0.172
  4622.5000     59.474      0.199      0.092      2.562      0.030      3.479      8.974      0.158      8.350      9.517    105.076      7.038      8.515     60.211      9.014      8.853     71.045      0.159
  4623.0000     60.561      0.175      0.079      2.584      0.033      3.603      8.890      0.140      9.554     10.847     92.191      9.538      8.513     54.284      8.947      8.791     68.400      0.142
  4623.5000     60.456      0.165      0.070      2.597      0.034      3.554      8.865      0.132     10.060     11.488     87.046     14.438      8.511     53.671      8.890      8.742     64.347      0.128
  4624.0000     65.155      0.174      0.071      2.595      0.040      3.529      8.756      0.137      9.600     10.939     91.419     17.858      8.510     57.914      8.878      8.735     62.841      0.122
  4624.5000     71.923      0.192      0.085      2.573      0.037      3.209      8.781      0.152      8.604      9.829    101.740     16.794      8.504     63.472      8.878      8.741     64.794      0.127
  4625.0000     76.254      0.204      0.100      2.548      0.045      2.936      8.730      0.164      7.514      8.563    116.780     13.295      8.491     68.925      8.879      8.746     67.959      0.140
  4625.5000     77.850      0.204      0.119      2.518      0.042      2.723      8.798      0.171      6.693      7.690    130.034     10.500      8.482     70.976      8.877      8.735     70.036      0.154
  4626.0000     79.112      0.202      0.131      2.500      0.039      2.671      8.772      0.175      6.419      7.392    135.276      9.499      8.473     71.853      8.871      8.733     70.928      0.164
  4626.5000     81.532      0.205      0.139      2.487      0.039      2.706      8.772      0.180      6.702      7.650    130.721      8.229      8.455     71.923      8.862      8.731     71.611      0.170
  4627.0000     83.986      0.225      0.138      2.488      0.038      2.809      8.772      0.190      7.626      8.542    117.062      7.077      8.435     74.203      8.858      8.718     72.531      0.176
  4627.5000     86.424      0.244      0.135      2.493      0.039      2.917      8.781      0.199      8.851      9.796    102.081      7.448      8.426     76.517      8.853      8.694     73.286      0.178
  4628.0000     89.930      0.245      0.131      2.499      0.040      2.963      8.781      0.198      9.742     10.714     93.332      9.831      8.426     81.514      8.846      8.684     73.347      0.181
  4628.5000     89.457      0.237      0.125      2.508      0.041      2.968      8.747      0.191     10.085     11.007     90.852     11.240      8.421     82.636      8.857      8.681     72.991      0.188
  4629.0000     85.442      0.242      0.119      2.518      0.043      2.918      8.714      0.191      9.616     10.367     96.459     11.587      8.405     82.478      8.870      8.677     74.961      0.189
  4629.5000     83.057      0.239      0.119      2.518      0.047      2.816      8.739      0.190      8.808      9.423    106.124     11.650      8.375     80.357      8.871      8.675     75.848      0.189
  4630.0000     79.059      0.223      0.122      2.513      0.050      2.771      8.705      0.183      8.069      8.613    116.099     10.955      8.353     76.675      8.841      8.679     73.808      0.186
  4630.5000     77.516      0.207      0.127      2.505      0.053      2.729      8.697      0.176      7.586      8.160    122.550      9.696      8.344     72.905      8.827      8.677     72.188      0.179
  4631.0000     79.112      0.194      0.134      2.495      0.053      2.776      8.680      0.172      7.811      8.333    120.009      8.466      8.342     72.642      8.825      8.660     71.722      0.172
  4631.5000     85.301      0.203      0.133      2.496      0.058      2.829      8.680      0.176      8.647      9.140    109.409      8.169      8.343     79.410      8.834      8.640     71.597      0.172
  4632.0000     91.508      0.230      0.129      2.503      0.063      2.882      8.688      0.189      9.786     10.194     98.094      8.212      8.343     87.668      8.838      8.644     71.973      0.178
  4632.5000     97.908      0.255      0.129      2.503      0.060      2.893      8.671      0.202     10.690     11.212     89.187      9.670      8.343     90.877      8.845      8.660     73.753      0.186
  4633.0000    100.328      0.273      0.127      2.506      0.060      2.972      8.604      0.210     11.006     11.581     86.349     11.740      8.338     95.103      8.845      8.671     75.887      0.194
  4633.5000     99.434      0.261      0.125      2.509      0.060      2.926      8.570      0.203     10.744     11.334     88.229     12.906      8.329     94.279      8.845      8.670     76.317      0.197
  4634.0000     95.523      0.233      0.122      2.514      0.065      2.911      8.629      0.188     10.220     10.801     92.584     12.353      8.320     88.159      8.843      8.657     75.297      0.192
  4634.5000     88.194      0.211      0.128      2.504      0.060      2.858      8.621      0.179      9.841     10.414     96.023     11.474      8.319     86.266      8.832      8.645     73.105      0.185
  4635.0000     84.249      0.205      0.123      2.511      0.065      2.948      8.613      0.174      9.706     10.242     97.640     10.831      8.320     82.478      8.825      8.640     72.212      0.182
