~Version Information                                                          
 VERS.                             1.20: CWLS log ASCII Standard -VERSION 1.20
 WRAP.                               NO: One line per depth step              
~Well Information Block                                                       
#MNEM.UNIT           Data Type           Information                          
#--------- ----------------------------  -------------------------------------
 STRT.F                         92.0000:                                      
 STOP.F                       9060.0000:                                      
 STEP.F                          0.5000:                                      
 NULL.                        -999.2500:                                      
 COMP.                     Company Name: ENRON OIL & GAS                      
 WELL.                        Well Name: UNIVERSITY 6-18W NO.1                
 FLD .                       Field Name: WILDCAT                              
 LOC .                         Location: SECTION 18, BLOCK 6                  
 SLOC.                 SURFACE Location: 1216' FNL & 505' FWL                 
 SECT.                          Section: 18                                   
 TOWN.                         Township:                                      
 RANG.                            Range:                                      
 COUN.                           County: REAGAN                               
 STAT.                            State: TX                                   
 CTRY.                          Country: USA                                  
 SRVC.                  Service Company: HALLIBURTON ENERGY SERVICES          
 DATE.                 DATE as MM/DD/YY: 08/17/97                             
 APIN.                  API Well Number: 42-383-34800                         
 UWI .                   UNIQUE WELL ID: 42383348000000                       
 PD  .                  Permanent Datum: G.L.                                 
 RUN .                       Run Number: 1&2                                  
 DMF .           Drilling Measured From: KELLY BUSHING                        
 LMF .            Logging Measured From: K.B.                                 
 TCS .         Time Circulation Stopped: 0100                                 
 TLAB.            Time Logger at Bottom: 0830                                 
 DFT .              Drilling Fluid Type: FW-PAC-STARCH                        
 MCSS.           Mud Cake Sample Source: N/A                                  
 MFSS.       Mud Filtrate Sample Source: MEAS                                 
 MSS .                Mud Sample Source: MUD PIT                              
 LCCN.             Logging Company Name: HALLIBURTON ENERGY SERVICES          
 LUL .              Equiptment Location: ODTX                                 
 LUN .              Logging Unit Number: 52525                                
 ENGI.          Logging Engineer's Name: LAUFER                               
 WITN.                   Witness's Name: N. VAN LIEW                          
~Curve Information Block                                                      
#MNEM.UNIT                   API CODE    Curve Description                  
#---------                 ------------  -------------------------------------
 DEPT.F                    00 000 00 00:   1  Depth Curve                     
 GR2 .GAPI                 00 000 00 00:   2  GAMMA RAY -DENSITY-NEUTRON- 
 NPHI.DECP                 00 000 00 00:   3  NEUTRON POROSITY -LIME-     
 DPHI.DECP                 00 000 00 00:   4  DENSITY POROSITY -LIME-     
 RHOB.G/C3                 00 000 00 00:   5  BULK DENSITY                
 DRHO.G/C3                 00 000 00 00:   6  DENSITY CORRECTION          
 PE  .B/E                  00 000 00 00:   7  PHOTO-ELECTRIC FACTOR       
 CALI.IN                   00 000 00 00:   8  CALIPER -DENSITY-           
 PHIX.DECP                 00 000 00 00:   9  CROSSPLOT POROSITY          
 LLS .OHMM                 00 000 00 00:  10  LATERO-LOG, SHALLOW RESIS.  
 LLD .OHMM                 00 000 00 00:  11  LATERO-LOG, DEEP RESISTIVITY
 CLLD.MMHO                 00 000 00 00:  12  LATERO-LOG, DEEP CONDUCTIVTY
 MGRD.OHMM                 00 000 00 00:  13  MICRO-SFL   RESISTIVITY     
 CAL2.IN                   00 000 00 00:  14  CALIPER -MICRO-SFL-         
 GR  .GAPI                 00 000 00 00:  15  GAMMA RAY -SONIC-           
 C13 .IN                   00 000 00 00:  16  CALIPER PADS 1 - 3    -FACT-
 C24 .IN                   00 000 00 00:  17  CALIPER PADS 2 - 4    -FACT-
 DT  .US/F                 00 000 00 00:  18  SONIC TRANSIT TIME          
 SPHI.DECP                 00 000 00 00:  19  SONIC POROSITY  -LIME-      
~Parameter Information Block                                                  
#MNEM.UNIT            Value              Description                          
#--------- ----------------------------  -------------------------------------
 EDF .F                       2695.0000: Elevation, Derrick Floor    
 EGL .F                       2678.0000: Elevation, Ground Level     
 EKB .F                       2696.0000: Elevation, Kelly Bushing    
 EPD .F                       2678.0000: Elevation Perminent Datum   
 TDD .F                       9050.0000: Total Depth-Driller         
 TDL .F                       9044.0000: Total Depth-Logger          
 CBD .F                       3050.0000: Casing Bottom Driller 1     
 CBL .F                       3044.0000: Casing Bottom Logger 1      
 TLI .F                       2900.0000: Top Logged Interval         
 BLI .F                       9037.0000: Bottom Logged Interval      
 DFD .LB/G                       9.1000: Drilling Fluid Density      
 DFPH.----                      10.5000: Drilling Fluid Ph           
 DFL .C3                         5.6000: Drilling Fluid Loss         
 DFV .CP                        52.0000: Drilling Fluid Viscosity    
 RM  .CP                        52.0000: Mud Sample Resistivity      
 MST .DEGF                      69.0000: Mud Sample Temperature      
 RMF .DEGF                      69.0000: Mud Filtrate Resistivity    
 MFST.DEGF                      69.0000: Mud Filtrate Sample Temp    
 RMC .DEGF                      69.0000: Mud Cake Resistivity        
 MCST.DEGF                      69.0000: Mud Cake Sample Temperature 
 MRT .DEGF                     150.0000: Maximum Recorded Temperature
 BHT .DEGF                     111.0000: Bottom Hole Temperature     
~A   DEPT       GR2        NPHI       DPHI       RHOB       DRHO       PE         CALI       PHIX       LLS        LLD        CLLD       MGRD       CAL2       GR         C13        C24        DT         SPHI  
# ...
  9042.5000     93.167      0.042     -0.001      2.712      0.012      5.197      6.753      0.033   2015.593   2035.238      0.491    643.048      7.554     22.724      8.321      8.123     50.050      0.044
  9043.0000     93.167      0.042     -0.001      2.712      0.012      5.197      6.753      0.033   2012.521   2045.570      0.489    386.011      7.536     22.724      8.321      8.123     49.300      0.017
  9043.5000     93.167      0.042     -0.001      2.711      0.012      5.197      6.753      0.033   2011.849   2056.178      0.486    268.543      7.407     22.724      8.321      8.123     49.300      0.012
  9044.0000     93.167      0.045      0.001      2.708      0.012      5.197      6.753      0.036   2011.849   2056.178      0.486    250.614      6.947     22.724      8.321      8.123     49.300      0.012
  9044.5000     93.167      0.048      0.004      2.704      0.012      5.197      6.753      0.038   2011.849   2056.178      0.486    247.235      6.413     22.724      8.321      8.123     49.319      0.012
  9045.0000     93.167      0.050      0.005      2.702      0.012      5.197      6.753      0.040   2011.849   2056.178      0.486    304.117      6.139     22.724      8.321      8.123     49.352      0.012
  9045.5000     93.167      0.050      0.005      2.702      0.012      5.197      6.753      0.040   2011.849   2056.178      0.486     45.906      6.124     22.724      8.321      8.123     49.330      0.084
  9046.0000     93.167      0.050      0.005      2.702      0.012      5.197      6.753      0.040   2011.849   2056.178      0.486     12.954      6.124     22.724      8.321      8.123     64.108      0.101
  9046.5000     93.167      0.050      0.005      2.702      0.012      5.197      6.753      0.040   2011.849   2056.178      0.486      4.466      6.124     22.724      8.321      8.123     81.780      0.101
  9047.0000     93.167      0.050      0.005      2.702      0.012      5.197      6.753      0.040   2011.849   2056.178      0.486      3.852      6.124     22.724      8.321      8.123     55.192      0.101
  9047.5000     93.167      0.050      0.005      2.702      0.012      5.197      6.753      0.040   2011.849   2056.178      0.486      3.820      6.124     22.724      8.321      8.123     49.300      0.048
  9048.0000     93.167      0.050      0.005      2.702      0.012      5.197      6.753      0.040   2011.849   2056.178      0.486      3.805      6.123     22.724      8.321      8.123     49.302      0.012
  9048.5000     93.167      0.050      0.005      2.702      0.012      5.197      6.753      0.040   2011.849   2056.178      0.486      3.800      6.123     22.724      8.321      8.123     49.328      0.012
  9049.0000     93.167      0.050      0.005      2.702      0.012      5.197      6.753      0.040   2011.849   2056.178      0.486      3.799      6.123     22.724      8.321      8.123     49.319      0.012
  9049.5000     93.167      0.050      0.005      2.702      0.012      5.197      6.753      0.040   2011.849   2056.178      0.486      3.800      6.124     22.724      8.321      8.123     49.206      0.012
  9050.0000     93.167      0.050      0.005      2.702      0.012      5.197      6.753      0.040   2011.849   2056.178      0.486      3.801      6.124     22.724      8.321      8.123     49.206      0.012
  9050.5000     93.167      0.050      0.005      2.702      0.012      5.197      6.753      0.040   2011.849   2056.178      0.486      3.800      6.124     22.724      8.321      8.123     49.300      0.012
  9051.0000     93.167      0.050      0.005      2.702      0.012      5.197      6.753      0.040   2011.849   2056.178      0.486      3.798      6.124     22.724      8.321      8.123     49.300      0.012
  9051.5000     93.167      0.050      0.005      2.702      0.012      5.197      6.753      0.040   2011.849   2056.178      0.486      3.797      6.124     22.724      8.321      8.123     49.300      0.012
  9052.0000     93.167      0.050      0.005      2.702      0.012      5.197      6.753      0.040   2011.849   2056.178      0.486      3.796      6.124     22.724      8.321      8.123     49.184      0.011
  9052.5000     93.167      0.050      0.005      2.702      0.012      5.197      6.753      0.040   2011.849   2056.178      0.486      3.796      6.124     22.724      8.321      8.123     48.998      0.010
  9053.0000     93.167      0.050      0.005      2.702      0.012      5.197      6.753      0.040   2011.849   2056.178      0.486      3.796      6.124     22.724      8.321      8.123     48.923      0.010
  9053.5000     93.167      0.050      0.005      2.702      0.012      5.197      6.753      0.040   2011.849   2056.178      0.486      3.795      6.124     22.724      8.321      8.123     48.900      0.009
  9054.0000     93.167      0.050      0.005      2.702      0.012      5.197      6.753      0.040   2011.849   2056.178      0.486      3.795      6.124     22.724      8.321      8.123     48.900      0.009
  9054.5000     93.167      0.050      0.005      2.702      0.012      5.197      6.753      0.040   2011.849   2056.178      0.486      3.793      6.124     22.724      8.321      8.123     48.900      0.009
  9055.0000     93.167      0.050      0.005      2.702      0.012      5.197      6.753      0.040   2011.849   2056.178      0.486      3.792      6.124     22.724      8.321      8.123     48.900      0.009
  9055.5000     93.167      0.050      0.005      2.702      0.012      5.197      6.753      0.040   2011.849   2056.178      0.486      3.791      6.124     22.724      8.321      8.123     48.900      0.009
  9056.0000     93.167      0.050      0.005      2.702      0.012      5.197      6.753      0.040   2011.849   2056.178      0.486      3.789      6.123     22.724      8.321      8.123     48.900      0.009
  9056.5000     93.167      0.050      0.005      2.702      0.012      5.197      6.753      0.040   2011.849   2056.178      0.486      3.788      6.123     22.724      8.321      8.123     48.900      0.009
  9057.0000     93.167      0.050      0.005      2.702      0.012      5.197      6.753      0.040   2011.849   2056.178      0.486      3.788      6.123     22.724      8.321      8.123     48.900      0.009
  9057.5000     93.167      0.050      0.005      2.702      0.012      5.197      6.753      0.040   2011.849   2056.178      0.486      3.786      6.123     22.724      8.321      8.123     48.900      0.009
  9058.0000     93.167      0.050      0.005      2.702      0.012      5.197      6.753      0.040   2011.849   2056.178      0.486      3.785      6.124     22.724      8.321      8.123     48.900      0.009
  9058.5000     93.167      0.050      0.005      2.702      0.012      5.197      6.753      0.040   2011.849   2056.178      0.486      3.782      6.124     22.724      8.321      8.123     48.900      0.009
  9059.0000     93.167      0.050      0.005      2.702      0.012      5.197      6.753      0.040   2011.849   2056.178      0.486      3.766      6.124     22.724      8.321      8.123     48.900      0.009
  9059.5000     93.167      0.050      0.005      2.702      0.012      5.197      6.753      0.040   2011.849   2056.178      0.486      3.750      6.124     22.724      8.321      8.123     48.900      0.009
  9060.0000     93.167      0.050      0.005      2.702      0.012      5.197      6.753      0.040   2011.849   2056.178      0.486      3.741      6.124     22.724      8.321      8.123     48.900      0.009
