~Version Information                                                          
 VERS.                             1.20: CWLS log ASCII Standard -VERSION 1.20
 WRAP.                               NO: One line per depth step              
~Well Information Block                                                       
#MNEM.UNIT           Data Type           Information                          
#--------- ----------------------------  -------------------------------------
 STRT.F                         93.0000:                                      
 STOP.F                       8960.0000:                                      
 STEP.F                          0.5000:                                      
 NULL.                        -999.2500:                                      
 COMP.                     Company Name: ENRON OIL & GAS COMPANY              
 WELL.                        Well Name: UNIVERSITY 6-7 NO.1                  
 FLD .                       Field Name: GRIERSON                             
 LOC .                         Location: SECTION 7,BLOCK6                     
 SLOC.                 SURFACE Location: 874 FEL X 2193 FSL                   
 SECT.                          Section:                                      
 TOWN.                         Township:                                      
 RANG.                            Range:                                      
 COUN.                           County: REAGAN                               
 STAT.                            State: TEXAS                                
 CTRY.                          Country: USA                                  
 SRVC.                  Service Company: HALLIBURTON ENERGY SERVICES          
 DATE.                 DATE as MM/DD/YY: 04/29/97                             
 APIN.                  API Well Number: 42-383-34746                         
 UWI .                   UNIQUE WELL ID: 42383347460000                       
 PD  .                  Permanent Datum: G.L.                                 
 RUN .                       Run Number: ONE                                  
 DMF .           Drilling Measured From: KELLY BUSHING                        
 LMF .            Logging Measured From: K.B.                                 
 TCS .         Time Circulation Stopped:                                      
 TLAB.            Time Logger at Bottom:                                      
 DFT .              Drilling Fluid Type: FRESH GEL                            
 MCSS.           Mud Cake Sample Source: MEAS.                                
 MFSS.       Mud Filtrate Sample Source: MEAS.                                
 MSS .                Mud Sample Source: FLOWLINE                             
 LCCN.             Logging Company Name: HALLIBURTON ENERGY SERVICES          
 LUL .              Equiptment Location: ODESSA                               
 LUN .              Logging Unit Number: 51941                                
 ENGI.          Logging Engineer's Name: MART RILEY                           
 WITN.                   Witness's Name: N. VAN LIEW                          
~Curve Information Block                                                      
#MNEM.UNIT                   API CODE    Curve Description                  
#---------                 ------------  -------------------------------------
 DEPT.F                    00 000 00 00:   1  Depth Curve                     
 C13 .INCH                 99 075 22 05:   2  CALIPER PADS 1 - 3    -FACT-
 C24 .INCH                 99 075 22 05:   3  CALIPER PADS 2 - 4    -FACT-
 DT  .US/F                 99 075 22 05:   4  SONIC TRANSIT TIME          
 ILD .OHMM                 99 075 22 05:   5  IL, DEEP RESISTIVITY        
 ILM .OHMM                 99 075 22 05:   6  IL, MEDIUM RESISTIVITY      
 SGRD.OHMM                 99 075 22 05:   7  SHORT GUARD RESISTIVITY     
 SP  .MV                   99 075 22 05:   8  SPONTANEOUS POTENTIAL       
 SPHI.DECP                 99 075 22 05:   9  SONIC POROSITY  -LIME-      
 GR  .GAPI                 99 075 22 05:  10  GAMMA RAY                   
 CALI.INCH                 99 075 22 05:  11  CALIPER                     
 DPHI.DECP                 99 075 22 05:  12  DENSITY POROSITY -LIME-     
 GR2 .GAPI                 99 075 22 05:  13  GAMMA RAY 2ND SERVICE       
 NPHI.DECP                 99 075 22 05:  14  NEUTRON POROSITY -LIME-     
 PE  .B/E                  99 075 22 05:  15  PHOTO-ELECTRIC FACTOR       
 RHOB.G/C3                 99 075 22 05:  16  BULK DENSITY                
 DRHO.G/C3                 99 075 22 05:  17  DENSITY CORRECTION          
~Parameter Information Block                                                  
#MNEM.UNIT            Value              Description                          
#--------- ----------------------------  -------------------------------------
 EDF .F                       2732.0000: Elevation, Derrick Floor    
 EGL .F                       2715.0000: Elevation, Ground Level     
 EKB .F                       2733.0000: Elevation, Kelly Bushing    
 EPD .F                       2715.0000: Elevation Perminent Datum   
 TDD .F                       8950.0000: Total Depth-Driller         
 TDL .F                       8946.0000: Total Depth-Logger          
 CBD .F                       3000.0000: Casing Bottom Driller 1     
 CBL .F                       2998.0000: Casing Bottom Logger 1      
 TLI .F                       2980.0000: Top Logged Interval         
 BLI .F                       8941.0000: Bottom Logged Interval      
 DFD .LB/G                       9.4000: Drilling Fluid Density      
 DFPH.----                      10.0000: Drilling Fluid Ph           
 DFL .C3                        11.2000: Drilling Fluid Loss         
 DFV .CP                        46.0000: Drilling Fluid Viscosity    
 RM  .CP                        46.0000: Mud Sample Resistivity      
 MST .DEGF                      74.0000: Mud Sample Temperature      
 RMF .DEGF                      74.0000: Mud Filtrate Resistivity    
 MFST.DEGF                      74.0000: Mud Filtrate Sample Temp    
 RMC .DEGF                      74.0000: Mud Cake Resistivity        
 MCST.DEGF                      74.0000: Mud Cake Sample Temperature 
 MRT .DEGF                     165.0000: Maximum Recorded Temperature
 BHT .DEGF                     165.0000: Bottom Hole Temperature     
~A   DEPT       C13        C24        DT         ILD        ILM        SGRD       SP         SPHI       GR         CALI       DPHI       GR2        NPHI       PE         RHOB       DRHO  
# ...
  4156.5000      9.732      9.642     73.673      7.667      7.074      8.670     99.133      0.184     75.919      9.244      0.128     80.366      0.225      2.771      2.492      0.034
  4157.0000      9.726      9.644     74.270      7.856      7.296      9.095    100.293      0.189     83.262      9.272      0.123     84.542      0.230      2.837      2.499      0.039
  4157.5000      9.729      9.651     74.967      8.093      7.567      9.602    101.342      0.194     89.392      9.286      0.116     89.729      0.241      2.875      2.511      0.043
  4158.0000      9.718      9.656     75.586      8.349      7.862     10.043    102.002      0.198     92.289      9.292      0.108     93.097      0.249      2.960      2.525      0.051
  4158.5000      9.698      9.654     76.789      8.573      8.147     10.417    102.397      0.206     96.129      9.244      0.103     89.258      0.251      3.047      2.534      0.052
  4159.0000      9.693      9.653     77.672      8.718      8.355     10.821    102.562      0.213     96.937      9.251      0.105     92.020      0.253      2.995      2.530      0.049
  4159.5000      9.693      9.657     77.673      8.752      8.434     11.148    102.768      0.213     95.186      9.299      0.109     91.615      0.266      2.942      2.523      0.045
  4160.0000      9.680      9.646     77.509      8.686      8.384     11.245    103.110      0.212     92.693      9.286      0.110     88.786      0.260      2.929      2.521      0.042
  4160.5000      9.652      9.636     77.706      8.552      8.228     10.982    103.292      0.213     92.289      9.279      0.115     94.040      0.261      2.954      2.514      0.036
  4161.0000      9.641      9.643     78.087      8.388      7.996     10.477    103.174      0.216     90.672      9.279      0.111     92.828      0.263      2.928      2.520      0.035
  4161.5000      9.650      9.648     78.328      8.211      7.742     10.038    102.774      0.217     86.496      9.279      0.108     85.889      0.259      2.933      2.526      0.036
  4162.0000      9.651      9.648     78.234      8.046      7.510      9.361    102.008      0.217     79.759      9.292      0.100     82.858      0.258      2.947      2.539      0.043
  4162.5000      9.646      9.646     77.958      7.891      7.345      8.865    101.154      0.215     76.122      9.299      0.107     79.355      0.247      2.886      2.527      0.039
  4163.0000      9.653      9.644     76.898      7.756      7.253      8.586    100.370      0.207     72.686      9.334      0.103     74.707      0.238      2.879      2.534      0.048
  4163.5000      9.653      9.639     75.855      7.659      7.192      8.499     99.751      0.200     71.810      9.362      0.109     76.122      0.222      2.867      2.523      0.047
  4164.0000      9.641      9.638     74.922      7.624      7.151      8.844     99.286      0.193     73.427      9.362      0.112     77.604      0.216      2.820      2.518      0.047
  4164.5000      9.631      9.637     73.925      7.659      7.129      8.877     98.991      0.186     72.619      9.334      0.116     78.883      0.224      2.807      2.511      0.047
  4165.0000      9.617      9.645     73.556      7.760      7.152      8.926     98.738      0.184     73.023      9.320      0.123     86.361      0.221      2.764      2.499      0.043
  4165.5000      9.613      9.655     73.670      7.897      7.240      8.918     98.673      0.184     71.676      9.313      0.120     82.319      0.214      2.779      2.504      0.047
  4166.0000      9.616      9.646     73.536      8.048      7.394      9.032     98.879      0.183     73.427      9.334      0.120     84.407      0.211      2.820      2.505      0.045
  4166.5000      9.610      9.640     73.534      8.197      7.606      9.338     99.445      0.183     77.469      9.334      0.118     84.609      0.215      2.897      2.508      0.045
  4167.0000      9.592      9.633     74.091      8.344      7.842      9.750    100.011      0.187     81.174      9.334      0.112     84.609      0.224      2.968      2.519      0.047
  4167.5000      9.590      9.631     75.122      8.498      8.059     10.261    100.494      0.195     82.319      9.320      0.108     89.796      0.229      3.034      2.525      0.047
  4168.0000      9.573      9.630     75.480      8.661      8.232     10.779    100.830      0.197     82.656      9.279      0.109     91.144      0.238      3.047      2.524      0.043
  4168.5000      9.565      9.631     76.145      8.816      8.364     10.822    100.953      0.202     85.418      9.230      0.116     96.600      0.238      3.073      2.511      0.036
  4169.0000      9.557      9.640     77.897      8.922      8.473     10.729    100.953      0.214     83.532      9.251      0.118     95.320      0.243      3.004      2.508      0.039
  4169.5000      9.563      9.633     78.008      8.945      8.563     10.562    100.983      0.215     84.205      9.299      0.124     92.963      0.246      2.956      2.498      0.035
  4170.0000      9.559      9.629     77.033      8.897      8.599     10.605    101.160      0.208     86.967      9.286      0.124     92.222      0.248      2.945      2.498      0.036
  4170.5000      9.556      9.632     77.127      8.808      8.565     10.828    101.560      0.209     87.371      9.279      0.116     93.704      0.250      3.047      2.511      0.047
  4171.0000      9.565      9.637     77.545      8.711      8.475     10.801    101.902      0.212     87.776      9.272      0.112     91.279      0.259      3.147      2.518      0.053
  4171.5000      9.560      9.627     77.827      8.622      8.354     10.570    101.961      0.214     91.076      9.313      0.107     95.118      0.256      3.134      2.527      0.054
  4172.0000      9.555      9.618     77.973      8.538      8.222     10.341    101.548      0.215     87.776      9.327      0.101     93.569      0.248      3.100      2.537      0.062
  4172.5000      9.546      9.616     77.738      8.461      8.094     10.065    100.859      0.213     83.666      9.341      0.103     92.895      0.237      3.015      2.534      0.060
  4173.0000      9.544      9.622     77.295      8.394      7.990      9.880    100.140      0.210     81.848      9.341      0.106     91.481      0.229      3.013      2.528      0.060
  4173.5000      9.554      9.625     76.648      8.337      7.923      9.723     99.722      0.205     80.163      9.327      0.112     85.081      0.221      2.886      2.519      0.056
  4174.0000      9.562      9.627     75.317      8.297      7.883      9.698     99.616      0.196     78.412      9.306      0.114     81.511      0.222      2.824      2.516      0.054
  4174.5000      9.570      9.629     74.145      8.278      7.862      9.780     99.734      0.188     80.433      9.313      0.114     76.930      0.225      2.822      2.515      0.053
  4175.0000      9.581      9.635     73.995      8.271      7.855      9.823     99.852      0.187     81.241      9.348      0.113     75.044      0.228      2.852      2.517      0.053
  4175.5000      9.580      9.633     74.408      8.258      7.859      9.808     99.822      0.190     78.749      9.348      0.116     77.401      0.227      2.858      2.512      0.044
  4176.0000      9.577      9.639     74.787      8.228      7.853      9.768     99.734      0.192     80.029      9.334      0.112     81.376      0.227      2.857      2.519      0.045
  4176.5000      9.584      9.643     74.922      8.163      7.813      9.816     99.657      0.193     80.366      9.355      0.112     84.609      0.234      2.874      2.518      0.048
  4177.0000      9.602      9.638     74.994      8.067      7.727      9.771     99.339      0.194     79.355      9.306      0.117     84.879      0.234      2.843      2.510      0.044
  4177.5000      9.594      9.623     75.183      7.947      7.604      9.647     98.673      0.195     79.894      9.292      0.118     83.868      0.235      2.869      2.509      0.042
