~Version Information                                                          
 VERS.                             1.20: CWLS log ASCII Standard -VERSION 1.20
 WRAP.                               NO: One line per depth step              
~Well Information Block                                                       
#MNEM.UNIT           Data Type           Information                          
#--------- ----------------------------  -------------------------------------
 STRT.F                         93.0000:                                      
 STOP.F                       8960.0000:                                      
 STEP.F                          0.5000:                                      
 NULL.                        -999.2500:                                      
 COMP.                     Company Name: ENRON OIL & GAS COMPANY              
 WELL.                        Well Name: UNIVERSITY 6-7 NO.1                  
 FLD .                       Field Name: GRIERSON                             
 LOC .                         Location: SECTION 7,BLOCK6                     
 SLOC.                 SURFACE Location: 874 FEL X 2193 FSL                   
 SECT.                          Section:                                      
 TOWN.                         Township:                                      
 RANG.                            Range:                                      
 COUN.                           County: REAGAN                               
 STAT.                            State: TEXAS                                
 CTRY.                          Country: USA                                  
 SRVC.                  Service Company: HALLIBURTON ENERGY SERVICES          
 DATE.                 DATE as MM/DD/YY: 04/29/97                             
 APIN.                  API Well Number: 42-383-34746                         
 UWI .                   UNIQUE WELL ID: 42383347460000                       
 PD  .                  Permanent Datum: G.L.                                 
 RUN .                       Run Number: ONE                                  
 DMF .           Drilling Measured From: KELLY BUSHING                        
 LMF .            Logging Measured From: K.B.                                 
 TCS .         Time Circulation Stopped:                                      
 TLAB.            Time Logger at Bottom:                                      
 DFT .              Drilling Fluid Type: FRESH GEL                            
 MCSS.           Mud Cake Sample Source: MEAS.                                
 MFSS.       Mud Filtrate Sample Source: MEAS.                                
 MSS .                Mud Sample Source: FLOWLINE                             
 LCCN.             Logging Company Name: HALLIBURTON ENERGY SERVICES          
 LUL .              Equiptment Location: ODESSA                               
 LUN .              Logging Unit Number: 51941                                
 ENGI.          Logging Engineer's Name: MART RILEY                           
 WITN.                   Witness's Name: N. VAN LIEW                          
~Curve Information Block                                                      
#MNEM.UNIT                   API CODE    Curve Description                  
#---------                 ------------  -------------------------------------
 DEPT.F                    00 000 00 00:   1  Depth Curve                     
 C13 .INCH                 99 075 22 05:   2  CALIPER PADS 1 - 3    -FACT-
 C24 .INCH                 99 075 22 05:   3  CALIPER PADS 2 - 4    -FACT-
 DT  .US/F                 99 075 22 05:   4  SONIC TRANSIT TIME          
 ILD .OHMM                 99 075 22 05:   5  IL, DEEP RESISTIVITY        
 ILM .OHMM                 99 075 22 05:   6  IL, MEDIUM RESISTIVITY      
 SGRD.OHMM                 99 075 22 05:   7  SHORT GUARD RESISTIVITY     
 SP  .MV                   99 075 22 05:   8  SPONTANEOUS POTENTIAL       
 SPHI.DECP                 99 075 22 05:   9  SONIC POROSITY  -LIME-      
 GR  .GAPI                 99 075 22 05:  10  GAMMA RAY                   
 CALI.INCH                 99 075 22 05:  11  CALIPER                     
 DPHI.DECP                 99 075 22 05:  12  DENSITY POROSITY -LIME-     
 GR2 .GAPI                 99 075 22 05:  13  GAMMA RAY 2ND SERVICE       
 NPHI.DECP                 99 075 22 05:  14  NEUTRON POROSITY -LIME-     
 PE  .B/E                  99 075 22 05:  15  PHOTO-ELECTRIC FACTOR       
 RHOB.G/C3                 99 075 22 05:  16  BULK DENSITY                
 DRHO.G/C3                 99 075 22 05:  17  DENSITY CORRECTION          
~Parameter Information Block                                                  
#MNEM.UNIT            Value              Description                          
#--------- ----------------------------  -------------------------------------
 EDF .F                       2732.0000: Elevation, Derrick Floor    
 EGL .F                       2715.0000: Elevation, Ground Level     
 EKB .F                       2733.0000: Elevation, Kelly Bushing    
 EPD .F                       2715.0000: Elevation Perminent Datum   
 TDD .F                       8950.0000: Total Depth-Driller         
 TDL .F                       8946.0000: Total Depth-Logger          
 CBD .F                       3000.0000: Casing Bottom Driller 1     
 CBL .F                       2998.0000: Casing Bottom Logger 1      
 TLI .F                       2980.0000: Top Logged Interval         
 BLI .F                       8941.0000: Bottom Logged Interval      
 DFD .LB/G                       9.4000: Drilling Fluid Density      
 DFPH.----                      10.0000: Drilling Fluid Ph           
 DFL .C3                        11.2000: Drilling Fluid Loss         
 DFV .CP                        46.0000: Drilling Fluid Viscosity    
 RM  .CP                        46.0000: Mud Sample Resistivity      
 MST .DEGF                      74.0000: Mud Sample Temperature      
 RMF .DEGF                      74.0000: Mud Filtrate Resistivity    
 MFST.DEGF                      74.0000: Mud Filtrate Sample Temp    
 RMC .DEGF                      74.0000: Mud Cake Resistivity        
 MCST.DEGF                      74.0000: Mud Cake Sample Temperature 
 MRT .DEGF                     165.0000: Maximum Recorded Temperature
 BHT .DEGF                     165.0000: Bottom Hole Temperature     
~A   DEPT       C13        C24        DT         ILD        ILM        SGRD       SP         SPHI       GR         CALI       DPHI       GR2        NPHI       PE         RHOB       DRHO  
# ...
  8929.5000      7.875      7.875     49.700    710.720    776.846   1010.219     -2.781      0.015     43.110      7.883      0.020     17.690      0.006      4.621      2.676      0.019
  8930.0000      7.875      7.875     49.700    720.033    740.204   1335.944     -3.052      0.015     43.110      7.828      0.011     18.795      0.006      4.359      2.691      0.031
  8930.5000      7.875      7.875     49.700    719.447    707.444   1640.948     -3.158      0.015     43.110      7.814      0.020     18.795      0.006      4.267      2.676      0.029
  8931.0000      7.875      7.875     49.700    718.567    683.469   1132.588     -3.164      0.015     43.110      7.821      0.031     18.795      0.006      4.182      2.656      0.022
  8931.5000      7.875      7.875     49.700    719.065    656.945   1127.408     -2.952      0.015     43.110      7.869      0.028     18.795      0.006      4.083      2.662      0.026
  8932.0000      7.875      7.875     49.700    718.323    642.995   1204.983     -2.940      0.015     43.110      7.821      0.017     18.795      0.006      3.788      2.680      0.050
  8932.5000      7.875      7.875     49.700    719.016    629.588   1590.447     -3.364      0.015     43.110      7.814      0.015     18.795      0.005      3.851      2.684      0.053
  8933.0000      7.875      7.875     49.700    719.490    622.640   2367.458     -3.841      0.015     43.110      7.842      0.013     18.795      0.005      3.834      2.688      0.049
  8933.5000      7.875      7.875     49.700    715.849    620.396   2600.984     -3.953      0.015     43.110      7.855      0.019     18.795      0.005      3.656      2.678      0.046
  8934.0000      7.875      7.875     49.700    710.312    600.586   2646.718     -3.924      0.015     43.110      7.835      0.023     18.795      0.005      3.291      2.671      0.055
  8934.5000      7.875      7.875     49.700    710.904    583.614   2043.715     -3.924      0.015     43.110      7.821      0.035     18.795      0.006      3.499      2.651      0.048
  8935.0000      7.875      7.875     49.700    711.047    572.578   1243.303     -3.924      0.015     43.110      7.779      0.037     18.795      0.006      3.592      2.646      0.039
  8935.5000      7.875      7.875     49.700    711.047    561.555    583.242     -3.924      0.015     43.110      7.717      0.038     18.795      0.006      3.856      2.645      0.031
  8936.0000      7.875      7.875     49.700    711.176    560.823    542.573     -3.924      0.015     43.110      7.710      0.030     18.795      0.006      3.932      2.658      0.030
  8936.5000      7.875      7.875     49.700    711.075    561.555    584.216     -3.924      0.015     43.110      7.668      0.014     18.795      0.006      4.463      2.686      0.029
  8937.0000      7.875      7.875     49.700    710.961    569.107    851.023     -3.924      0.015     43.110      7.654      0.004     18.795      0.006      4.804      2.703      0.025
  8937.5000      7.875      7.875     49.700    710.904    570.270   1145.040     -3.924      0.015     43.110      7.668      0.001     18.795      0.006      4.944      2.708      0.023
  8938.0000      7.875      7.875     49.700    710.946    572.960   1067.033     -3.924      0.015     43.110      7.634      0.002     18.795      0.007      4.851      2.707      0.024
  8938.5000      7.875      7.875     49.700    710.989    572.960    386.614     -3.924      0.015     43.110      7.647      0.004     18.795      0.007      4.918      2.703      0.022
  8939.0000      7.875      7.875     49.700    710.961    572.960    281.732     -3.924      0.015     43.110      7.661      0.001     18.795      0.007      4.722      2.708      0.030
  8939.5000      7.875      7.875     49.700    710.946    572.960    229.060     -3.924      0.015     43.110      7.682      0.002     18.795      0.007      4.693      2.706      0.035
  8940.0000      7.875      7.875     49.700    710.975    572.960    224.878     -3.924      0.015     43.110      7.717      0.009     18.795      0.007      4.676      2.695      0.029
  8940.5000      7.875      7.875     49.700    711.104    572.960    257.463     -3.924      0.015     43.110      7.696      0.007     18.795      0.007      4.395      2.698      0.032
  8941.0000      7.875      7.875     49.700    711.133    572.960    258.350     -3.924      0.015     43.110      7.654      0.020     18.795      0.007      4.348      2.676      0.024
  8941.5000      7.875      7.875     49.700    711.133    572.960    258.487     -3.924      0.015     43.110      7.599      0.029     18.795      0.007      4.360      2.661      0.022
  8942.0000      7.875      7.875     49.700    711.133    572.960    258.605     -3.924      0.015     43.110      7.516      0.045     18.795      0.007      4.586      2.632      0.007
  8942.5000      7.875      7.875     49.700    711.133    572.960    258.679     -3.924      0.015     43.110      7.529      0.051     18.795      0.007      4.586      2.622      0.008
  8943.0000      7.875      7.875     49.700    711.133    572.960    258.733     -3.924      0.015     43.110      7.467      0.059     18.795      0.007      4.840      2.609     -0.001
  8943.5000      7.875      7.875     49.700    711.133    572.960    258.768     -3.924      0.015     43.110      7.474      0.059     18.795      0.007      4.892      2.609     -0.001
  8944.0000      7.875      7.875     49.700    711.133    572.960    258.795     -3.924      0.015     43.110      7.488      0.059     18.795      0.007      4.840      2.610      0.001
  8944.5000      7.875      7.875     49.700    711.133    572.960    258.799     -3.924      0.015     43.110      7.529      0.059     18.795      0.007      4.798      2.609     -0.000
  8945.0000      7.875      7.875     49.700    711.133    572.960    258.805     -3.924      0.015     43.110      7.550      0.060     18.795      0.007      4.776      2.608     -0.002
  8945.5000      7.875      7.875     49.700    711.133    572.960    258.802     -3.924      0.015     43.110      7.550      0.061     18.795      0.007      4.756      2.606     -0.001
  8946.0000      7.875      7.875     49.700    711.133    572.960    258.811     -3.924      0.015     43.110      7.523      0.059     18.795      0.007      4.836      2.610      0.006
  8946.5000      7.875      7.875     49.700    711.133    572.960    258.823     -3.924      0.015     43.110      7.488      0.054     18.795      0.007      4.917      2.617      0.009
  8947.0000      7.875      7.875     49.700    711.133    572.960    258.833     -3.924      0.015     43.110      7.474      0.053     18.795      0.007      5.025      2.620      0.011
  8947.5000      7.875      7.875     49.700    711.133    572.960    258.851     -3.924      0.015     43.110      7.467      0.044     18.795      0.007      5.040      2.634      0.019
  8948.0000      7.875      7.875     49.700    711.133    572.960    258.860     -3.924      0.015     43.110      7.474      0.040     18.795      0.007      5.074      2.642      0.023
  8948.5000      7.875      7.875     49.700    711.133    572.960    258.874     -3.924      0.015     43.110      7.481      0.037     18.795      0.007      5.026      2.647      0.025
  8949.0000      7.875      7.875     49.700    711.133    572.960    258.883     -3.924      0.015     43.110      7.516      0.039     18.795      0.007      4.992      2.643      0.023
  8949.5000      7.875      7.875     49.700    711.133    572.960    258.883     -3.924      0.015     43.110      7.495      0.046     18.795      0.007      4.887      2.632      0.018
  8950.0000      7.875      7.875     49.700    711.133    572.960    258.883     -3.924      0.015     43.110      7.467      0.045     18.795      0.007      4.893      2.634      0.017
  8950.5000      7.875      7.875     49.700    711.133    572.960    258.883     -3.924      0.015     43.110      7.474      0.050     18.795      0.007      4.894      2.625      0.012
