~Version Information                                                          
 VERS.                             1.20: CWLS log ASCII Standard -VERSION 1.20
 WRAP.                               NO: One line per depth step              
~Well Information Block                                                       
#MNEM.UNIT           Data Type           Information                          
#--------- ----------------------------  -------------------------------------
 STRT.F                         93.0000:                                      
 STOP.F                       8960.0000:                                      
 STEP.F                          0.5000:                                      
 NULL.                        -999.2500:                                      
 COMP.                     Company Name: ENRON OIL & GAS COMPANY              
 WELL.                        Well Name: UNIVERSITY 6-7 NO.1                  
 FLD .                       Field Name: GRIERSON                             
 LOC .                         Location: SECTION 7,BLOCK6                     
 SLOC.                 SURFACE Location: 874 FEL X 2193 FSL                   
 SECT.                          Section:                                      
 TOWN.                         Township:                                      
 RANG.                            Range:                                      
 COUN.                           County: REAGAN                               
 STAT.                            State: TEXAS                                
 CTRY.                          Country: USA                                  
 SRVC.                  Service Company: HALLIBURTON ENERGY SERVICES          
 DATE.                 DATE as MM/DD/YY: 04/29/97                             
 APIN.                  API Well Number: 42-383-34746                         
 UWI .                   UNIQUE WELL ID: 42383347460000                       
 PD  .                  Permanent Datum: G.L.                                 
 RUN .                       Run Number: ONE                                  
 DMF .           Drilling Measured From: KELLY BUSHING                        
 LMF .            Logging Measured From: K.B.                                 
 TCS .         Time Circulation Stopped:                                      
 TLAB.            Time Logger at Bottom:                                      
 DFT .              Drilling Fluid Type: FRESH GEL                            
 MCSS.           Mud Cake Sample Source: MEAS.                                
 MFSS.       Mud Filtrate Sample Source: MEAS.                                
 MSS .                Mud Sample Source: FLOWLINE                             
 LCCN.             Logging Company Name: HALLIBURTON ENERGY SERVICES          
 LUL .              Equiptment Location: ODESSA                               
 LUN .              Logging Unit Number: 51941                                
 ENGI.          Logging Engineer's Name: MART RILEY                           
 WITN.                   Witness's Name: N. VAN LIEW                          
~Curve Information Block                                                      
#MNEM.UNIT                   API CODE    Curve Description                  
#---------                 ------------  -------------------------------------
 DEPT.F                    00 000 00 00:   1  Depth Curve                     
 C13 .INCH                 99 075 22 05:   2  CALIPER PADS 1 - 3    -FACT-
 C24 .INCH                 99 075 22 05:   3  CALIPER PADS 2 - 4    -FACT-
 DT  .US/F                 99 075 22 05:   4  SONIC TRANSIT TIME          
 ILD .OHMM                 99 075 22 05:   5  IL, DEEP RESISTIVITY        
 ILM .OHMM                 99 075 22 05:   6  IL, MEDIUM RESISTIVITY      
 SGRD.OHMM                 99 075 22 05:   7  SHORT GUARD RESISTIVITY     
 SP  .MV                   99 075 22 05:   8  SPONTANEOUS POTENTIAL       
 SPHI.DECP                 99 075 22 05:   9  SONIC POROSITY  -LIME-      
 GR  .GAPI                 99 075 22 05:  10  GAMMA RAY                   
 CALI.INCH                 99 075 22 05:  11  CALIPER                     
 DPHI.DECP                 99 075 22 05:  12  DENSITY POROSITY -LIME-     
 GR2 .GAPI                 99 075 22 05:  13  GAMMA RAY 2ND SERVICE       
 NPHI.DECP                 99 075 22 05:  14  NEUTRON POROSITY -LIME-     
 PE  .B/E                  99 075 22 05:  15  PHOTO-ELECTRIC FACTOR       
 RHOB.G/C3                 99 075 22 05:  16  BULK DENSITY                
 DRHO.G/C3                 99 075 22 05:  17  DENSITY CORRECTION          
~Parameter Information Block                                                  
#MNEM.UNIT            Value              Description                          
#--------- ----------------------------  -------------------------------------
 EDF .F                       2732.0000: Elevation, Derrick Floor    
 EGL .F                       2715.0000: Elevation, Ground Level     
 EKB .F                       2733.0000: Elevation, Kelly Bushing    
 EPD .F                       2715.0000: Elevation Perminent Datum   
 TDD .F                       8950.0000: Total Depth-Driller         
 TDL .F                       8946.0000: Total Depth-Logger          
 CBD .F                       3000.0000: Casing Bottom Driller 1     
 CBL .F                       2998.0000: Casing Bottom Logger 1      
 TLI .F                       2980.0000: Top Logged Interval         
 BLI .F                       8941.0000: Bottom Logged Interval      
 DFD .LB/G                       9.4000: Drilling Fluid Density      
 DFPH.----                      10.0000: Drilling Fluid Ph           
 DFL .C3                        11.2000: Drilling Fluid Loss         
 DFV .CP                        46.0000: Drilling Fluid Viscosity    
 RM  .CP                        46.0000: Mud Sample Resistivity      
 MST .DEGF                      74.0000: Mud Sample Temperature      
 RMF .DEGF                      74.0000: Mud Filtrate Resistivity    
 MFST.DEGF                      74.0000: Mud Filtrate Sample Temp    
 RMC .DEGF                      74.0000: Mud Cake Resistivity        
 MCST.DEGF                      74.0000: Mud Cake Sample Temperature 
 MRT .DEGF                     165.0000: Maximum Recorded Temperature
 BHT .DEGF                     165.0000: Bottom Hole Temperature     
~A   DEPT       C13        C24        DT         ILD        ILM        SGRD       SP         SPHI       GR         CALI       DPHI       GR2        NPHI       PE         RHOB       DRHO  
# ...
  6543.0000      8.435      8.395     80.636     16.570     18.042     21.018    123.212      0.234     96.263      8.612      0.101    104.078      0.244      3.296      2.537      0.050
  6543.5000      8.427      8.371     80.809     15.301     18.289     25.075    122.853      0.235     90.133      8.598      0.100     92.020      0.237      3.478      2.540      0.041
  6544.0000      8.412      8.354     77.317     14.438     17.222     39.532    122.517      0.210     78.883      8.577      0.091     80.163      0.210      3.500      2.554      0.041
  6544.5000      8.409      8.360     75.516     14.151     15.643     67.529    122.611      0.197     72.686      8.563      0.081     77.065      0.179      3.535      2.572      0.045
  6545.0000      8.414      8.380     74.397     14.085     14.384     45.221    122.741      0.190     80.500      8.584      0.075     77.604      0.164      3.548      2.582      0.041
  6545.5000      8.416      8.397     71.583     13.882     13.907     29.633    122.717      0.170     85.014      8.612      0.073     89.123      0.181      3.512      2.586      0.045
  6546.0000      8.412      8.405     71.653     13.505     13.769     23.356    122.564      0.170     97.139      8.584      0.081    100.912      0.207      3.517      2.571      0.041
  6546.5000      8.402      8.394     77.681     13.272     13.488     23.757    122.364      0.213     98.015      8.563      0.091    105.156      0.223      3.455      2.555      0.042
  6547.0000      8.395      8.383     79.400     13.643     13.356     27.309    122.092      0.225     92.761      8.542      0.094    106.435      0.221      3.447      2.550      0.040
  6547.5000      8.390      8.380     79.489     14.659     13.776     26.025    121.586      0.226     88.651      8.535      0.093    106.907      0.215      3.376      2.552      0.047
  6548.0000      8.379      8.376     79.514     16.148     15.251     23.198    120.973      0.226     84.677      8.521      0.092     99.497      0.204      3.395      2.553      0.048
  6548.5000      8.375      8.348     77.191     17.848     18.148     23.034    120.508      0.209     78.816      8.556      0.093     92.761      0.198      3.368      2.551      0.042
  6549.0000      8.376      8.323     75.295     20.084     22.450     30.670    120.078      0.196     71.339      8.521      0.090     77.401      0.179      3.431      2.556      0.039
  6549.5000      8.366      8.310     73.003     23.929     28.130     55.737    119.465      0.180     57.933      8.514      0.083     58.203      0.147      3.769      2.569      0.031
  6550.0000      8.373      8.314     68.384     29.820     35.818    140.862    118.917      0.147     39.812      8.521      0.068     40.284      0.101      4.177      2.595      0.026
  6550.5000      8.381      8.318     63.644     36.485     46.394    356.583    118.681      0.113     25.262      8.521      0.049     25.396      0.064      4.601      2.626      0.024
  6551.0000      8.381      8.320     58.897     38.299     57.389    776.179    118.776      0.080     14.618      8.556      0.040     16.504      0.047      4.857      2.642      0.016
  6551.5000      8.375      8.314     53.991     32.668     60.966   1096.172    119.011      0.045     13.540      8.549      0.031     14.416      0.039      4.660      2.658      0.018
  6552.0000      8.368      8.294     51.880     25.534     52.619   1048.736    119.100      0.030     20.344      8.514      0.037     20.883      0.041      4.341      2.647      0.031
  6552.5000      8.364      8.268     53.481     19.612     36.700    404.534    119.158      0.042     37.522      8.466      0.052     40.082      0.050      3.949      2.621      0.045
  6553.0000      8.410      8.297     57.506     15.474     22.901     86.146    119.282      0.070     55.306      8.438      0.073     60.224      0.084      3.660      2.585      0.045
  6553.5000      8.498      8.365     60.295     12.961     15.101     37.420    119.577      0.090     71.137      8.514      0.089     77.806      0.137      3.354      2.557      0.045
  6554.0000      8.569      8.435     65.744     11.343     11.363     26.831    120.254      0.128     86.832      8.577      0.091     93.030      0.182      3.144      2.554      0.055
  6554.5000      8.619      8.485     74.495     10.292      9.339     18.797    120.820      0.190     93.569      8.618      0.081     94.310      0.190      3.177      2.572      0.057
  6555.0000      8.665      8.526     78.209      9.563      8.818     15.596    120.561      0.216     96.129      8.688      0.079     91.548      0.194      3.063      2.576      0.047
  6555.5000      8.698      8.539     76.669      9.003      8.689     14.715    119.865      0.206     95.388      8.716      0.089     89.460      0.201      3.086      2.557      0.032
  6556.0000      8.704      8.556     76.645      8.653      8.528     15.988    119.371      0.205     96.196      8.723      0.102     87.371      0.212      3.047      2.535      0.019
  6556.5000      8.699      8.553     78.234      8.531      8.426     19.662    119.329      0.217     99.564      8.729      0.095     91.683      0.220      3.072      2.547      0.027
  6557.0000      8.706      8.548     78.103      8.721      8.446     20.113    119.547      0.216    104.280      8.709      0.102     93.569      0.238      3.164      2.535      0.027
  6557.5000      8.705      8.546     78.134      9.160      8.710     18.599    119.907      0.216    102.933      8.723      0.117    101.383      0.246      3.487      2.510     -0.005
  6558.0000      8.693      8.548     80.830      9.717      9.183     16.951    120.195      0.235    106.570      8.729      0.099    104.886      0.253      3.675      2.541     -0.005
  6558.5000      8.691      8.546     81.216     10.233      9.746     17.174    120.184      0.238     99.968      8.764      0.087    101.989      0.247      3.657      2.560     -0.000
  6559.0000      8.693      8.541     80.811     10.689     10.341     18.767    119.647      0.235     90.942      8.764      0.091     99.160      0.240      4.123      2.555     -0.021
  6559.5000      8.693      8.540     79.641     11.057     11.348     20.873    118.940      0.227     81.309      8.736      0.062     90.874      0.227      4.337      2.604     -0.014
  6560.0000      8.696      8.546     77.438     11.360     12.019     23.164    118.457      0.211     74.640      8.688      0.057     87.371      0.210      4.155      2.613     -0.008
  6560.5000      8.708      8.546     76.705     11.643     12.541     25.159    118.587      0.206     66.017      8.736      0.057     76.593      0.192      4.115      2.612     -0.001
  6561.0000      8.712      8.550     71.939     11.921     12.786     28.377    118.887      0.172     65.411      8.729      0.052     72.821      0.186      4.087      2.622      0.012
  6561.5000      8.712      8.546     69.455     12.307     12.787     26.245    118.958      0.155     70.261      8.736      0.063     77.469      0.174      3.722      2.602      0.020
  6562.0000      8.707      8.546     73.002     12.795     12.766     25.134    118.823      0.180     77.604      8.743      0.071     80.568      0.178      3.398      2.588      0.040
  6562.5000      8.699      8.534     70.836     13.277     13.061     23.119    118.870      0.164     85.148      8.750      0.081     84.677      0.199      3.321      2.572      0.036
  6563.0000      8.692      8.538     71.381     13.507     13.870     20.455    119.194      0.168     89.460      8.695      0.077     85.216      0.212      3.213      2.578      0.045
  6563.5000      8.665      8.550     75.844     13.376     14.991     21.510    119.630      0.200     86.428      8.709      0.079     77.132      0.198      3.301      2.575      0.026
  6564.0000      8.646      8.553     73.919     12.947     15.737     27.395    120.095      0.186     75.111      8.681      0.052     69.452      0.175      3.343      2.622      0.041
