~Version Information                                                          
 VERS.                             1.20: CWLS log ASCII Standard -VERSION 1.20
 WRAP.                               NO: One line per depth step              
~Well Information Block                                                       
#MNEM.UNIT           Data Type           Information                          
#--------- ----------------------------  -------------------------------------
 STRT.F                         92.0000:                                      
 STOP.F                       9060.0000:                                      
 STEP.F                          0.5000:                                      
 NULL.                        -999.2500:                                      
 COMP.                     Company Name: ENRON OIL & GAS                      
 WELL.                        Well Name: UNIVERSITY 6-18W NO.1                
 FLD .                       Field Name: WILDCAT                              
 LOC .                         Location: SECTION 18, BLOCK 6                  
 SLOC.                 SURFACE Location: 1216' FNL & 505' FWL                 
 SECT.                          Section: 18                                   
 TOWN.                         Township:                                      
 RANG.                            Range:                                      
 COUN.                           County: REAGAN                               
 STAT.                            State: TX                                   
 CTRY.                          Country: USA                                  
 SRVC.                  Service Company: HALLIBURTON ENERGY SERVICES          
 DATE.                 DATE as MM/DD/YY: 08/17/97                             
 APIN.                  API Well Number: 42-383-34800                         
 UWI .                   UNIQUE WELL ID: 42383348000000                       
 PD  .                  Permanent Datum: G.L.                                 
 RUN .                       Run Number: 1&2                                  
 DMF .           Drilling Measured From: KELLY BUSHING                        
 LMF .            Logging Measured From: K.B.                                 
 TCS .         Time Circulation Stopped: 0100                                 
 TLAB.            Time Logger at Bottom: 0830                                 
 DFT .              Drilling Fluid Type: FW-PAC-STARCH                        
 MCSS.           Mud Cake Sample Source: N/A                                  
 MFSS.       Mud Filtrate Sample Source: MEAS                                 
 MSS .                Mud Sample Source: MUD PIT                              
 LCCN.             Logging Company Name: HALLIBURTON ENERGY SERVICES          
 LUL .              Equiptment Location: ODTX                                 
 LUN .              Logging Unit Number: 52525                                
 ENGI.          Logging Engineer's Name: LAUFER                               
 WITN.                   Witness's Name: N. VAN LIEW                          
~Curve Information Block                                                      
#MNEM.UNIT                   API CODE    Curve Description                  
#---------                 ------------  -------------------------------------
 DEPT.F                    00 000 00 00:   1  Depth Curve                     
 GR2 .GAPI                 00 000 00 00:   2  GAMMA RAY -DENSITY-NEUTRON- 
 NPHI.DECP                 00 000 00 00:   3  NEUTRON POROSITY -LIME-     
 DPHI.DECP                 00 000 00 00:   4  DENSITY POROSITY -LIME-     
 RHOB.G/C3                 00 000 00 00:   5  BULK DENSITY                
 DRHO.G/C3                 00 000 00 00:   6  DENSITY CORRECTION          
 PE  .B/E                  00 000 00 00:   7  PHOTO-ELECTRIC FACTOR       
 CALI.IN                   00 000 00 00:   8  CALIPER -DENSITY-           
 PHIX.DECP                 00 000 00 00:   9  CROSSPLOT POROSITY          
 LLS .OHMM                 00 000 00 00:  10  LATERO-LOG, SHALLOW RESIS.  
 LLD .OHMM                 00 000 00 00:  11  LATERO-LOG, DEEP RESISTIVITY
 CLLD.MMHO                 00 000 00 00:  12  LATERO-LOG, DEEP CONDUCTIVTY
 MGRD.OHMM                 00 000 00 00:  13  MICRO-SFL   RESISTIVITY     
 CAL2.IN                   00 000 00 00:  14  CALIPER -MICRO-SFL-         
 GR  .GAPI                 00 000 00 00:  15  GAMMA RAY -SONIC-           
 C13 .IN                   00 000 00 00:  16  CALIPER PADS 1 - 3    -FACT-
 C24 .IN                   00 000 00 00:  17  CALIPER PADS 2 - 4    -FACT-
 DT  .US/F                 00 000 00 00:  18  SONIC TRANSIT TIME          
 SPHI.DECP                 00 000 00 00:  19  SONIC POROSITY  -LIME-      
~Parameter Information Block                                                  
#MNEM.UNIT            Value              Description                          
#--------- ----------------------------  -------------------------------------
 EDF .F                       2695.0000: Elevation, Derrick Floor    
 EGL .F                       2678.0000: Elevation, Ground Level     
 EKB .F                       2696.0000: Elevation, Kelly Bushing    
 EPD .F                       2678.0000: Elevation Perminent Datum   
 TDD .F                       9050.0000: Total Depth-Driller         
 TDL .F                       9044.0000: Total Depth-Logger          
 CBD .F                       3050.0000: Casing Bottom Driller 1     
 CBL .F                       3044.0000: Casing Bottom Logger 1      
 TLI .F                       2900.0000: Top Logged Interval         
 BLI .F                       9037.0000: Bottom Logged Interval      
 DFD .LB/G                       9.1000: Drilling Fluid Density      
 DFPH.----                      10.5000: Drilling Fluid Ph           
 DFL .C3                         5.6000: Drilling Fluid Loss         
 DFV .CP                        52.0000: Drilling Fluid Viscosity    
 RM  .CP                        52.0000: Mud Sample Resistivity      
 MST .DEGF                      69.0000: Mud Sample Temperature      
 RMF .DEGF                      69.0000: Mud Filtrate Resistivity    
 MFST.DEGF                      69.0000: Mud Filtrate Sample Temp    
 RMC .DEGF                      69.0000: Mud Cake Resistivity        
 MCST.DEGF                      69.0000: Mud Cake Sample Temperature 
 MRT .DEGF                     150.0000: Maximum Recorded Temperature
 BHT .DEGF                     111.0000: Bottom Hole Temperature     
~A   DEPT       GR2        NPHI       DPHI       RHOB       DRHO       PE         CALI       PHIX       LLS        LLD        CLLD       MGRD       CAL2       GR         C13        C24        DT         SPHI  
# ...
  8633.0000     43.063      0.040      0.018      2.681      0.051      4.563      8.158      0.037    266.903    224.525      4.454     22.120      7.971     44.167      8.643      8.283     60.058      0.061
  8633.5000     36.207      0.032      0.010      2.695      0.011      4.832      8.167      0.029    463.514    369.350      2.707     52.671      7.972     39.591      8.538      8.216     57.545      0.044
  8634.0000     29.614      0.027     -0.010      2.727      0.026      4.884      8.175      0.020    922.141    791.186      1.264    546.238      7.973     33.945      8.531      8.227     48.911      0.032
  8634.5000     27.405      0.024     -0.007      2.722      0.027      4.900      8.192      0.019   1310.127   1411.375      0.709   1089.097      7.974     28.580      8.544      8.233     46.498      0.002
  8635.0000     25.827      0.022     -0.014      2.732      0.042      4.992      8.209      0.016   1300.665   1502.041      0.666   1269.995      7.975     25.494      8.578      8.241     46.358     -0.007
  8635.5000     24.740      0.022     -0.008      2.722      0.041      5.011      8.242      0.018   1228.644   1396.539      0.716   1286.781      7.975     23.898      8.604      8.246     46.777     -0.003
  8636.0000     24.933      0.023     -0.009      2.725      0.045      5.047      8.268      0.018   1240.137   1345.265      0.743    249.490      7.975     24.442      8.635      8.260     47.714      0.003
  8636.5000     25.722      0.023     -0.003      2.715      0.041      5.033      8.234      0.019   1196.724   1367.808      0.731    222.127      7.977     25.108      8.627      8.266     49.383      0.006
  8637.0000     26.493      0.023     -0.009      2.725      0.039      5.110      8.234      0.018   1105.492   1289.400      0.776    223.537      7.985     25.476      8.631      8.269     49.475      0.007
  8637.5000     27.405      0.021     -0.007      2.721      0.021      5.103      8.234      0.017    981.600   1179.268      0.848    847.711      7.994     24.898      8.625      8.278     47.911      0.004
  8638.0000     27.002      0.023     -0.006      2.720      0.015      4.978      8.268      0.018    870.177   1024.746      0.976    765.726      7.995     22.706      8.661      8.295     46.900     -0.000
  8638.5000     25.967      0.023     -0.008      2.723      0.019      5.108      8.268      0.018    752.782    846.386      1.181    667.600      7.999     21.707      8.636      8.303     47.092     -0.000
  8639.0000     25.932      0.022     -0.012      2.729      0.019      5.076      8.268      0.017    606.649    640.594      1.561    692.480      7.997     23.898      8.612      8.304     48.025      0.000
  8639.5000     24.617      0.022     -0.014      2.732      0.018      5.072      8.268      0.016    494.373    512.670      1.951    646.646      7.998     25.143      8.600      8.314     48.262      0.004
  8640.0000     25.634      0.022     -0.012      2.730      0.021      5.114      8.268      0.016    409.328    423.801      2.360    659.870      7.998     26.353      8.610      8.323     48.231      0.003
  8640.5000     25.371      0.022     -0.009      2.725      0.018      5.130      8.268      0.017    347.529    354.203      2.823    499.181      8.004     27.300      8.629      8.333     48.069      0.001
  8641.0000     24.775      0.023     -0.006      2.720      0.014      5.134      8.301      0.018    302.564    306.756      3.260    450.542      8.007     28.422      8.676      8.346     47.086      0.004
  8641.5000     24.933      0.023     -0.006      2.720      0.013      5.200      8.318      0.019    263.356    268.991      3.718    324.542      8.015     27.177      8.714      8.349     47.848      0.020
  8642.0000     23.898      0.024     -0.009      2.725      0.014      5.237      8.360      0.018    241.204    247.116      4.047    225.990      8.025     26.230      8.692      8.363     53.612      0.030
  8642.5000     23.565      0.025     -0.009      2.724      0.013      5.182      8.419      0.019    231.230    234.538      4.264    182.991      8.035     24.512      8.662      8.380     56.050      0.035
  8643.0000     24.459      0.026     -0.009      2.724      0.011      5.114      8.419      0.020    228.922    230.498      4.338    156.467      8.039     23.863      8.643      8.392     51.856      0.036
  8643.5000     25.108      0.027     -0.010      2.726      0.013      5.097      8.394      0.020    231.706    230.680      4.335    117.416      8.042     22.794      8.647      8.397     49.561      0.020
  8644.0000     23.670      0.027     -0.005      2.718      0.009      5.107      8.419      0.022    241.498    241.394      4.143    106.680      8.040     22.881      8.663      8.401     48.700      0.009
  8644.5000     24.530      0.026     -0.010      2.727      0.013      4.999      8.436      0.020    262.650    263.778      3.791    109.470      8.047     23.513      8.677      8.415     48.031      0.003
  8645.0000     24.600      0.024     -0.002      2.713      0.002      4.993      8.411      0.020    288.744    291.628      3.429    111.687      8.055     24.039      8.682      8.429     47.123      0.002
  8645.5000     23.197      0.023      0.006      2.701      0.001      4.933      8.486      0.022    327.031    328.527      3.044    122.082      8.066     21.865      8.680      8.438     47.847      0.005
  8646.0000     23.986      0.023      0.012      2.690     -0.002      4.881      8.528      0.024    378.111    371.009      2.695    151.777      8.072     20.322      8.684      8.444     49.234      0.011
  8646.5000     26.581      0.023      0.016      2.684     -0.001      4.821      8.545      0.025    429.164    417.826      2.393    257.194      8.078     20.620      8.690      8.452     50.325      0.014
  8647.0000     25.845      0.023      0.020      2.677      0.001      4.829      8.520      0.026    501.923    478.670      2.089    104.283      8.078     21.987      8.700      8.473     50.155      0.017
  8647.5000     25.599      0.022      0.013      2.690      0.005      4.884      8.520      0.023    585.918    548.102      1.824     96.669      8.081     22.864      8.703      8.488     49.609      0.017
  8648.0000     26.511      0.022      0.004      2.704      0.016      4.853      8.520      0.020    681.195    566.400      1.766    122.550      8.082     25.284      8.699      8.507     50.122      0.011
  8648.5000     25.652      0.022      0.004      2.703      0.015      4.875      8.520      0.021    628.547    384.036      2.604    325.547      8.090     27.616      8.697      8.536     49.037      0.007
  8649.0000     25.512      0.024     -0.001      2.712      0.042      4.668      8.520      0.021    314.951    156.529      6.389    372.880      8.127     27.668      8.694      8.567     47.003      0.002
  8649.5000     31.420      0.033      0.031      2.660      0.108      4.263      8.545      0.036    143.784     71.657     13.955    499.553      8.174     29.018      8.698      8.578     46.861     -0.000
  8650.0000     46.762      0.056      0.091      2.564      0.137      3.871      8.545      0.072     65.795     38.504     25.971    368.242      8.202     35.120      8.696      8.612     47.773     -0.001
  8650.5000     64.191      0.110      0.119      2.518      0.164      3.610      8.545      0.118     33.713     24.453     40.895     69.458      8.181     47.990      8.741      8.754     48.222      0.010
  8651.0000     81.777      0.181      0.127      2.505      0.186      3.403      8.520      0.162     24.812     19.181     52.135     16.041      8.172     62.823      9.080      9.220     48.920      0.036
  8651.5000    100.187      0.241      0.114      2.527      0.203      3.175      8.570      0.189     22.342     17.311     57.768      7.847      8.189     80.532      9.276      9.420     57.862      0.083
  8652.0000    106.482      0.268      0.075      2.589      0.218      3.191      8.570      0.189     22.834     17.572     56.909     11.143      8.202     94.331      9.172      9.165     67.861      0.131
