~Version Information                                                          
 VERS.                             1.20: CWLS log ASCII Standard -VERSION 1.20
 WRAP.                               NO: One line per depth step              
~Well Information Block                                                       
#MNEM.UNIT           Data Type           Information                          
#--------- ----------------------------  -------------------------------------
 STRT.F                         92.0000:                                      
 STOP.F                       9060.0000:                                      
 STEP.F                          0.5000:                                      
 NULL.                        -999.2500:                                      
 COMP.                     Company Name: ENRON OIL & GAS                      
 WELL.                        Well Name: UNIVERSITY 6-18W NO.1                
 FLD .                       Field Name: WILDCAT                              
 LOC .                         Location: SECTION 18, BLOCK 6                  
 SLOC.                 SURFACE Location: 1216' FNL & 505' FWL                 
 SECT.                          Section: 18                                   
 TOWN.                         Township:                                      
 RANG.                            Range:                                      
 COUN.                           County: REAGAN                               
 STAT.                            State: TX                                   
 CTRY.                          Country: USA                                  
 SRVC.                  Service Company: HALLIBURTON ENERGY SERVICES          
 DATE.                 DATE as MM/DD/YY: 08/17/97                             
 APIN.                  API Well Number: 42-383-34800                         
 UWI .                   UNIQUE WELL ID: 42383348000000                       
 PD  .                  Permanent Datum: G.L.                                 
 RUN .                       Run Number: 1&2                                  
 DMF .           Drilling Measured From: KELLY BUSHING                        
 LMF .            Logging Measured From: K.B.                                 
 TCS .         Time Circulation Stopped: 0100                                 
 TLAB.            Time Logger at Bottom: 0830                                 
 DFT .              Drilling Fluid Type: FW-PAC-STARCH                        
 MCSS.           Mud Cake Sample Source: N/A                                  
 MFSS.       Mud Filtrate Sample Source: MEAS                                 
 MSS .                Mud Sample Source: MUD PIT                              
 LCCN.             Logging Company Name: HALLIBURTON ENERGY SERVICES          
 LUL .              Equiptment Location: ODTX                                 
 LUN .              Logging Unit Number: 52525                                
 ENGI.          Logging Engineer's Name: LAUFER                               
 WITN.                   Witness's Name: N. VAN LIEW                          
~Curve Information Block                                                      
#MNEM.UNIT                   API CODE    Curve Description                  
#---------                 ------------  -------------------------------------
 DEPT.F                    00 000 00 00:   1  Depth Curve                     
 GR2 .GAPI                 00 000 00 00:   2  GAMMA RAY -DENSITY-NEUTRON- 
 NPHI.DECP                 00 000 00 00:   3  NEUTRON POROSITY -LIME-     
 DPHI.DECP                 00 000 00 00:   4  DENSITY POROSITY -LIME-     
 RHOB.G/C3                 00 000 00 00:   5  BULK DENSITY                
 DRHO.G/C3                 00 000 00 00:   6  DENSITY CORRECTION          
 PE  .B/E                  00 000 00 00:   7  PHOTO-ELECTRIC FACTOR       
 CALI.IN                   00 000 00 00:   8  CALIPER -DENSITY-           
 PHIX.DECP                 00 000 00 00:   9  CROSSPLOT POROSITY          
 LLS .OHMM                 00 000 00 00:  10  LATERO-LOG, SHALLOW RESIS.  
 LLD .OHMM                 00 000 00 00:  11  LATERO-LOG, DEEP RESISTIVITY
 CLLD.MMHO                 00 000 00 00:  12  LATERO-LOG, DEEP CONDUCTIVTY
 MGRD.OHMM                 00 000 00 00:  13  MICRO-SFL   RESISTIVITY     
 CAL2.IN                   00 000 00 00:  14  CALIPER -MICRO-SFL-         
 GR  .GAPI                 00 000 00 00:  15  GAMMA RAY -SONIC-           
 C13 .IN                   00 000 00 00:  16  CALIPER PADS 1 - 3    -FACT-
 C24 .IN                   00 000 00 00:  17  CALIPER PADS 2 - 4    -FACT-
 DT  .US/F                 00 000 00 00:  18  SONIC TRANSIT TIME          
 SPHI.DECP                 00 000 00 00:  19  SONIC POROSITY  -LIME-      
~Parameter Information Block                                                  
#MNEM.UNIT            Value              Description                          
#--------- ----------------------------  -------------------------------------
 EDF .F                       2695.0000: Elevation, Derrick Floor    
 EGL .F                       2678.0000: Elevation, Ground Level     
 EKB .F                       2696.0000: Elevation, Kelly Bushing    
 EPD .F                       2678.0000: Elevation Perminent Datum   
 TDD .F                       9050.0000: Total Depth-Driller         
 TDL .F                       9044.0000: Total Depth-Logger          
 CBD .F                       3050.0000: Casing Bottom Driller 1     
 CBL .F                       3044.0000: Casing Bottom Logger 1      
 TLI .F                       2900.0000: Top Logged Interval         
 BLI .F                       9037.0000: Bottom Logged Interval      
 DFD .LB/G                       9.1000: Drilling Fluid Density      
 DFPH.----                      10.5000: Drilling Fluid Ph           
 DFL .C3                         5.6000: Drilling Fluid Loss         
 DFV .CP                        52.0000: Drilling Fluid Viscosity    
 RM  .CP                        52.0000: Mud Sample Resistivity      
 MST .DEGF                      69.0000: Mud Sample Temperature      
 RMF .DEGF                      69.0000: Mud Filtrate Resistivity    
 MFST.DEGF                      69.0000: Mud Filtrate Sample Temp    
 RMC .DEGF                      69.0000: Mud Cake Resistivity        
 MCST.DEGF                      69.0000: Mud Cake Sample Temperature 
 MRT .DEGF                     150.0000: Maximum Recorded Temperature
 BHT .DEGF                     111.0000: Bottom Hole Temperature     
~A   DEPT       GR2        NPHI       DPHI       RHOB       DRHO       PE         CALI       PHIX       LLS        LLD        CLLD       MGRD       CAL2       GR         C13        C24        DT         SPHI  
# ...
  5415.5000     67.382      0.195      0.106      2.540      0.040      3.374      8.469      0.161     26.496     25.670     38.956     59.030      8.171     56.914      8.652      8.491     82.398      0.202
  5416.0000     67.750      0.196      0.120      2.518      0.032      3.351      8.486      0.167     24.230     23.614     42.348    547.171      8.183     51.637      8.643      8.494     63.000      0.144
  5416.5000     76.114      0.235      0.136      2.491      0.033      3.188      8.528      0.194     19.486     19.344     51.695     46.871      8.202     51.952      8.679      8.500     52.866      0.111
  5417.0000     90.877      0.295      0.157      2.457      0.047      2.877      8.528      0.233     15.535     15.847     63.104     19.613      8.223     61.613      8.722      8.522     61.169      0.131
  5417.5000     98.101      0.313      0.165      2.444      0.066      2.733      8.520      0.245     13.112     13.626     73.391     14.547      8.252     75.921      8.750      8.554     78.553      0.185
  5418.0000    103.764      0.323      0.167      2.441      0.060      2.727      8.520      0.251     12.211     12.665     78.959     14.248      8.290     86.283      8.781      8.581     86.817      0.249
  5418.5000    108.113      0.334      0.160      2.453      0.065      2.821      8.537      0.253     11.773     12.348     80.983     13.280      8.311     93.647      8.809      8.612     87.942      0.289
  5419.0000    106.675      0.339      0.154      2.461      0.069      2.816      8.537      0.254     11.560     12.231     81.760     11.752      8.312    102.186      8.858      8.658     90.313      0.295
  5419.5000    104.360      0.350      0.150      2.468      0.064      2.918      8.554      0.257     11.518     12.207     81.919     11.288      8.290    104.448      8.869      8.694     90.772      0.297
  5420.0000    101.380      0.348      0.142      2.481      0.062      2.884      8.537      0.253     11.552     12.337     81.060     11.365      8.263    101.380      8.851      8.711     88.950      0.298
  5420.5000     94.594      0.332      0.154      2.461      0.048      2.787      8.537      0.251     11.739     12.516     79.898     11.523      8.243    100.924      8.836      8.722     88.872      0.295
  5421.0000     90.824      0.323      0.157      2.457      0.056      2.772      8.520      0.247     11.919     12.761     78.363     12.425      8.222     95.436      8.815      8.693     89.498      0.291
  5421.5000     87.739      0.321      0.162      2.449      0.055      2.813      8.512      0.248     12.241     13.178     75.884     12.359      8.208     88.580      8.766      8.619     88.600      0.292
  5422.0000     86.459      0.307      0.179      2.422      0.043      2.599      8.512      0.249     12.615     13.644     73.290     11.857      8.199     84.793      8.734      8.524     88.427      0.288
  5422.5000     84.092      0.310      0.176      2.426      0.047      2.580      8.512      0.249     13.156     14.340     69.737     12.729      8.193     82.724      8.716      8.507     88.175      0.283
  5423.0000     80.111      0.309      0.167      2.440      0.055      2.602      8.520      0.245     14.054     15.438     64.776     13.694      8.193     79.743      8.708      8.493     86.770      0.280
  5423.5000     74.466      0.284      0.170      2.436      0.047      2.610      8.545      0.234     15.153     16.771     59.626     13.617      8.193     75.395      8.716      8.485     86.458      0.276
  5424.0000     68.539      0.268      0.163      2.447      0.049      2.690      8.545      0.223     16.228     18.086     55.293     17.185      8.198     70.328      8.727      8.454     86.450      0.271
  5424.5000     66.663      0.251      0.163      2.447      0.047      2.658      8.545      0.215     16.613     18.654     53.608     18.457      8.207     64.243      8.727      8.444     85.408      0.253
  5425.0000     66.400      0.247      0.158      2.455      0.048      2.723      8.537      0.210     15.995     18.123     55.179     18.938      8.216     57.861      8.719      8.442     80.478      0.218
  5425.5000     67.575      0.252      0.161      2.450      0.041      2.718      8.537      0.214     14.735     16.931     59.063     23.570      8.216     55.021      8.723      8.461     71.720      0.189
  5426.0000     72.011      0.267      0.159      2.453      0.044      2.744      8.520      0.221     13.434     15.641     63.936     21.704      8.216     58.299      8.723      8.474     67.294      0.184
  5426.5000     75.184      0.270      0.167      2.442      0.041      2.730      8.520      0.225     12.634     14.797     67.580     15.915      8.216     65.471      8.720      8.490     74.877      0.194
  5427.0000     74.676      0.276      0.173      2.432      0.035      2.679      8.503      0.231     12.307     14.436     69.269     13.088      8.215     69.328      8.719      8.490     82.127      0.225
  5427.5000     77.534      0.283      0.176      2.427      0.040      2.683      8.503      0.236     12.100     14.162     70.613     12.968      8.217     74.378      8.719      8.493     84.223      0.258
  5428.0000     81.076      0.280      0.175      2.428      0.042      2.639      8.520      0.234     11.963     14.044     71.207     13.033      8.218     76.272      8.719      8.493     86.309      0.267
  5428.5000     81.724      0.282      0.174      2.430      0.048      2.622      8.537      0.234     11.835     13.920     71.839     12.518      8.217     74.238      8.719      8.487     86.695      0.271
  5429.0000     79.620      0.285      0.176      2.427      0.042      2.609      8.554      0.237     11.815     13.851     72.198     12.049      8.215     75.500      8.719      8.492     85.761      0.271
  5429.5000     79.445      0.289      0.176      2.426      0.036      2.606      8.537      0.239     12.039     14.084     71.002     11.461      8.215     77.534      8.719      8.493     85.159      0.272
  5430.0000     77.429      0.297      0.167      2.442      0.043      2.650      8.520      0.238     12.386     14.363     69.625     11.725      8.215     76.745      8.721      8.469     86.222      0.273
  5430.5000     73.852      0.293      0.168      2.440      0.033      2.891      8.512      0.237     12.696     14.661     68.208     12.216      8.216     76.675      8.721      8.459     87.200      0.276
  5431.0000     72.940      0.289      0.160      2.452      0.031      2.999      8.486      0.232     13.006     14.985     66.735     13.127      8.216     74.799      8.719      8.444     86.906      0.278
  5431.5000     73.869      0.277      0.150      2.469      0.046      3.023      8.444      0.222     13.004     15.014     66.605     12.850      8.215     72.572      8.719      8.442     86.655      0.275
  5432.0000     76.359      0.263      0.148      2.471      0.055      3.053      8.419      0.214     12.859     14.861     67.289     11.955      8.216     71.362      8.719      8.446     86.045      0.271
  5432.5000     79.743      0.276      0.153      2.464      0.055      3.153      8.453      0.222     12.601     14.582     68.576     12.738      8.217     71.906      8.719      8.457     85.167      0.269
  5433.0000     79.235      0.290      0.161      2.451      0.051      2.979      8.495      0.233     12.263     14.256     70.147     14.029      8.217     76.342      8.719      8.471     85.014      0.271
  5433.5000     78.446      0.293      0.160      2.453      0.064      2.806      8.520      0.234     12.161     14.171     70.569     14.046      8.214     77.253      8.719      8.454     86.555      0.275
  5434.0000     75.605      0.284      0.168      2.439      0.052      2.788      8.537      0.233     12.240     14.290     69.977     12.023      8.205     79.375      8.719      8.425     87.856      0.276
  5434.5000     71.520      0.275      0.165      2.445      0.050      2.801      8.537      0.227     12.635     14.667     68.181     11.754      8.197     77.464      8.719      8.420     87.059      0.276
