~Version Information                                                          
 VERS.                             1.20: CWLS log ASCII Standard -VERSION 1.20
 WRAP.                               NO: One line per depth step              
~Well Information Block                                                       
#MNEM.UNIT           Data Type           Information                          
#--------- ----------------------------  -------------------------------------
 STRT.F                         93.0000:                                      
 STOP.F                       8960.0000:                                      
 STEP.F                          0.5000:                                      
 NULL.                        -999.2500:                                      
 COMP.                     Company Name: ENRON OIL & GAS COMPANY              
 WELL.                        Well Name: UNIVERSITY 6-7 NO.1                  
 FLD .                       Field Name: GRIERSON                             
 LOC .                         Location: SECTION 7,BLOCK6                     
 SLOC.                 SURFACE Location: 874 FEL X 2193 FSL                   
 SECT.                          Section:                                      
 TOWN.                         Township:                                      
 RANG.                            Range:                                      
 COUN.                           County: REAGAN                               
 STAT.                            State: TEXAS                                
 CTRY.                          Country: USA                                  
 SRVC.                  Service Company: HALLIBURTON ENERGY SERVICES          
 DATE.                 DATE as MM/DD/YY: 04/29/97                             
 APIN.                  API Well Number: 42-383-34746                         
 UWI .                   UNIQUE WELL ID: 42383347460000                       
 PD  .                  Permanent Datum: G.L.                                 
 RUN .                       Run Number: ONE                                  
 DMF .           Drilling Measured From: KELLY BUSHING                        
 LMF .            Logging Measured From: K.B.                                 
 TCS .         Time Circulation Stopped:                                      
 TLAB.            Time Logger at Bottom:                                      
 DFT .              Drilling Fluid Type: FRESH GEL                            
 MCSS.           Mud Cake Sample Source: MEAS.                                
 MFSS.       Mud Filtrate Sample Source: MEAS.                                
 MSS .                Mud Sample Source: FLOWLINE                             
 LCCN.             Logging Company Name: HALLIBURTON ENERGY SERVICES          
 LUL .              Equiptment Location: ODESSA                               
 LUN .              Logging Unit Number: 51941                                
 ENGI.          Logging Engineer's Name: MART RILEY                           
 WITN.                   Witness's Name: N. VAN LIEW                          
~Curve Information Block                                                      
#MNEM.UNIT                   API CODE    Curve Description                  
#---------                 ------------  -------------------------------------
 DEPT.F                    00 000 00 00:   1  Depth Curve                     
 C13 .INCH                 99 075 22 05:   2  CALIPER PADS 1 - 3    -FACT-
 C24 .INCH                 99 075 22 05:   3  CALIPER PADS 2 - 4    -FACT-
 DT  .US/F                 99 075 22 05:   4  SONIC TRANSIT TIME          
 ILD .OHMM                 99 075 22 05:   5  IL, DEEP RESISTIVITY        
 ILM .OHMM                 99 075 22 05:   6  IL, MEDIUM RESISTIVITY      
 SGRD.OHMM                 99 075 22 05:   7  SHORT GUARD RESISTIVITY     
 SP  .MV                   99 075 22 05:   8  SPONTANEOUS POTENTIAL       
 SPHI.DECP                 99 075 22 05:   9  SONIC POROSITY  -LIME-      
 GR  .GAPI                 99 075 22 05:  10  GAMMA RAY                   
 CALI.INCH                 99 075 22 05:  11  CALIPER                     
 DPHI.DECP                 99 075 22 05:  12  DENSITY POROSITY -LIME-     
 GR2 .GAPI                 99 075 22 05:  13  GAMMA RAY 2ND SERVICE       
 NPHI.DECP                 99 075 22 05:  14  NEUTRON POROSITY -LIME-     
 PE  .B/E                  99 075 22 05:  15  PHOTO-ELECTRIC FACTOR       
 RHOB.G/C3                 99 075 22 05:  16  BULK DENSITY                
 DRHO.G/C3                 99 075 22 05:  17  DENSITY CORRECTION          
~Parameter Information Block                                                  
#MNEM.UNIT            Value              Description                          
#--------- ----------------------------  -------------------------------------
 EDF .F                       2732.0000: Elevation, Derrick Floor    
 EGL .F                       2715.0000: Elevation, Ground Level     
 EKB .F                       2733.0000: Elevation, Kelly Bushing    
 EPD .F                       2715.0000: Elevation Perminent Datum   
 TDD .F                       8950.0000: Total Depth-Driller         
 TDL .F                       8946.0000: Total Depth-Logger          
 CBD .F                       3000.0000: Casing Bottom Driller 1     
 CBL .F                       2998.0000: Casing Bottom Logger 1      
 TLI .F                       2980.0000: Top Logged Interval         
 BLI .F                       8941.0000: Bottom Logged Interval      
 DFD .LB/G                       9.4000: Drilling Fluid Density      
 DFPH.----                      10.0000: Drilling Fluid Ph           
 DFL .C3                        11.2000: Drilling Fluid Loss         
 DFV .CP                        46.0000: Drilling Fluid Viscosity    
 RM  .CP                        46.0000: Mud Sample Resistivity      
 MST .DEGF                      74.0000: Mud Sample Temperature      
 RMF .DEGF                      74.0000: Mud Filtrate Resistivity    
 MFST.DEGF                      74.0000: Mud Filtrate Sample Temp    
 RMC .DEGF                      74.0000: Mud Cake Resistivity        
 MCST.DEGF                      74.0000: Mud Cake Sample Temperature 
 MRT .DEGF                     165.0000: Maximum Recorded Temperature
 BHT .DEGF                     165.0000: Bottom Hole Temperature     
~A   DEPT       C13        C24        DT         ILD        ILM        SGRD       SP         SPHI       GR         CALI       DPHI       GR2        NPHI       PE         RHOB       DRHO  
# ...
  7747.0000      8.349      8.436     84.767     27.176     34.301     39.906    117.356      0.263    100.912      8.514      0.131    100.171      0.246      2.980      2.486      0.038
  7747.5000      8.343      8.443     83.514     27.177     35.291     45.338    117.326      0.254     98.486      8.508      0.129     99.766      0.240      2.916      2.489      0.041
  7748.0000      8.338      8.443     83.398     26.560     34.887     57.415    117.285      0.253     94.243      8.480      0.127     99.160      0.228      2.937      2.493      0.041
  7748.5000      8.338      8.445     83.563     25.772     33.050     64.445    117.297      0.254     92.222      8.459      0.128     93.165      0.226      3.061      2.490      0.027
  7749.0000      8.341      8.455     80.302     25.256     30.627     71.633    117.485      0.231     85.755      8.459      0.114     91.481      0.217      3.030      2.515      0.032
  7749.5000      8.351      8.460     79.561     25.270     28.470     69.145    117.845      0.226     84.677      8.466      0.111     95.927      0.205      2.931      2.519      0.036
  7750.0000      8.346      8.459     82.577     25.728     27.381     65.985    118.351      0.247     83.666      8.473      0.115     96.870      0.201      2.906      2.513      0.034
  7750.5000      8.346      8.453     81.837     26.227     27.693     60.052    118.976      0.242     86.159      8.473      0.123    101.316      0.221      3.081      2.499      0.019
  7751.0000      8.338      8.449     81.783     26.494     29.384     52.316    119.647      0.242     85.283      8.466      0.109     97.139      0.237      3.174      2.524      0.018
  7751.5000      8.330      8.448     81.789     26.395     31.652     56.494    120.337      0.242     77.873      8.480      0.087     82.386      0.210      3.239      2.562      0.033
  7752.0000      8.334      8.440     78.337     26.169     32.827     74.868    120.979      0.217     69.991      8.473      0.060     71.271      0.155      3.445      2.608      0.044
  7752.5000      8.332      8.451     76.222     26.090     32.252     99.204    121.415      0.202     60.224      8.521      0.045     59.213      0.114      3.476      2.633      0.041
  7753.0000      8.322      8.446     69.225     25.858     30.674    119.731    121.704      0.153     54.093      8.521      0.055     58.270      0.104      3.588      2.615      0.036
  7753.5000      8.330      8.463     63.945     25.113     28.778     82.398    121.763      0.116     63.524      8.480      0.075     71.137      0.124      3.366      2.581      0.045
  7754.0000      8.343      8.477     69.291     23.861     26.696     60.656    121.680      0.153     74.370      8.466      0.090     85.822      0.173      3.279      2.556      0.051
  7754.5000      8.340      8.496     74.480     22.424     24.439     56.924    121.545      0.190     89.931      8.508      0.118    102.394      0.218      3.162      2.508      0.035
  7755.0000      8.328      8.507     77.181     21.254     22.567     49.680    121.439      0.209    101.855      8.501      0.127    120.110      0.245      3.131      2.493      0.041
  7755.5000      8.324      8.509     81.728     20.628     21.370     48.244    121.321      0.241    108.591      8.480      0.141    121.997      0.256      3.277      2.469      0.023
  7756.0000      8.330      8.524     84.816     20.646     20.888     43.534    121.185      0.263    109.534      8.459      0.127    125.702      0.259      3.346      2.493      0.027
  7756.5000      8.325      8.541     85.064     21.168     21.246     44.886    121.044      0.265    108.120      8.452      0.115    116.203      0.247      3.413      2.513      0.035
  7757.0000      8.314      8.544     86.900     21.848     22.589     45.455    121.038      0.278    101.046      8.459      0.111     97.813      0.224      3.547      2.520      0.026
  7757.5000      8.315      8.550     84.222     22.196     24.999     45.091    121.026      0.259     94.849      8.466      0.103     78.210      0.197      3.809      2.534      0.006
  7758.0000      8.331      8.530     78.319     21.678     27.632     54.835    121.386      0.217     79.490      8.487      0.076     59.954      0.161      4.046      2.581      0.009
  7758.5000      8.304      8.515     73.933     20.665     28.022     73.121    121.698      0.186     63.188      8.508      0.044     42.911      0.106      3.923      2.635      0.029
  7759.0000      8.287      8.512     68.337     19.568     25.362    132.333    122.128      0.147     50.591      8.494      0.012     45.942      0.080      3.923      2.689      0.041
  7759.5000      8.280      8.512     64.548     18.529     21.651    125.045    122.428      0.120     53.218      8.508      0.028     58.674      0.083      3.912      2.662      0.040
  7760.0000      8.284      8.535     63.952     17.671     18.710     59.212    122.858      0.116     66.691      8.459      0.063     84.475      0.132      3.623      2.603      0.042
  7760.5000      8.293      8.561     67.294     16.825     16.871     37.106    123.094      0.139     84.879      8.466      0.089    104.886      0.211      3.400      2.558      0.049
  7761.0000      8.312      8.587     80.616     16.048     15.893     29.438    123.177      0.233    103.202      8.494      0.106    118.089      0.257      3.260      2.529      0.059
  7761.5000      8.317      8.601     89.097     15.491     15.536     28.347    123.230      0.293    112.970      8.514      0.118    120.110      0.269      3.393      2.509      0.049
  7762.0000      8.328      8.611     89.567     15.309     15.649     29.620    123.265      0.297    109.197      8.528      0.106    112.566      0.258      3.397      2.529      0.052
  7762.5000      8.317      8.617     87.108     15.559     16.187     35.589    123.277      0.279    102.057      8.508      0.102    108.524      0.250      3.372      2.535      0.051
  7763.0000      8.306      8.617     84.791     16.210     17.072     40.607    123.377      0.263    104.347      8.508      0.111     97.139      0.231      3.404      2.520      0.042
  7763.5000      8.300      8.628     83.364     17.133     18.219     45.193    123.548      0.253    102.124      8.487      0.121     91.211      0.226      3.362      2.503      0.027
  7764.0000      8.295      8.629     80.195     17.970     19.513     49.341    123.719      0.231     95.522      8.501      0.116     85.553      0.225      3.287      2.511      0.038
  7764.5000      8.303      8.634     78.208     18.491     20.452     49.188    123.860      0.216     94.579      8.535      0.121     87.102      0.218      3.269      2.504      0.038
  7765.0000      8.300      8.642     80.228     18.597     20.669     56.756    123.860      0.231     92.424      8.570      0.104     86.294      0.207      3.271      2.531      0.041
  7765.5000      8.302      8.644     77.770     18.360     20.138     53.338    123.807      0.213     83.801      8.570      0.098     86.159      0.193      3.254      2.542      0.045
  7766.0000      8.314      8.641     77.091     17.979     19.196     43.549    123.701      0.209     87.439      8.612      0.103     92.356      0.201      3.349      2.533      0.043
  7766.5000      8.313      8.650     78.591     17.451     18.370     40.868    123.565      0.219     89.594      8.632      0.100     93.165      0.218      3.345      2.539      0.048
  7767.0000      8.325      8.645     77.973     16.740     17.654     34.493    123.518      0.215     89.325      8.584      0.120     92.693      0.238      3.269      2.505      0.028
  7767.5000      8.328      8.638     79.591     15.982     17.014     35.920    123.577      0.226     89.325      8.549      0.122     93.636      0.250      3.162      2.501      0.042
  7768.0000      8.337      8.647     83.391     15.273     16.386     35.866    123.713      0.253     93.097      8.591      0.127     97.004      0.247      3.183      2.493      0.043
