~Version Information                                                          
 VERS.                             1.20: CWLS log ASCII Standard -VERSION 1.20
 WRAP.                               NO: One line per depth step              
~Well Information Block                                                       
#MNEM.UNIT           Data Type           Information                          
#--------- ----------------------------  -------------------------------------
 STRT.F                         92.0000:                                      
 STOP.F                       9060.0000:                                      
 STEP.F                          0.5000:                                      
 NULL.                        -999.2500:                                      
 COMP.                     Company Name: ENRON OIL & GAS                      
 WELL.                        Well Name: UNIVERSITY 6-18W NO.1                
 FLD .                       Field Name: WILDCAT                              
 LOC .                         Location: SECTION 18, BLOCK 6                  
 SLOC.                 SURFACE Location: 1216' FNL & 505' FWL                 
 SECT.                          Section: 18                                   
 TOWN.                         Township:                                      
 RANG.                            Range:                                      
 COUN.                           County: REAGAN                               
 STAT.                            State: TX                                   
 CTRY.                          Country: USA                                  
 SRVC.                  Service Company: HALLIBURTON ENERGY SERVICES          
 DATE.                 DATE as MM/DD/YY: 08/17/97                             
 APIN.                  API Well Number: 42-383-34800                         
 UWI .                   UNIQUE WELL ID: 42383348000000                       
 PD  .                  Permanent Datum: G.L.                                 
 RUN .                       Run Number: 1&2                                  
 DMF .           Drilling Measured From: KELLY BUSHING                        
 LMF .            Logging Measured From: K.B.                                 
 TCS .         Time Circulation Stopped: 0100                                 
 TLAB.            Time Logger at Bottom: 0830                                 
 DFT .              Drilling Fluid Type: FW-PAC-STARCH                        
 MCSS.           Mud Cake Sample Source: N/A                                  
 MFSS.       Mud Filtrate Sample Source: MEAS                                 
 MSS .                Mud Sample Source: MUD PIT                              
 LCCN.             Logging Company Name: HALLIBURTON ENERGY SERVICES          
 LUL .              Equiptment Location: ODTX                                 
 LUN .              Logging Unit Number: 52525                                
 ENGI.          Logging Engineer's Name: LAUFER                               
 WITN.                   Witness's Name: N. VAN LIEW                          
~Curve Information Block                                                      
#MNEM.UNIT                   API CODE    Curve Description                  
#---------                 ------------  -------------------------------------
 DEPT.F                    00 000 00 00:   1  Depth Curve                     
 GR2 .GAPI                 00 000 00 00:   2  GAMMA RAY -DENSITY-NEUTRON- 
 NPHI.DECP                 00 000 00 00:   3  NEUTRON POROSITY -LIME-     
 DPHI.DECP                 00 000 00 00:   4  DENSITY POROSITY -LIME-     
 RHOB.G/C3                 00 000 00 00:   5  BULK DENSITY                
 DRHO.G/C3                 00 000 00 00:   6  DENSITY CORRECTION          
 PE  .B/E                  00 000 00 00:   7  PHOTO-ELECTRIC FACTOR       
 CALI.IN                   00 000 00 00:   8  CALIPER -DENSITY-           
 PHIX.DECP                 00 000 00 00:   9  CROSSPLOT POROSITY          
 LLS .OHMM                 00 000 00 00:  10  LATERO-LOG, SHALLOW RESIS.  
 LLD .OHMM                 00 000 00 00:  11  LATERO-LOG, DEEP RESISTIVITY
 CLLD.MMHO                 00 000 00 00:  12  LATERO-LOG, DEEP CONDUCTIVTY
 MGRD.OHMM                 00 000 00 00:  13  MICRO-SFL   RESISTIVITY     
 CAL2.IN                   00 000 00 00:  14  CALIPER -MICRO-SFL-         
 GR  .GAPI                 00 000 00 00:  15  GAMMA RAY -SONIC-           
 C13 .IN                   00 000 00 00:  16  CALIPER PADS 1 - 3    -FACT-
 C24 .IN                   00 000 00 00:  17  CALIPER PADS 2 - 4    -FACT-
 DT  .US/F                 00 000 00 00:  18  SONIC TRANSIT TIME          
 SPHI.DECP                 00 000 00 00:  19  SONIC POROSITY  -LIME-      
~Parameter Information Block                                                  
#MNEM.UNIT            Value              Description                          
#--------- ----------------------------  -------------------------------------
 EDF .F                       2695.0000: Elevation, Derrick Floor    
 EGL .F                       2678.0000: Elevation, Ground Level     
 EKB .F                       2696.0000: Elevation, Kelly Bushing    
 EPD .F                       2678.0000: Elevation Perminent Datum   
 TDD .F                       9050.0000: Total Depth-Driller         
 TDL .F                       9044.0000: Total Depth-Logger          
 CBD .F                       3050.0000: Casing Bottom Driller 1     
 CBL .F                       3044.0000: Casing Bottom Logger 1      
 TLI .F                       2900.0000: Top Logged Interval         
 BLI .F                       9037.0000: Bottom Logged Interval      
 DFD .LB/G                       9.1000: Drilling Fluid Density      
 DFPH.----                      10.5000: Drilling Fluid Ph           
 DFL .C3                         5.6000: Drilling Fluid Loss         
 DFV .CP                        52.0000: Drilling Fluid Viscosity    
 RM  .CP                        52.0000: Mud Sample Resistivity      
 MST .DEGF                      69.0000: Mud Sample Temperature      
 RMF .DEGF                      69.0000: Mud Filtrate Resistivity    
 MFST.DEGF                      69.0000: Mud Filtrate Sample Temp    
 RMC .DEGF                      69.0000: Mud Cake Resistivity        
 MCST.DEGF                      69.0000: Mud Cake Sample Temperature 
 MRT .DEGF                     150.0000: Maximum Recorded Temperature
 BHT .DEGF                     111.0000: Bottom Hole Temperature     
~A   DEPT       GR2        NPHI       DPHI       RHOB       DRHO       PE         CALI       PHIX       LLS        LLD        CLLD       MGRD       CAL2       GR         C13        C24        DT         SPHI  
# ...
  6215.0000     95.033      0.227      0.115      2.525      0.042      3.015      8.537      0.182     17.045     16.139     61.960     22.732      8.228     89.878      8.710      8.538     76.944      0.219
  6215.5000     93.700      0.228      0.102      2.546      0.048      3.013      8.520      0.178     14.789     14.211     70.369     21.071      8.222     86.950      8.708      8.555     75.845      0.206
  6216.0000     84.477      0.219      0.099      2.551      0.027      3.454      8.520      0.172     14.642     13.878     72.056     18.005      8.199     80.567      8.682      8.570     76.366      0.199
  6216.5000     72.888      0.201      0.076      2.587      0.027      3.799      8.520      0.154     15.645     14.463     69.142     14.054      8.189     71.537      8.651      8.587     75.712      0.197
  6217.0000     68.031      0.171      0.058      2.617      0.037      3.787      8.520      0.131     17.745     16.158     61.888     11.972      8.194     64.471      8.641      8.581     74.659      0.176
  6217.5000     64.506      0.165      0.059      2.615      0.039      3.830      8.520      0.128     18.390     16.882     59.236     23.075      8.208     60.141      8.664      8.570     69.852      0.151
  6218.0000     70.819      0.184      0.075      2.590      0.030      3.851      8.520      0.144     17.382     16.178     61.812     32.578      8.217     61.543      8.699      8.581     62.719      0.142
  6218.5000     84.530      0.227      0.098      2.552      0.026      3.581      8.512      0.176     15.960     14.913     67.054     21.298      8.220     69.468      8.737      8.596     65.052      0.144
  6219.0000     95.611      0.252      0.111      2.531      0.042      3.121      8.512      0.194     13.898     13.069     76.518     12.752      8.219     80.217      8.758      8.614     72.255      0.166
  6219.5000    102.239      0.266      0.127      2.506      0.061      3.055      8.520      0.207     13.062     12.185     82.069     14.077      8.202     87.721      8.778      8.625     77.117      0.193
  6220.0000    101.187      0.288      0.160      2.453      0.039      3.000      8.520      0.231     12.664     11.836     84.488     15.272      8.181     97.084      8.793      8.637     78.027      0.223
  6220.5000     94.471      0.288      0.159      2.453      0.040      2.924      8.520      0.231     12.788     12.098     82.661     13.392      8.167     98.066      8.755      8.611     80.259      0.260
  6221.0000     92.473      0.261      0.156      2.459      0.046      2.921      8.520      0.216     14.625     13.289     75.250     12.313      8.167     96.032      8.692      8.542     91.052      0.278
  6221.5000     90.474      0.245      0.150      2.468      0.046      2.874      8.520      0.206     17.825     15.724     63.597     14.996      8.167     95.699      8.626      8.476     94.134      0.273
  6222.0000     91.999      0.248      0.139      2.487      0.038      2.946      8.520      0.202     21.638     18.524     53.983     18.067      8.168     95.909      8.640      8.476     82.423      0.259
  6222.5000     93.244      0.247      0.137      2.489      0.028      2.859      8.520      0.201     24.146     20.550     48.662     17.802      8.170     95.629      8.640      8.463     74.630      0.233
  6223.0000     94.366      0.241      0.133      2.496      0.030      2.840      8.537      0.197     22.671     19.014     52.592     23.009      8.181     96.383      8.640      8.467     77.441      0.215
  6223.5000     91.754      0.225      0.123      2.512      0.031      2.929      8.520      0.184     19.479     16.304     61.334     29.308      8.194     95.646      8.640      8.479     80.912      0.215
  6224.0000     90.491      0.213      0.112      2.529      0.035      2.932      8.503      0.174     16.381     14.149     70.676     26.719      8.198     94.857      8.648      8.488     78.912      0.213
  6224.5000     94.051      0.212      0.104      2.543      0.043      2.957      8.503      0.170     14.717     12.967     77.119     17.872      8.196     89.667      8.680      8.490     74.678      0.205
  6225.0000     97.435      0.226      0.111      2.532      0.041      2.978      8.520      0.180     14.260     12.686     78.827     12.612      8.190     92.771      8.696      8.488     74.392      0.197
  6225.5000    100.731      0.250      0.121      2.516      0.038      2.961      8.520      0.196     14.463     12.999     76.929     11.458      8.179     95.927      8.665      8.486     75.839      0.205
  6226.0000     99.241      0.262      0.127      2.506      0.033      3.093      8.520      0.205     15.037     13.873     72.083     15.359      8.157     97.365      8.629      8.482     78.536      0.224
  6226.5000     84.793      0.263      0.129      2.503      0.009      3.505      8.503      0.206     17.109     15.834     63.155     16.325      8.117     94.033      8.632      8.477     82.662      0.236
  6227.0000     69.205      0.220      0.095      2.557      0.013      3.667      8.444      0.171     22.786     19.762     50.601     14.253      8.080     83.741      8.624      8.438     83.711      0.233
  6227.5000     58.913      0.155      0.071      2.595      0.029      3.619      8.343      0.126     33.333     26.303     38.018     13.000      8.073     68.153      8.564      8.372     79.602      0.200
  6228.0000     59.562      0.122      0.070      2.597      0.042      3.685      8.293      0.106     43.581     34.166     29.269     23.803      8.087     62.210      8.513      8.315     68.572      0.150
  6228.5000     70.047      0.139      0.095      2.557      0.028      3.690      8.276      0.126     47.473     37.609     26.589     59.062      8.103     64.506      8.521      8.305     57.514      0.127
  6229.0000     84.390      0.196      0.115      2.525      0.036      3.272      8.276      0.166     44.936     35.490     28.177     50.995      8.113     70.836      8.521      8.310     61.159      0.135
  6229.5000     96.523      0.242      0.128      2.504      0.058      3.014      8.301      0.195     39.377     31.584     31.662     28.111      8.114     82.689      8.521      8.308     75.019      0.166
  6230.0000     99.363      0.245      0.138      2.488      0.049      2.963      8.352      0.201     36.309     28.723     34.815     27.126      8.114     93.244      8.521      8.306     81.581      0.207
  6230.5000     97.435      0.238      0.144      2.478      0.043      2.953      8.369      0.200     34.493     27.414     36.478     30.417      8.113     97.189      8.521      8.302     79.536      0.226
  6231.0000     92.683      0.237      0.142      2.481      0.040      3.021      8.360      0.198     33.087     26.925     37.140     31.613      8.096     94.682      8.526      8.295     77.881      0.223
  6231.5000     83.127      0.226      0.141      2.482      0.030      3.136      8.326      0.192     34.500     28.205     35.455     30.130      8.059     90.071      8.526      8.303     78.337      0.221
  6232.0000     71.853      0.192      0.119      2.518      0.036      3.121      8.301      0.165     35.832     29.638     33.740     24.735      8.039     78.551      8.510      8.318     79.825      0.216
  6232.5000     63.069      0.139      0.092      2.562      0.060      3.284      8.318      0.125     33.855     29.056     34.416     23.038      8.063     66.435      8.483      8.305     78.392      0.195
  6233.0000     62.683      0.122      0.086      2.571      0.069      3.304      8.310      0.112     28.564     25.514     39.194     34.097      8.120     59.615      8.487      8.295     71.145      0.162
  6233.5000     71.292      0.139      0.087      2.571      0.072      3.260      8.268      0.123     21.544     21.306     46.935     49.901      8.166     62.753      8.542      8.297     62.387      0.142
  6234.0000     82.917      0.196      0.113      2.529      0.070      3.158      8.301      0.164     18.027     18.635     53.663     26.745      8.192     72.361      8.631      8.326     63.061      0.148
