~Version Information                                                          
 VERS.                             1.20: CWLS log ASCII Standard -VERSION 1.20
 WRAP.                               NO: One line per depth step              
~Well Information Block                                                       
#MNEM.UNIT           Data Type           Information                          
#--------- ----------------------------  -------------------------------------
 STRT.F                         92.0000:                                      
 STOP.F                       9060.0000:                                      
 STEP.F                          0.5000:                                      
 NULL.                        -999.2500:                                      
 COMP.                     Company Name: ENRON OIL & GAS                      
 WELL.                        Well Name: UNIVERSITY 6-18W NO.1                
 FLD .                       Field Name: WILDCAT                              
 LOC .                         Location: SECTION 18, BLOCK 6                  
 SLOC.                 SURFACE Location: 1216' FNL & 505' FWL                 
 SECT.                          Section: 18                                   
 TOWN.                         Township:                                      
 RANG.                            Range:                                      
 COUN.                           County: REAGAN                               
 STAT.                            State: TX                                   
 CTRY.                          Country: USA                                  
 SRVC.                  Service Company: HALLIBURTON ENERGY SERVICES          
 DATE.                 DATE as MM/DD/YY: 08/17/97                             
 APIN.                  API Well Number: 42-383-34800                         
 UWI .                   UNIQUE WELL ID: 42383348000000                       
 PD  .                  Permanent Datum: G.L.                                 
 RUN .                       Run Number: 1&2                                  
 DMF .           Drilling Measured From: KELLY BUSHING                        
 LMF .            Logging Measured From: K.B.                                 
 TCS .         Time Circulation Stopped: 0100                                 
 TLAB.            Time Logger at Bottom: 0830                                 
 DFT .              Drilling Fluid Type: FW-PAC-STARCH                        
 MCSS.           Mud Cake Sample Source: N/A                                  
 MFSS.       Mud Filtrate Sample Source: MEAS                                 
 MSS .                Mud Sample Source: MUD PIT                              
 LCCN.             Logging Company Name: HALLIBURTON ENERGY SERVICES          
 LUL .              Equiptment Location: ODTX                                 
 LUN .              Logging Unit Number: 52525                                
 ENGI.          Logging Engineer's Name: LAUFER                               
 WITN.                   Witness's Name: N. VAN LIEW                          
~Curve Information Block                                                      
#MNEM.UNIT                   API CODE    Curve Description                  
#---------                 ------------  -------------------------------------
 DEPT.F                    00 000 00 00:   1  Depth Curve                     
 GR2 .GAPI                 00 000 00 00:   2  GAMMA RAY -DENSITY-NEUTRON- 
 NPHI.DECP                 00 000 00 00:   3  NEUTRON POROSITY -LIME-     
 DPHI.DECP                 00 000 00 00:   4  DENSITY POROSITY -LIME-     
 RHOB.G/C3                 00 000 00 00:   5  BULK DENSITY                
 DRHO.G/C3                 00 000 00 00:   6  DENSITY CORRECTION          
 PE  .B/E                  00 000 00 00:   7  PHOTO-ELECTRIC FACTOR       
 CALI.IN                   00 000 00 00:   8  CALIPER -DENSITY-           
 PHIX.DECP                 00 000 00 00:   9  CROSSPLOT POROSITY          
 LLS .OHMM                 00 000 00 00:  10  LATERO-LOG, SHALLOW RESIS.  
 LLD .OHMM                 00 000 00 00:  11  LATERO-LOG, DEEP RESISTIVITY
 CLLD.MMHO                 00 000 00 00:  12  LATERO-LOG, DEEP CONDUCTIVTY
 MGRD.OHMM                 00 000 00 00:  13  MICRO-SFL   RESISTIVITY     
 CAL2.IN                   00 000 00 00:  14  CALIPER -MICRO-SFL-         
 GR  .GAPI                 00 000 00 00:  15  GAMMA RAY -SONIC-           
 C13 .IN                   00 000 00 00:  16  CALIPER PADS 1 - 3    -FACT-
 C24 .IN                   00 000 00 00:  17  CALIPER PADS 2 - 4    -FACT-
 DT  .US/F                 00 000 00 00:  18  SONIC TRANSIT TIME          
 SPHI.DECP                 00 000 00 00:  19  SONIC POROSITY  -LIME-      
~Parameter Information Block                                                  
#MNEM.UNIT            Value              Description                          
#--------- ----------------------------  -------------------------------------
 EDF .F                       2695.0000: Elevation, Derrick Floor    
 EGL .F                       2678.0000: Elevation, Ground Level     
 EKB .F                       2696.0000: Elevation, Kelly Bushing    
 EPD .F                       2678.0000: Elevation Perminent Datum   
 TDD .F                       9050.0000: Total Depth-Driller         
 TDL .F                       9044.0000: Total Depth-Logger          
 CBD .F                       3050.0000: Casing Bottom Driller 1     
 CBL .F                       3044.0000: Casing Bottom Logger 1      
 TLI .F                       2900.0000: Top Logged Interval         
 BLI .F                       9037.0000: Bottom Logged Interval      
 DFD .LB/G                       9.1000: Drilling Fluid Density      
 DFPH.----                      10.5000: Drilling Fluid Ph           
 DFL .C3                         5.6000: Drilling Fluid Loss         
 DFV .CP                        52.0000: Drilling Fluid Viscosity    
 RM  .CP                        52.0000: Mud Sample Resistivity      
 MST .DEGF                      69.0000: Mud Sample Temperature      
 RMF .DEGF                      69.0000: Mud Filtrate Resistivity    
 MFST.DEGF                      69.0000: Mud Filtrate Sample Temp    
 RMC .DEGF                      69.0000: Mud Cake Resistivity        
 MCST.DEGF                      69.0000: Mud Cake Sample Temperature 
 MRT .DEGF                     150.0000: Maximum Recorded Temperature
 BHT .DEGF                     111.0000: Bottom Hole Temperature     
~A   DEPT       GR2        NPHI       DPHI       RHOB       DRHO       PE         CALI       PHIX       LLS        LLD        CLLD       MGRD       CAL2       GR         C13        C24        DT         SPHI  
# ...
  4206.5000     80.988      0.242      0.125      2.509      0.039      2.801      9.479      0.194      8.292      9.685    103.257      8.218      9.297     73.747      9.824      9.602     75.023      0.194
  4207.0000     79.638      0.242      0.131      2.499      0.034      2.831      9.530      0.196      8.278      9.629    103.855      8.348      9.297     72.326      9.813      9.601     75.619      0.196
  4207.5000     78.814      0.242      0.126      2.506      0.038      2.815      9.589      0.195      8.186      9.483    105.447      8.448      9.289     72.905      9.815      9.601     75.756      0.197
  4208.0000     75.728      0.239      0.129      2.503      0.037      2.771      9.589      0.194      8.034      9.268    107.900      8.297      9.279     72.221      9.815      9.598     75.287      0.195
  4208.5000     74.027      0.230      0.124      2.511      0.042      2.788      9.530      0.187      7.804      9.020    110.868      7.975      9.276     72.063      9.815      9.588     74.627      0.193
  4209.0000     72.502      0.231      0.127      2.506      0.039      2.726      9.530      0.189      7.531      8.681    115.188      7.654      9.275     74.325      9.813      9.580     74.566      0.192
  4209.5000     72.940      0.235      0.129      2.502      0.037      2.716      9.530      0.192      7.267      8.330    120.044      7.427      9.258     74.483      9.809      9.577     74.748      0.190
  4210.0000     71.082      0.228      0.129      2.502      0.039      2.698      9.547      0.188      7.086      8.091    123.589      6.998      9.240     72.326      9.805      9.569     74.444      0.189
  4210.5000     69.784      0.220      0.133      2.496      0.034      2.635      9.547      0.185      7.051      8.058    124.103      6.547      9.215     72.274      9.791      9.554     73.772      0.189
  4211.0000     68.925      0.217      0.136      2.491      0.030      2.663      9.530      0.185      7.167      8.167    122.444      6.375      9.175     71.643      9.772      9.534     74.119      0.188
  4211.5000     69.276      0.220      0.134      2.495      0.032      2.723      9.513      0.186      7.438      8.477    117.967      6.350      9.136     70.170      9.751      9.503     74.406      0.188
  4212.0000     71.204      0.226      0.122      2.513      0.042      2.824      9.479      0.185      7.828      8.894    112.437      6.459      9.102     70.117      9.733      9.471     74.228      0.190
  4212.5000     77.814      0.233      0.118      2.520      0.045      2.903      9.454      0.186      8.257      9.368    106.741      6.818      9.070     73.168      9.716      9.436     74.561      0.192
  4213.0000     82.145      0.240      0.120      2.517      0.042      2.997      9.404      0.191      8.683      9.896    101.052      7.449      9.046     77.744      9.703      9.396     75.184      0.197
  4213.5000     91.350      0.256      0.117      2.521      0.047      3.067      9.404      0.198      9.084     10.386     96.283      8.063      9.033     81.847      9.684      9.358     76.295      0.204
  4214.0000     99.574      0.261      0.114      2.526      0.055      3.131      9.370      0.199      9.410     10.720     93.280      8.540      9.015     85.634      9.659      9.325     77.633      0.213
  4214.5000    101.064      0.267      0.124      2.511      0.046      3.150      9.294      0.206      9.551     10.945     91.362      9.026      9.005     87.370      9.644      9.306     79.252      0.223
  4215.0000    102.274      0.261      0.122      2.514      0.048      3.150      9.286      0.203      9.505     10.908     91.675      9.593      8.997     86.634      9.631      9.281     80.795      0.230
  4215.5000    102.555      0.263      0.115      2.525      0.053      3.166      9.286      0.201      9.308     10.722     93.269     10.117      8.989     83.057      9.615      9.254     81.011      0.233
  4216.0000    100.450      0.260      0.112      2.529      0.052      3.191      9.244      0.198      9.175     10.553     94.756      9.890      8.960     81.584      9.585      9.231     80.394      0.234
  4216.5000    101.923      0.252      0.106      2.540      0.055      3.210      9.277      0.192      9.283     10.638     93.999      9.252      8.922     83.110      9.572      9.205     80.180      0.231
  4217.0000    107.920      0.256      0.114      2.527      0.051      3.227      9.277      0.197      9.688     11.034     90.631      8.844      8.889     88.633      9.553      9.179     80.184      0.231
  4217.5000    109.410      0.269      0.117      2.522      0.052      3.351      9.235      0.204     10.148     11.537     86.679      8.961      8.869     93.630      9.531      9.158     80.183      0.237
  4218.0000    110.515      0.276      0.126      2.507      0.045      3.409      9.235      0.211     10.438     11.877     84.196      9.467      8.862    101.520      9.507      9.131     81.875      0.243
  4218.5000    110.620      0.265      0.133      2.495      0.036      3.364      9.244      0.209     10.448     11.869     84.250     10.372      8.868    105.518      9.489      9.107     83.692      0.246
  4219.0000    109.919      0.265      0.130      2.501      0.037      3.401      9.244      0.208     10.192     11.634     85.955     11.402      8.875    104.676      9.478      9.098     82.853      0.249
  4219.5000    108.533      0.268      0.124      2.510      0.039      3.376      9.227      0.207     10.032     11.421     87.562     11.301      8.872    100.784      9.472      9.098     81.914      0.247
  4220.0000    104.150      0.268      0.122      2.514      0.042      3.324      9.303      0.206      9.965     11.299     88.500     10.009      8.863     95.576      9.472      9.098     82.294      0.244
  4220.5000    100.065      0.267      0.124      2.510      0.040      3.211      9.286      0.206     10.041     11.321     88.330      9.325      8.860     93.314      9.469      9.098     82.098      0.243
  4221.0000     93.209      0.263      0.119      2.518      0.048      3.224      9.252      0.203     10.251     11.526     86.761      9.772      8.860     90.842      9.468      9.098     81.869      0.241
  4221.5000     89.352      0.256      0.119      2.519      0.052      3.256      9.227      0.199     10.430     11.714     85.372     10.246      8.860     89.632      9.464      9.098     81.086      0.233
  4222.0000     88.861      0.247      0.123      2.513      0.044      3.234      9.227      0.196     10.532     11.782     84.874      9.983      8.860     91.631      9.459      9.098     79.581      0.224
  4222.5000     89.106      0.239      0.121      2.516      0.043      3.175      9.269      0.191     10.436     11.653     85.812      9.667      8.860     90.369      9.448      9.099     77.445      0.216
  4223.0000     89.597      0.241      0.129      2.502      0.030      3.171      9.227      0.195     10.148     11.330     88.259     10.070      8.863     86.529      9.431      9.099     76.484      0.210
  4223.5000     92.122      0.254      0.127      2.505      0.032      3.138      9.227      0.201      9.832     10.988     91.005     10.201      8.864     86.266      9.427      9.099     77.258      0.212
  4224.0000     94.524      0.263      0.135      2.493      0.030      3.030      9.218      0.208      9.616     10.723     93.253      9.531      8.862     86.844      9.429      9.099     78.481      0.221
  4224.5000     97.768      0.274      0.134      2.495      0.037      2.940      9.235      0.214      9.573     10.545     94.829      8.806      8.861     86.950      9.429      9.101     80.503      0.228
  4225.0000    101.625      0.271      0.141      2.482      0.032      2.897      9.286      0.215      9.649     10.539     94.887      9.032      8.861     90.158      9.429      9.099     81.544      0.230
  4225.5000    107.376      0.267      0.146      2.475      0.030      2.879      9.244      0.215      9.753     10.594     94.389      9.330      8.861     91.684      9.429      9.099     79.739      0.228
