~Version Information                                                          
 VERS.                             1.20: CWLS log ASCII Standard -VERSION 1.20
 WRAP.                               NO: One line per depth step              
~Well Information Block                                                       
#MNEM.UNIT           Data Type           Information                          
#--------- ----------------------------  -------------------------------------
 STRT.F                         93.0000:                                      
 STOP.F                       8960.0000:                                      
 STEP.F                          0.5000:                                      
 NULL.                        -999.2500:                                      
 COMP.                     Company Name: ENRON OIL & GAS COMPANY              
 WELL.                        Well Name: UNIVERSITY 6-7 NO.1                  
 FLD .                       Field Name: GRIERSON                             
 LOC .                         Location: SECTION 7,BLOCK6                     
 SLOC.                 SURFACE Location: 874 FEL X 2193 FSL                   
 SECT.                          Section:                                      
 TOWN.                         Township:                                      
 RANG.                            Range:                                      
 COUN.                           County: REAGAN                               
 STAT.                            State: TEXAS                                
 CTRY.                          Country: USA                                  
 SRVC.                  Service Company: HALLIBURTON ENERGY SERVICES          
 DATE.                 DATE as MM/DD/YY: 04/29/97                             
 APIN.                  API Well Number: 42-383-34746                         
 UWI .                   UNIQUE WELL ID: 42383347460000                       
 PD  .                  Permanent Datum: G.L.                                 
 RUN .                       Run Number: ONE                                  
 DMF .           Drilling Measured From: KELLY BUSHING                        
 LMF .            Logging Measured From: K.B.                                 
 TCS .         Time Circulation Stopped:                                      
 TLAB.            Time Logger at Bottom:                                      
 DFT .              Drilling Fluid Type: FRESH GEL                            
 MCSS.           Mud Cake Sample Source: MEAS.                                
 MFSS.       Mud Filtrate Sample Source: MEAS.                                
 MSS .                Mud Sample Source: FLOWLINE                             
 LCCN.             Logging Company Name: HALLIBURTON ENERGY SERVICES          
 LUL .              Equiptment Location: ODESSA                               
 LUN .              Logging Unit Number: 51941                                
 ENGI.          Logging Engineer's Name: MART RILEY                           
 WITN.                   Witness's Name: N. VAN LIEW                          
~Curve Information Block                                                      
#MNEM.UNIT                   API CODE    Curve Description                  
#---------                 ------------  -------------------------------------
 DEPT.F                    00 000 00 00:   1  Depth Curve                     
 C13 .INCH                 99 075 22 05:   2  CALIPER PADS 1 - 3    -FACT-
 C24 .INCH                 99 075 22 05:   3  CALIPER PADS 2 - 4    -FACT-
 DT  .US/F                 99 075 22 05:   4  SONIC TRANSIT TIME          
 ILD .OHMM                 99 075 22 05:   5  IL, DEEP RESISTIVITY        
 ILM .OHMM                 99 075 22 05:   6  IL, MEDIUM RESISTIVITY      
 SGRD.OHMM                 99 075 22 05:   7  SHORT GUARD RESISTIVITY     
 SP  .MV                   99 075 22 05:   8  SPONTANEOUS POTENTIAL       
 SPHI.DECP                 99 075 22 05:   9  SONIC POROSITY  -LIME-      
 GR  .GAPI                 99 075 22 05:  10  GAMMA RAY                   
 CALI.INCH                 99 075 22 05:  11  CALIPER                     
 DPHI.DECP                 99 075 22 05:  12  DENSITY POROSITY -LIME-     
 GR2 .GAPI                 99 075 22 05:  13  GAMMA RAY 2ND SERVICE       
 NPHI.DECP                 99 075 22 05:  14  NEUTRON POROSITY -LIME-     
 PE  .B/E                  99 075 22 05:  15  PHOTO-ELECTRIC FACTOR       
 RHOB.G/C3                 99 075 22 05:  16  BULK DENSITY                
 DRHO.G/C3                 99 075 22 05:  17  DENSITY CORRECTION          
~Parameter Information Block                                                  
#MNEM.UNIT            Value              Description                          
#--------- ----------------------------  -------------------------------------
 EDF .F                       2732.0000: Elevation, Derrick Floor    
 EGL .F                       2715.0000: Elevation, Ground Level     
 EKB .F                       2733.0000: Elevation, Kelly Bushing    
 EPD .F                       2715.0000: Elevation Perminent Datum   
 TDD .F                       8950.0000: Total Depth-Driller         
 TDL .F                       8946.0000: Total Depth-Logger          
 CBD .F                       3000.0000: Casing Bottom Driller 1     
 CBL .F                       2998.0000: Casing Bottom Logger 1      
 TLI .F                       2980.0000: Top Logged Interval         
 BLI .F                       8941.0000: Bottom Logged Interval      
 DFD .LB/G                       9.4000: Drilling Fluid Density      
 DFPH.----                      10.0000: Drilling Fluid Ph           
 DFL .C3                        11.2000: Drilling Fluid Loss         
 DFV .CP                        46.0000: Drilling Fluid Viscosity    
 RM  .CP                        46.0000: Mud Sample Resistivity      
 MST .DEGF                      74.0000: Mud Sample Temperature      
 RMF .DEGF                      74.0000: Mud Filtrate Resistivity    
 MFST.DEGF                      74.0000: Mud Filtrate Sample Temp    
 RMC .DEGF                      74.0000: Mud Cake Resistivity        
 MCST.DEGF                      74.0000: Mud Cake Sample Temperature 
 MRT .DEGF                     165.0000: Maximum Recorded Temperature
 BHT .DEGF                     165.0000: Bottom Hole Temperature     
~A   DEPT       C13        C24        DT         ILD        ILM        SGRD       SP         SPHI       GR         CALI       DPHI       GR2        NPHI       PE         RHOB       DRHO  
# ...
  4565.0000      9.188      9.129     72.228      5.529      5.137      6.227     88.457      0.174     74.168      9.119      0.102     79.086      0.200      3.079      2.536      0.060
  4565.5000      9.161      9.123     72.087      6.023      5.609      6.740     89.977      0.173     69.722      9.091      0.092     79.288      0.212      3.168      2.552      0.060
  4566.0000      9.120      9.112     71.786      6.553      6.169      7.293     91.550      0.171     69.722      9.050      0.086     76.930      0.211      3.180      2.562      0.061
  4566.5000      9.080      9.087     71.939      7.095      6.813      8.127     93.053      0.172     74.303      9.029      0.094     75.987      0.216      3.034      2.549      0.056
  4567.0000      9.044      9.068     71.889      7.655      7.487      9.403     94.160      0.172     76.728      8.960      0.101     79.759      0.214      2.997      2.537      0.053
  4567.5000      9.035      9.060     71.653      8.266      8.131     10.831     94.785      0.170     80.298      8.911      0.105     78.210      0.222      2.962      2.530      0.047
  4568.0000      9.035      9.069     71.641      8.914      8.763     11.673     95.586      0.170     79.557      8.855      0.113     82.252      0.230      2.963      2.516      0.055
  4568.5000      9.040      9.067     72.897      9.527      9.480     11.336     96.440      0.179     80.096      8.835      0.128     80.568      0.241      2.924      2.490      0.048
  4569.0000      8.995      9.071     72.697      9.979     10.324     11.314     96.918      0.177     79.759      8.849      0.134     83.195      0.245      2.999      2.482      0.044
  4569.5000      8.941      9.076     71.023     10.214     11.463     12.497     96.835      0.166     84.475      8.835      0.133     81.645      0.245      3.020      2.483      0.050
  4570.0000      8.912      9.070     73.142     10.323     11.848     13.983     96.205      0.181     88.988      8.793      0.125     85.553      0.242      3.002      2.496      0.056
  4570.5000      8.906      9.067     74.392     10.387     11.840     15.695     95.268      0.189     88.988      8.800      0.123     84.812      0.237      3.023      2.499      0.043
  4571.0000      8.900      9.061     70.189     10.382     11.639     15.061     94.231      0.160     82.454      8.835      0.105     78.547      0.218      3.200      2.530      0.040
  4571.5000      8.895      9.060     68.291     10.289     11.375     13.968     93.223      0.146     73.629      8.821      0.084     71.271      0.207      3.268      2.567      0.045
  4572.0000      8.897      9.063     69.134     10.048     11.083     13.595     92.711      0.152     66.488      8.793      0.074     65.545      0.200      3.206      2.583      0.050
  4572.5000      8.903      9.075     69.802      9.657     10.345     13.027     92.499      0.157     63.255      8.849      0.081     65.276      0.192      3.199      2.571      0.040
  4573.0000      8.905      9.092     67.734      9.194      9.872     12.542     92.357      0.142     73.023      8.835      0.095     72.214      0.197      3.215      2.548      0.036
  4573.5000      8.894      9.118     67.767      8.730      9.319     12.281     92.198      0.143     78.749      8.821      0.108     80.298      0.210      3.045      2.525      0.038
  4574.0000      8.889      9.131     70.827      8.330      8.715     11.642     91.727      0.164     81.780      8.849      0.113     82.791      0.222      2.873      2.517      0.046
  4574.5000      8.919      9.133     71.939      8.000      8.170     10.984     90.790      0.172     84.003      8.807      0.113     88.180      0.215      2.795      2.516      0.045
  4575.0000      8.952      9.134     72.675      7.720      7.756      9.893     90.042      0.177     75.583      8.835      0.113     86.159      0.202      2.800      2.517      0.046
  4575.5000      8.982      9.144     73.173      7.471      7.452      8.952     89.706      0.181     71.878      8.849      0.114     81.174      0.186      2.769      2.516      0.049
  4576.0000      8.983      9.142     72.031      7.261      7.245      8.657     89.317      0.173     68.846      8.883      0.113     80.231      0.176      2.682      2.517      0.053
  4576.5000      9.001      9.135     71.366      7.134      7.098      8.547     88.923      0.168     68.577      8.849      0.115     83.330      0.182      2.700      2.513      0.055
  4577.0000      9.004      9.135     71.852      7.102      7.027      8.654     88.840      0.172     70.732      8.869      0.117     81.982      0.192      2.743      2.510      0.054
  4577.5000      9.002      9.129     72.178      7.159      7.045      8.696     88.858      0.174     67.970      8.890      0.117     80.433      0.186      2.754      2.509      0.055
  4578.0000      9.000      9.138     71.469      7.270      7.134      8.687     88.622      0.169     69.520      8.904      0.116     79.827      0.185      2.814      2.512      0.057
  4578.5000      8.993      9.143     71.563      7.329      7.294      8.957     88.445      0.169     69.116      8.890      0.116     75.448      0.191      2.855      2.512      0.052
  4579.0000      9.002      9.143     71.070      7.236      7.460      9.069     88.628      0.166     73.090      8.890      0.112     73.764      0.189      2.906      2.519      0.051
  4579.5000      9.005      9.141     69.884      6.956      7.492      9.350     89.029      0.158     83.127      8.890      0.112     81.376      0.200      2.972      2.518      0.049
  4580.0000      9.030      9.135     69.328      6.531      7.228     10.195     89.211      0.154     88.651      8.911      0.114     86.698      0.207      2.996      2.514      0.044
  4580.5000      9.045      9.159     69.141      6.063      6.670     10.032     88.599      0.152     90.335      8.897      0.110     94.377      0.222      2.948      2.522      0.051
  4581.0000      9.069      9.196     69.342      5.629      5.977      9.226     86.943      0.154     89.662      8.890      0.127     92.558      0.213      2.742      2.493      0.036
  4581.5000      9.098      9.232     69.948      5.248      5.327      8.275     85.046      0.158     81.443      8.932      0.130     88.853      0.203      2.698      2.487      0.041
  4582.0000      9.122      9.276     70.616      4.926      4.798      7.259     83.667      0.163     73.158      8.973      0.138     75.987      0.192      2.572      2.474      0.044
  4582.5000      9.134      9.310     71.706      4.694      4.407      7.096     82.907      0.170     66.286      8.994      0.149     66.017      0.193      2.498      2.455      0.045
  4583.0000      9.152      9.336     72.430      4.571      4.191      6.990     82.530      0.176     61.638      9.029      0.149     63.794      0.197      2.497      2.456      0.051
  4583.5000      9.149      9.360     73.188      4.543      4.150      6.673     82.695      0.181     62.514      9.022      0.154     63.794      0.200      2.486      2.447      0.045
  4584.0000      9.156      9.362     73.508      4.584      4.257      6.468     83.502      0.183     63.929      9.008      0.148     68.375      0.202      2.541      2.457      0.045
  4584.5000      9.169      9.360     73.452      4.675      4.457      6.591     84.628      0.183     65.747      9.022      0.139     69.655      0.205      2.549      2.472      0.043
  4585.0000      9.188      9.358     73.467      4.815      4.680      6.773     85.393      0.183     73.966      9.022      0.130     74.370      0.211      2.546      2.487      0.040
  4585.5000      9.207      9.378     73.122      4.999      4.862      6.971     85.641      0.180     79.288      9.057      0.125     78.210      0.209      2.578      2.495      0.038
  4586.0000      9.224      9.407     72.470      5.145      4.997      6.952     85.582      0.176     79.086      9.071      0.121     79.422      0.211      2.575      2.503      0.037
