~Version Information                                                          
 VERS.                             1.20: CWLS log ASCII Standard -VERSION 1.20
 WRAP.                               NO: One line per depth step              
~Well Information Block                                                       
#MNEM.UNIT           Data Type           Information                          
#--------- ----------------------------  -------------------------------------
 STRT.F                         92.0000:                                      
 STOP.F                       9060.0000:                                      
 STEP.F                          0.5000:                                      
 NULL.                        -999.2500:                                      
 COMP.                     Company Name: ENRON OIL & GAS                      
 WELL.                        Well Name: UNIVERSITY 6-18W NO.1                
 FLD .                       Field Name: WILDCAT                              
 LOC .                         Location: SECTION 18, BLOCK 6                  
 SLOC.                 SURFACE Location: 1216' FNL & 505' FWL                 
 SECT.                          Section: 18                                   
 TOWN.                         Township:                                      
 RANG.                            Range:                                      
 COUN.                           County: REAGAN                               
 STAT.                            State: TX                                   
 CTRY.                          Country: USA                                  
 SRVC.                  Service Company: HALLIBURTON ENERGY SERVICES          
 DATE.                 DATE as MM/DD/YY: 08/17/97                             
 APIN.                  API Well Number: 42-383-34800                         
 UWI .                   UNIQUE WELL ID: 42383348000000                       
 PD  .                  Permanent Datum: G.L.                                 
 RUN .                       Run Number: 1&2                                  
 DMF .           Drilling Measured From: KELLY BUSHING                        
 LMF .            Logging Measured From: K.B.                                 
 TCS .         Time Circulation Stopped: 0100                                 
 TLAB.            Time Logger at Bottom: 0830                                 
 DFT .              Drilling Fluid Type: FW-PAC-STARCH                        
 MCSS.           Mud Cake Sample Source: N/A                                  
 MFSS.       Mud Filtrate Sample Source: MEAS                                 
 MSS .                Mud Sample Source: MUD PIT                              
 LCCN.             Logging Company Name: HALLIBURTON ENERGY SERVICES          
 LUL .              Equiptment Location: ODTX                                 
 LUN .              Logging Unit Number: 52525                                
 ENGI.          Logging Engineer's Name: LAUFER                               
 WITN.                   Witness's Name: N. VAN LIEW                          
~Curve Information Block                                                      
#MNEM.UNIT                   API CODE    Curve Description                  
#---------                 ------------  -------------------------------------
 DEPT.F                    00 000 00 00:   1  Depth Curve                     
 GR2 .GAPI                 00 000 00 00:   2  GAMMA RAY -DENSITY-NEUTRON- 
 NPHI.DECP                 00 000 00 00:   3  NEUTRON POROSITY -LIME-     
 DPHI.DECP                 00 000 00 00:   4  DENSITY POROSITY -LIME-     
 RHOB.G/C3                 00 000 00 00:   5  BULK DENSITY                
 DRHO.G/C3                 00 000 00 00:   6  DENSITY CORRECTION          
 PE  .B/E                  00 000 00 00:   7  PHOTO-ELECTRIC FACTOR       
 CALI.IN                   00 000 00 00:   8  CALIPER -DENSITY-           
 PHIX.DECP                 00 000 00 00:   9  CROSSPLOT POROSITY          
 LLS .OHMM                 00 000 00 00:  10  LATERO-LOG, SHALLOW RESIS.  
 LLD .OHMM                 00 000 00 00:  11  LATERO-LOG, DEEP RESISTIVITY
 CLLD.MMHO                 00 000 00 00:  12  LATERO-LOG, DEEP CONDUCTIVTY
 MGRD.OHMM                 00 000 00 00:  13  MICRO-SFL   RESISTIVITY     
 CAL2.IN                   00 000 00 00:  14  CALIPER -MICRO-SFL-         
 GR  .GAPI                 00 000 00 00:  15  GAMMA RAY -SONIC-           
 C13 .IN                   00 000 00 00:  16  CALIPER PADS 1 - 3    -FACT-
 C24 .IN                   00 000 00 00:  17  CALIPER PADS 2 - 4    -FACT-
 DT  .US/F                 00 000 00 00:  18  SONIC TRANSIT TIME          
 SPHI.DECP                 00 000 00 00:  19  SONIC POROSITY  -LIME-      
~Parameter Information Block                                                  
#MNEM.UNIT            Value              Description                          
#--------- ----------------------------  -------------------------------------
 EDF .F                       2695.0000: Elevation, Derrick Floor    
 EGL .F                       2678.0000: Elevation, Ground Level     
 EKB .F                       2696.0000: Elevation, Kelly Bushing    
 EPD .F                       2678.0000: Elevation Perminent Datum   
 TDD .F                       9050.0000: Total Depth-Driller         
 TDL .F                       9044.0000: Total Depth-Logger          
 CBD .F                       3050.0000: Casing Bottom Driller 1     
 CBL .F                       3044.0000: Casing Bottom Logger 1      
 TLI .F                       2900.0000: Top Logged Interval         
 BLI .F                       9037.0000: Bottom Logged Interval      
 DFD .LB/G                       9.1000: Drilling Fluid Density      
 DFPH.----                      10.5000: Drilling Fluid Ph           
 DFL .C3                         5.6000: Drilling Fluid Loss         
 DFV .CP                        52.0000: Drilling Fluid Viscosity    
 RM  .CP                        52.0000: Mud Sample Resistivity      
 MST .DEGF                      69.0000: Mud Sample Temperature      
 RMF .DEGF                      69.0000: Mud Filtrate Resistivity    
 MFST.DEGF                      69.0000: Mud Filtrate Sample Temp    
 RMC .DEGF                      69.0000: Mud Cake Resistivity        
 MCST.DEGF                      69.0000: Mud Cake Sample Temperature 
 MRT .DEGF                     150.0000: Maximum Recorded Temperature
 BHT .DEGF                     111.0000: Bottom Hole Temperature     
~A   DEPT       GR2        NPHI       DPHI       RHOB       DRHO       PE         CALI       PHIX       LLS        LLD        CLLD       MGRD       CAL2       GR         C13        C24        DT         SPHI  
# ...
  7424.0000     79.515      0.219      0.102      2.546      0.029      3.541      8.385      0.173     33.093     33.199     30.121     25.656      8.120     88.335      8.645      8.293     78.573      0.220
  7424.5000     75.219      0.198      0.094      2.559      0.035      3.499      8.394      0.159     33.848     33.762     29.619     36.484      8.128     83.110      8.643      8.297     80.791      0.226
  7425.0000     80.567      0.192      0.086      2.572      0.040      3.598      8.419      0.152     31.031     31.050     32.206     32.674      8.136     79.024      8.643      8.305     81.167      0.216
  7425.5000     87.055      0.204      0.085      2.572      0.034      3.591      8.453      0.159     27.158     27.918     35.819     22.064      8.135     75.938      8.641      8.318     75.655      0.205
  7426.0000     89.124      0.232      0.090      2.565      0.039      3.461      8.453      0.175     24.427     25.903     38.605     17.823      8.126     76.236      8.640      8.308     71.758      0.201
  7426.5000     88.598      0.254      0.093      2.560      0.037      3.527      8.427      0.188     23.848     25.553     39.135     15.067      8.119     79.954      8.640      8.316     75.991      0.202
  7427.0000     85.968      0.254      0.098      2.553      0.034      3.481      8.436      0.189     23.743     25.783     38.785     15.222      8.114     84.127      8.640      8.329     80.255      0.218
  7427.5000     83.793      0.241      0.098      2.553      0.039      3.544      8.461      0.183     23.447     25.914     38.590     18.779      8.114     83.864      8.640      8.335     80.875      0.239
  7428.0000     79.708      0.234      0.099      2.551      0.041      3.552      8.461      0.180     22.523     25.542     39.152     30.057      8.115     81.181      8.640      8.339     82.534      0.237
  7428.5000     78.042      0.229      0.101      2.547      0.036      3.494      8.453      0.178     22.473     25.636     39.007     23.682      8.114     78.674      8.640      8.328     82.028      0.230
  7429.0000     82.952      0.232      0.118      2.519      0.026      3.368      8.436      0.186     24.202     27.109     36.888     16.045      8.111     77.008      8.640      8.325     77.347      0.232
  7429.5000     83.338      0.233      0.117      2.521      0.038      3.284      8.419      0.186     26.938     29.676     33.697     14.249      8.107     78.130      8.641      8.323     78.852      0.221
  7430.0000     84.425      0.236      0.125      2.508      0.026      3.267      8.419      0.191     29.943     32.819     30.470     19.641      8.105     83.057      8.641      8.325     80.083      0.222
  7430.5000     84.547      0.236      0.133      2.496      0.020      3.211      8.427      0.194     31.598     34.687     28.829     20.432      8.107     85.073      8.640      8.312     78.839      0.231
  7431.0000     83.075      0.232      0.125      2.508      0.027      3.195      8.436      0.189     30.934     34.343     29.118     19.977      8.108     86.336      8.641      8.297     80.955      0.229
  7431.5000     84.056      0.230      0.124      2.511      0.024      3.288      8.419      0.187     29.393     32.878     30.415     20.271      8.106     85.038      8.641      8.301     80.997      0.228
  7432.0000     83.285      0.232      0.121      2.515      0.024      3.347      8.427      0.187     26.944     30.644     32.633     25.978      8.101     82.110      8.641      8.304     79.066      0.223
  7432.5000     85.389      0.234      0.120      2.517      0.023      3.412      8.394      0.188     24.783     28.892     34.612     21.876      8.100     80.830      8.640      8.304     77.037      0.215
  7433.0000     86.424      0.230      0.125      2.509      0.018      3.506      8.402      0.188     23.347     27.548     36.301     22.264      8.107     79.165      8.644      8.307     76.798      0.216
  7433.5000     82.689      0.223      0.120      2.517      0.025      3.428      8.377      0.182     22.176     26.511     37.720     21.141      8.113     80.234      8.646      8.297     78.881      0.218
  7434.0000     83.215      0.228      0.125      2.509      0.025      3.492      8.427      0.187     22.336     26.519     37.708     17.664      8.114     83.478      8.648      8.288     80.195      0.222
  7434.5000     85.407      0.236      0.124      2.511      0.029      3.473      8.411      0.190     23.948     28.167     35.503     19.009      8.114     85.144      8.627      8.271     79.314      0.227
  7435.0000     80.550      0.240      0.127      2.506      0.017      3.584      8.419      0.193     27.636     31.311     31.938     18.613      8.115     85.862      8.611      8.286     79.058      0.229
  7435.5000     82.461      0.220      0.110      2.534      0.027      3.590      8.411      0.176     32.713     36.086     27.712     18.947      8.116     84.898      8.578      8.295     80.689      0.233
  7436.0000     84.407      0.207      0.103      2.544      0.028      3.553      8.427      0.167     36.282     38.941     25.680     20.032      8.115     78.481      8.533      8.302     81.697      0.231
  7436.5000     81.269      0.209      0.092      2.562      0.026      3.592      8.444      0.164     35.129     37.427     26.719     33.990      8.114     73.571      8.521      8.310     80.277      0.217
  7437.0000     80.848      0.216      0.097      2.553      0.020      3.532      8.453      0.169     31.396     33.680     29.692     41.048      8.114     71.046      8.521      8.315     75.411      0.199
  7437.5000     80.234      0.223      0.100      2.549      0.023      3.484      8.411      0.174     27.715     30.567     32.715     35.230      8.113     69.802      8.521      8.318     70.744      0.190
  7438.0000     72.432      0.214      0.100      2.549      0.028      3.566      8.394      0.170     26.972     30.142     33.176     25.321      8.113     72.046      8.521      8.328     73.130      0.189
  7438.5000     62.367      0.192      0.101      2.548      0.018      3.705      8.411      0.158     29.702     31.946     31.303     22.753      8.113     73.221      8.521      8.318     77.506      0.201
  7439.0000     55.897      0.166      0.074      2.591      0.038      3.858      8.427      0.134     29.873     31.808     31.439     20.707      8.121     70.959      8.521      8.315     78.997      0.216
  7439.5000     57.475      0.158      0.060      2.613      0.046      3.982      8.444      0.124     28.372     29.782     33.577     25.542      8.130     63.279      8.521      8.319     79.053      0.211
  7440.0000     62.946      0.166      0.054      2.623      0.050      4.062      8.444      0.127     24.214     25.708     38.898     34.834      8.137     57.651      8.524      8.309     76.408      0.193
  7440.5000     75.114      0.200      0.065      2.606      0.045      4.009      8.444      0.149     20.346     22.120     45.207     46.544      8.137     58.861      8.568      8.304     71.244      0.164
  7441.0000     86.248      0.245      0.076      2.588      0.048      3.833      8.478      0.177     19.295     20.697     48.316     28.619      8.138     63.156      8.606      8.319     65.072      0.153
  7441.5000     90.509      0.256      0.089      2.566      0.048      3.658      8.478      0.187     19.814     20.733     48.231     17.425      8.132     71.485      8.619      8.340     66.148      0.169
  7442.0000     93.682      0.247      0.100      2.550      0.035      3.621      8.461      0.187     21.824     21.978     45.500     19.441      8.121     80.357      8.599      8.344     77.262      0.194
  7442.5000     91.245      0.237      0.100      2.548      0.038      3.531      8.419      0.182     24.501     24.423     40.944     17.831      8.108     82.461      8.599      8.343     83.850      0.227
  7443.0000     88.089      0.240      0.104      2.543      0.037      3.435      8.402      0.185     27.510     26.906     37.167     13.861      8.093     82.934      8.598      8.345     83.050      0.246
