~Version Information                                                          
 VERS.                             1.20: CWLS log ASCII Standard -VERSION 1.20
 WRAP.                               NO: One line per depth step              
~Well Information Block                                                       
#MNEM.UNIT           Data Type           Information                          
#--------- ----------------------------  -------------------------------------
 STRT.F                         93.0000:                                      
 STOP.F                       8960.0000:                                      
 STEP.F                          0.5000:                                      
 NULL.                        -999.2500:                                      
 COMP.                     Company Name: ENRON OIL & GAS COMPANY              
 WELL.                        Well Name: UNIVERSITY 6-7 NO.1                  
 FLD .                       Field Name: GRIERSON                             
 LOC .                         Location: SECTION 7,BLOCK6                     
 SLOC.                 SURFACE Location: 874 FEL X 2193 FSL                   
 SECT.                          Section:                                      
 TOWN.                         Township:                                      
 RANG.                            Range:                                      
 COUN.                           County: REAGAN                               
 STAT.                            State: TEXAS                                
 CTRY.                          Country: USA                                  
 SRVC.                  Service Company: HALLIBURTON ENERGY SERVICES          
 DATE.                 DATE as MM/DD/YY: 04/29/97                             
 APIN.                  API Well Number: 42-383-34746                         
 UWI .                   UNIQUE WELL ID: 42383347460000                       
 PD  .                  Permanent Datum: G.L.                                 
 RUN .                       Run Number: ONE                                  
 DMF .           Drilling Measured From: KELLY BUSHING                        
 LMF .            Logging Measured From: K.B.                                 
 TCS .         Time Circulation Stopped:                                      
 TLAB.            Time Logger at Bottom:                                      
 DFT .              Drilling Fluid Type: FRESH GEL                            
 MCSS.           Mud Cake Sample Source: MEAS.                                
 MFSS.       Mud Filtrate Sample Source: MEAS.                                
 MSS .                Mud Sample Source: FLOWLINE                             
 LCCN.             Logging Company Name: HALLIBURTON ENERGY SERVICES          
 LUL .              Equiptment Location: ODESSA                               
 LUN .              Logging Unit Number: 51941                                
 ENGI.          Logging Engineer's Name: MART RILEY                           
 WITN.                   Witness's Name: N. VAN LIEW                          
~Curve Information Block                                                      
#MNEM.UNIT                   API CODE    Curve Description                  
#---------                 ------------  -------------------------------------
 DEPT.F                    00 000 00 00:   1  Depth Curve                     
 C13 .INCH                 99 075 22 05:   2  CALIPER PADS 1 - 3    -FACT-
 C24 .INCH                 99 075 22 05:   3  CALIPER PADS 2 - 4    -FACT-
 DT  .US/F                 99 075 22 05:   4  SONIC TRANSIT TIME          
 ILD .OHMM                 99 075 22 05:   5  IL, DEEP RESISTIVITY        
 ILM .OHMM                 99 075 22 05:   6  IL, MEDIUM RESISTIVITY      
 SGRD.OHMM                 99 075 22 05:   7  SHORT GUARD RESISTIVITY     
 SP  .MV                   99 075 22 05:   8  SPONTANEOUS POTENTIAL       
 SPHI.DECP                 99 075 22 05:   9  SONIC POROSITY  -LIME-      
 GR  .GAPI                 99 075 22 05:  10  GAMMA RAY                   
 CALI.INCH                 99 075 22 05:  11  CALIPER                     
 DPHI.DECP                 99 075 22 05:  12  DENSITY POROSITY -LIME-     
 GR2 .GAPI                 99 075 22 05:  13  GAMMA RAY 2ND SERVICE       
 NPHI.DECP                 99 075 22 05:  14  NEUTRON POROSITY -LIME-     
 PE  .B/E                  99 075 22 05:  15  PHOTO-ELECTRIC FACTOR       
 RHOB.G/C3                 99 075 22 05:  16  BULK DENSITY                
 DRHO.G/C3                 99 075 22 05:  17  DENSITY CORRECTION          
~Parameter Information Block                                                  
#MNEM.UNIT            Value              Description                          
#--------- ----------------------------  -------------------------------------
 EDF .F                       2732.0000: Elevation, Derrick Floor    
 EGL .F                       2715.0000: Elevation, Ground Level     
 EKB .F                       2733.0000: Elevation, Kelly Bushing    
 EPD .F                       2715.0000: Elevation Perminent Datum   
 TDD .F                       8950.0000: Total Depth-Driller         
 TDL .F                       8946.0000: Total Depth-Logger          
 CBD .F                       3000.0000: Casing Bottom Driller 1     
 CBL .F                       2998.0000: Casing Bottom Logger 1      
 TLI .F                       2980.0000: Top Logged Interval         
 BLI .F                       8941.0000: Bottom Logged Interval      
 DFD .LB/G                       9.4000: Drilling Fluid Density      
 DFPH.----                      10.0000: Drilling Fluid Ph           
 DFL .C3                        11.2000: Drilling Fluid Loss         
 DFV .CP                        46.0000: Drilling Fluid Viscosity    
 RM  .CP                        46.0000: Mud Sample Resistivity      
 MST .DEGF                      74.0000: Mud Sample Temperature      
 RMF .DEGF                      74.0000: Mud Filtrate Resistivity    
 MFST.DEGF                      74.0000: Mud Filtrate Sample Temp    
 RMC .DEGF                      74.0000: Mud Cake Resistivity        
 MCST.DEGF                      74.0000: Mud Cake Sample Temperature 
 MRT .DEGF                     165.0000: Maximum Recorded Temperature
 BHT .DEGF                     165.0000: Bottom Hole Temperature     
~A   DEPT       C13        C24        DT         ILD        ILM        SGRD       SP         SPHI       GR         CALI       DPHI       GR2        NPHI       PE         RHOB       DRHO  
# ...
  6156.0000      9.362      9.438     71.241      5.203      4.966      6.492     89.258      0.167     64.333      9.161      0.088     66.960      0.170      2.988      2.560      0.044
  6156.5000      9.297      9.391     70.109      5.227      5.237      7.637     87.732      0.159     56.316      9.112      0.074     61.773      0.150      3.096      2.583      0.041
  6157.0000      9.240      9.352     68.372      5.198      5.407      8.674     86.230      0.147     50.860      9.064      0.058     54.565      0.133      3.215      2.612      0.041
  6157.5000      9.230      9.353     64.784      5.128      5.431      8.886     84.875      0.122     49.984      9.036      0.055     51.668      0.129      3.307      2.616      0.033
  6158.0000      9.228      9.332     63.114      5.013      5.278      7.857     83.891      0.110     53.622      8.973      0.055     49.311      0.132      3.266      2.615      0.035
  6158.5000      9.226      9.331     64.791      4.836      4.970      7.527     83.355      0.122     54.565      8.925      0.072     50.927      0.141      3.075      2.588      0.036
  6159.0000      9.226      9.329     66.628      4.623      4.603      7.162     82.996      0.135     56.451      8.932      0.093     52.140      0.145      2.901      2.551      0.029
  6159.5000      9.221      9.335     67.475      4.397      4.275      6.918     83.125      0.141     59.887      9.008      0.098     55.575      0.147      2.816      2.543      0.042
  6160.0000      9.212      9.340     68.495      4.195      4.074      6.384     84.144      0.148     60.897      9.029      0.111     55.845      0.150      2.756      2.521      0.043
  6160.5000      9.183      9.337     69.986      4.056      3.984      5.907     85.794      0.158     62.649      9.029      0.114     59.550      0.163      2.647      2.516      0.047
  6161.0000      9.148      9.340     70.837      4.010      3.966      5.673     87.503      0.164     64.872      9.008      0.119     63.457      0.172      2.573      2.507      0.043
  6161.5000      9.108      9.333     71.453      4.080      3.999      5.757     88.710      0.169     67.634      9.022      0.113     66.893      0.178      2.554      2.516      0.049
  6162.0000      9.081      9.332     72.188      4.248      4.099      5.866     89.541      0.174     69.587      9.036      0.112     66.084      0.190      2.553      2.518      0.052
  6162.5000      9.067      9.324     72.877      4.456      4.283      6.012     90.378      0.179     70.935      9.022      0.111     71.878      0.190      2.569      2.520      0.050
  6163.0000      9.050      9.320     73.083      4.616      4.541      5.879     91.409      0.180     75.515      9.001      0.111     75.515      0.188      2.542      2.520      0.044
  6163.5000      9.031      9.313     73.039      4.660      4.796      6.180     92.192      0.180     76.526      8.987      0.110     76.526      0.191      2.622      2.522      0.043
  6164.0000      9.008      9.299     72.423      4.600      4.912      6.719     92.440      0.176     76.997      9.001      0.103     75.246      0.194      2.783      2.535      0.042
  6164.5000      8.967      9.278     71.653      4.485      4.831      7.676     91.933      0.170     75.246      9.008      0.093     77.401      0.190      2.849      2.551      0.044
  6165.0000      8.944      9.268     72.242      4.371      4.598      7.588     90.572      0.174     72.686      8.994      0.088     71.743      0.176      2.888      2.559      0.046
  6165.5000      8.940      9.254     71.030      4.270      4.316      7.044     88.545      0.166     65.343      8.987      0.085     69.183      0.178      2.922      2.565      0.054
  6166.0000      8.909      9.258     68.912      4.168      4.087      6.112     86.566      0.151     63.592      9.001      0.083     69.048      0.175      2.980      2.567      0.060
  6166.5000      8.873      9.261     69.584      4.076      3.930      5.639     85.488      0.155     63.188      9.001      0.094     67.364      0.174      2.813      2.550      0.062
  6167.0000      8.831      9.263     71.050      4.015      3.848      5.667     85.346      0.166     61.840      9.008      0.096     69.520      0.171      2.758      2.546      0.066
  6167.5000      8.793      9.264     71.409      3.997      3.850      5.636     85.423      0.168     63.929      8.994      0.096     66.825      0.176      2.781      2.545      0.066
  6168.0000      8.793      9.263     70.972      4.041      3.929      5.549     85.441      0.165     60.897      8.980      0.099     66.758      0.172      2.778      2.541      0.063
  6168.5000      8.782      9.250     71.153      4.170      4.061      5.551     85.659      0.167     59.348      8.980      0.099     64.670      0.169      2.903      2.540      0.054
  6169.0000      8.730      9.218     71.034      4.383      4.220      6.273     86.230      0.166     57.731      9.008      0.089     65.747      0.167      2.914      2.557      0.060
  6169.5000      8.688      9.191     70.875      4.669      4.393      6.726     87.255      0.165     55.710      8.973      0.093     63.929      0.162      2.908      2.551      0.058
  6170.0000      8.682      9.188     70.703      4.989      4.616      6.945     88.964      0.163     62.918      8.960      0.091     63.592      0.156      2.895      2.554      0.057
  6170.5000      8.691      9.188     69.053      5.227      4.871      6.956     91.391      0.152     68.981      8.939      0.101     69.116      0.166      2.827      2.537      0.043
  6171.0000      8.692      9.196     69.587      5.432      5.126      6.803     93.954      0.155     73.831      8.960      0.101     78.075      0.175      2.660      2.537      0.043
  6171.5000      8.672      9.195     72.144      5.649      5.339      7.343     96.370      0.174     81.039      8.973      0.105     88.651      0.194      2.583      2.530      0.036
  6172.0000      8.675      9.184     73.558      5.938      5.537      7.682     98.172      0.184     82.589      8.918      0.102     93.502      0.209      2.674      2.536      0.033
  6172.5000      8.676      9.167     74.586      6.319      5.824      7.735     99.528      0.191     84.273      8.897      0.100     97.880      0.209      2.695      2.539      0.029
  6173.0000      8.684      9.134     75.572      6.756      6.270      7.603    100.441      0.198     87.978      8.925      0.100     99.160      0.207      2.746      2.538      0.029
  6173.5000      8.668      9.073     76.261      7.220      6.874      7.901    101.195      0.203     87.102      8.904      0.098     99.160      0.204      2.792      2.543      0.039
  6174.0000      8.623      8.999     76.345      7.717      7.563      9.220    101.778      0.203     91.548      8.821      0.102    102.326      0.208      2.882      2.536      0.047
  6174.5000      8.582      8.918     76.673      8.319      8.267     10.755    102.355      0.206     95.186      8.807      0.110    105.156      0.211      2.904      2.521      0.042
  6175.0000      8.572      8.860     77.947      9.130      9.046     12.290    102.821      0.215     97.476      8.765      0.109    106.099      0.217      2.931      2.523      0.056
  6175.5000      8.558      8.809     78.800     10.220     10.013     13.477    102.674      0.221     95.522      8.689      0.112     98.689      0.227      2.963      2.519      0.064
  6176.0000      8.545      8.763     78.600     11.684     11.729     14.490    101.283      0.219     91.144      8.620      0.111     90.066      0.221      2.994      2.520      0.060
  6176.5000      8.523      8.719     77.664     13.628     13.624     15.456     99.392      0.213     73.629      8.571      0.098     69.991      0.198      3.197      2.542      0.053
  6177.0000      8.514      8.672     75.014     16.046     16.380     18.004     98.043      0.194     59.550      8.502      0.075     57.327      0.160      3.390      2.582      0.053
