~Version Information                                                          
 VERS.                             1.20: CWLS log ASCII Standard -VERSION 1.20
 WRAP.                               NO: One line per depth step              
~Well Information Block                                                       
#MNEM.UNIT           Data Type           Information                          
#--------- ----------------------------  -------------------------------------
 STRT.F                         92.0000:                                      
 STOP.F                       9060.0000:                                      
 STEP.F                          0.5000:                                      
 NULL.                        -999.2500:                                      
 COMP.                     Company Name: ENRON OIL & GAS                      
 WELL.                        Well Name: UNIVERSITY 6-18W NO.1                
 FLD .                       Field Name: WILDCAT                              
 LOC .                         Location: SECTION 18, BLOCK 6                  
 SLOC.                 SURFACE Location: 1216' FNL & 505' FWL                 
 SECT.                          Section: 18                                   
 TOWN.                         Township:                                      
 RANG.                            Range:                                      
 COUN.                           County: REAGAN                               
 STAT.                            State: TX                                   
 CTRY.                          Country: USA                                  
 SRVC.                  Service Company: HALLIBURTON ENERGY SERVICES          
 DATE.                 DATE as MM/DD/YY: 08/17/97                             
 APIN.                  API Well Number: 42-383-34800                         
 UWI .                   UNIQUE WELL ID: 42383348000000                       
 PD  .                  Permanent Datum: G.L.                                 
 RUN .                       Run Number: 1&2                                  
 DMF .           Drilling Measured From: KELLY BUSHING                        
 LMF .            Logging Measured From: K.B.                                 
 TCS .         Time Circulation Stopped: 0100                                 
 TLAB.            Time Logger at Bottom: 0830                                 
 DFT .              Drilling Fluid Type: FW-PAC-STARCH                        
 MCSS.           Mud Cake Sample Source: N/A                                  
 MFSS.       Mud Filtrate Sample Source: MEAS                                 
 MSS .                Mud Sample Source: MUD PIT                              
 LCCN.             Logging Company Name: HALLIBURTON ENERGY SERVICES          
 LUL .              Equiptment Location: ODTX                                 
 LUN .              Logging Unit Number: 52525                                
 ENGI.          Logging Engineer's Name: LAUFER                               
 WITN.                   Witness's Name: N. VAN LIEW                          
~Curve Information Block                                                      
#MNEM.UNIT                   API CODE    Curve Description                  
#---------                 ------------  -------------------------------------
 DEPT.F                    00 000 00 00:   1  Depth Curve                     
 GR2 .GAPI                 00 000 00 00:   2  GAMMA RAY -DENSITY-NEUTRON- 
 NPHI.DECP                 00 000 00 00:   3  NEUTRON POROSITY -LIME-     
 DPHI.DECP                 00 000 00 00:   4  DENSITY POROSITY -LIME-     
 RHOB.G/C3                 00 000 00 00:   5  BULK DENSITY                
 DRHO.G/C3                 00 000 00 00:   6  DENSITY CORRECTION          
 PE  .B/E                  00 000 00 00:   7  PHOTO-ELECTRIC FACTOR       
 CALI.IN                   00 000 00 00:   8  CALIPER -DENSITY-           
 PHIX.DECP                 00 000 00 00:   9  CROSSPLOT POROSITY          
 LLS .OHMM                 00 000 00 00:  10  LATERO-LOG, SHALLOW RESIS.  
 LLD .OHMM                 00 000 00 00:  11  LATERO-LOG, DEEP RESISTIVITY
 CLLD.MMHO                 00 000 00 00:  12  LATERO-LOG, DEEP CONDUCTIVTY
 MGRD.OHMM                 00 000 00 00:  13  MICRO-SFL   RESISTIVITY     
 CAL2.IN                   00 000 00 00:  14  CALIPER -MICRO-SFL-         
 GR  .GAPI                 00 000 00 00:  15  GAMMA RAY -SONIC-           
 C13 .IN                   00 000 00 00:  16  CALIPER PADS 1 - 3    -FACT-
 C24 .IN                   00 000 00 00:  17  CALIPER PADS 2 - 4    -FACT-
 DT  .US/F                 00 000 00 00:  18  SONIC TRANSIT TIME          
 SPHI.DECP                 00 000 00 00:  19  SONIC POROSITY  -LIME-      
~Parameter Information Block                                                  
#MNEM.UNIT            Value              Description                          
#--------- ----------------------------  -------------------------------------
 EDF .F                       2695.0000: Elevation, Derrick Floor    
 EGL .F                       2678.0000: Elevation, Ground Level     
 EKB .F                       2696.0000: Elevation, Kelly Bushing    
 EPD .F                       2678.0000: Elevation Perminent Datum   
 TDD .F                       9050.0000: Total Depth-Driller         
 TDL .F                       9044.0000: Total Depth-Logger          
 CBD .F                       3050.0000: Casing Bottom Driller 1     
 CBL .F                       3044.0000: Casing Bottom Logger 1      
 TLI .F                       2900.0000: Top Logged Interval         
 BLI .F                       9037.0000: Bottom Logged Interval      
 DFD .LB/G                       9.1000: Drilling Fluid Density      
 DFPH.----                      10.5000: Drilling Fluid Ph           
 DFL .C3                         5.6000: Drilling Fluid Loss         
 DFV .CP                        52.0000: Drilling Fluid Viscosity    
 RM  .CP                        52.0000: Mud Sample Resistivity      
 MST .DEGF                      69.0000: Mud Sample Temperature      
 RMF .DEGF                      69.0000: Mud Filtrate Resistivity    
 MFST.DEGF                      69.0000: Mud Filtrate Sample Temp    
 RMC .DEGF                      69.0000: Mud Cake Resistivity        
 MCST.DEGF                      69.0000: Mud Cake Sample Temperature 
 MRT .DEGF                     150.0000: Maximum Recorded Temperature
 BHT .DEGF                     111.0000: Bottom Hole Temperature     
~A   DEPT       GR2        NPHI       DPHI       RHOB       DRHO       PE         CALI       PHIX       LLS        LLD        CLLD       MGRD       CAL2       GR         C13        C24        DT         SPHI  
# ...
  8243.0000     86.494      0.129      0.058      2.617      0.022      3.712      8.301      0.106     53.029     45.556     21.951     53.420      8.009     70.520      8.519      8.181     76.423      0.172
  8243.5000    107.885      0.175      0.083      2.576      0.016      3.443      8.293      0.142     46.101     40.356     24.780    108.224      8.011     72.537      8.515      8.178     62.967      0.149
  8244.0000    119.948      0.230      0.094      2.559      0.027      3.208      8.301      0.176     37.955     35.551     28.129     44.013      8.014     82.110      8.515      8.180     60.869      0.135
  8244.5000    124.822      0.263      0.105      2.541      0.029      3.151      8.326      0.197     37.716     35.591     28.097     28.324      8.012     99.942      8.519      8.184     68.936      0.154
  8245.0000    110.375      0.261      0.106      2.540      0.025      3.362      8.377      0.196     47.394     42.300     23.641     19.830      8.011    114.232      8.521      8.198     77.009      0.201
  8245.5000     87.563      0.222      0.089      2.567      0.021      3.511      8.394      0.170     64.427     54.561     18.328     18.956      8.013    113.513      8.521      8.200     84.184      0.236
  8246.0000     78.533      0.163      0.065      2.605      0.027      3.534      8.377      0.129     74.546     64.210     15.574     20.503      8.026     98.978      8.521      8.194     84.852      0.247
  8246.5000     77.587      0.147      0.051      2.627      0.036      3.532      8.377      0.115     70.340     62.574     15.981     34.519      8.038     83.530      8.505      8.188     82.447      0.219
  8247.0000     84.618      0.189      0.062      2.611      0.029      3.472      8.369      0.142     55.149     52.588     19.016     89.310      8.040     68.557      8.489      8.186     72.675      0.165
  8247.5000    100.117      0.253      0.084      2.575      0.028      3.332      8.377      0.184     43.244     43.894     22.782     62.550      8.036     65.103      8.491      8.192     59.373      0.134
  8248.0000    108.761      0.271      0.108      2.536      0.026      3.097      8.377      0.202     40.285     40.793     24.514     27.778      8.026     78.148      8.511      8.196     58.909      0.134
  8248.5000    103.028      0.255      0.113      2.528      0.030      3.049      8.377      0.196     42.064     41.660     24.004     20.315      8.015     92.385      8.521      8.200     72.594      0.163
  8249.0000     98.013      0.240      0.114      2.526      0.027      3.130      8.385      0.189     46.438     45.672     21.895     22.464      8.009    101.730      8.521      8.196     82.366      0.212
  8249.5000     92.753      0.224      0.105      2.541      0.035      3.128      8.318      0.177     49.876     49.355     20.261     24.691      8.009    101.555      8.521      8.190     83.253      0.241
  8250.0000     93.279      0.226      0.105      2.540      0.034      3.141      8.318      0.178     49.931     49.838     20.065     26.330      8.008     94.138      8.521      8.188     81.863      0.238
  8250.5000    103.045      0.228      0.111      2.532      0.035      3.175      8.335      0.181     46.581     46.674     21.425     31.559      8.008     87.107      8.521      8.184     79.269      0.222
  8251.0000    111.058      0.254      0.115      2.525      0.032      3.097      8.377      0.196     41.367     42.430     23.568     34.019      8.008     84.197      8.521      8.187     76.203      0.212
  8251.5000    119.755      0.262      0.114      2.526      0.036      3.046      8.360      0.200     37.677     39.795     25.129     29.373      8.008     85.459      8.521      8.184     75.591      0.215
  8252.0000    123.034      0.268      0.110      2.533      0.044      3.051      8.369      0.201     36.778     39.944     25.035     23.768      8.008     92.139      8.521      8.182     79.597      0.224
  8252.5000    115.494      0.259      0.105      2.541      0.046      3.074      8.360      0.195     41.040     44.549     22.447     20.522      8.010     98.171      8.521      8.178     82.747      0.239
  8253.0000    104.308      0.238      0.099      2.551      0.048      3.092      8.360      0.182     48.194     52.570     19.022     20.517      8.008    102.853      8.521      8.173     83.495      0.247
  8253.5000     91.947      0.206      0.095      2.556      0.046      3.064      8.343      0.163     56.370     62.656     15.960     23.874      8.010    101.730      8.509      8.168     82.573      0.247
  8254.0000     80.427      0.167      0.089      2.566      0.049      3.165      8.318      0.140     60.157     69.109     14.470     30.074      8.016     90.544      8.505      8.163     81.355      0.238
  8254.5000     77.218      0.149      0.085      2.573      0.047      3.226      8.284      0.128     57.605     67.692     14.773     47.174      8.034     81.339      8.501      8.162     80.425      0.215
  8255.0000     76.570      0.157      0.073      2.593      0.044      3.398      8.301      0.128     51.908     60.961     16.404     76.147      8.055     72.888      8.515      8.164     74.780      0.187
  8255.5000     77.113      0.175      0.067      2.601      0.040      3.462      8.360      0.136     45.559     53.478     18.699     62.267      8.069     65.015      8.521      8.172     67.878      0.169
  8256.0000     85.196      0.185      0.066      2.604      0.043      3.537      8.419      0.141     42.346     48.260     20.721     41.322      8.086     65.979      8.555      8.203     67.425      0.160
  8256.5000     89.983      0.194      0.064      2.608      0.047      3.427      8.419      0.146     40.478     44.727     22.358     34.868      8.103     72.379      8.592      8.222     72.325      0.162
  8257.0000     91.736      0.211      0.083      2.576      0.036      3.316      8.453      0.162     39.591     42.818     23.355     34.532      8.122     77.324      8.632      8.252     73.675      0.171
  8257.5000     91.929      0.222      0.101      2.548      0.028      3.203      8.444      0.174     39.187     41.429     24.138     33.177      8.135     81.514      8.658      8.263     71.580      0.180
  8258.0000     90.404      0.232      0.116      2.523      0.020      3.063      8.486      0.185     37.232     39.025     25.625     30.574      8.151     83.829      8.696      8.278     72.397      0.184
  8258.5000     87.809      0.232      0.113      2.529      0.028      2.991      8.520      0.184     34.856     36.323     27.531     31.158      8.163     83.986      8.715      8.295     75.462      0.191
  8259.0000     84.372      0.221      0.104      2.542      0.034      3.097      8.469      0.175     31.440     33.190     30.129     31.552      8.170     82.987      8.715      8.321     76.945      0.202
  8259.5000     85.968      0.218      0.092      2.562      0.040      3.210      8.520      0.169     28.511     30.967     32.293     30.146      8.184     82.864      8.741      8.342     76.955      0.208
  8260.0000     87.440      0.211      0.087      2.570      0.040      3.307      8.512      0.163     27.314     30.377     32.920     25.004      8.197     84.249      8.755      8.355     77.137      0.210
  8260.5000     86.090      0.215      0.083      2.576      0.041      3.348      8.537      0.164     27.156     31.107     32.147     22.377      8.200     86.599      8.758      8.377     77.711      0.206
  8261.0000     93.507      0.213      0.084      2.575      0.042      3.351      8.520      0.163     29.852     34.332     29.127     21.921      8.201     89.545      8.747      8.393     76.252      0.204
  8261.5000     98.487      0.223      0.095      2.557      0.040      3.253      8.512      0.173     33.703     38.609     25.900     23.960      8.201     93.349      8.748      8.406     75.087      0.200
  8262.0000     97.873      0.247      0.105      2.541      0.040      3.105      8.512      0.189     37.698     42.515     23.521     24.806      8.208     96.488      8.747      8.408     75.519      0.198
