~Version Information                                                          
 VERS.                             1.20: CWLS log ASCII Standard -VERSION 1.20
 WRAP.                               NO: One line per depth step              
~Well Information Block                                                       
#MNEM.UNIT           Data Type           Information                          
#--------- ----------------------------  -------------------------------------
 STRT.F                         92.0000:                                      
 STOP.F                       9060.0000:                                      
 STEP.F                          0.5000:                                      
 NULL.                        -999.2500:                                      
 COMP.                     Company Name: ENRON OIL & GAS                      
 WELL.                        Well Name: UNIVERSITY 6-18W NO.1                
 FLD .                       Field Name: WILDCAT                              
 LOC .                         Location: SECTION 18, BLOCK 6                  
 SLOC.                 SURFACE Location: 1216' FNL & 505' FWL                 
 SECT.                          Section: 18                                   
 TOWN.                         Township:                                      
 RANG.                            Range:                                      
 COUN.                           County: REAGAN                               
 STAT.                            State: TX                                   
 CTRY.                          Country: USA                                  
 SRVC.                  Service Company: HALLIBURTON ENERGY SERVICES          
 DATE.                 DATE as MM/DD/YY: 08/17/97                             
 APIN.                  API Well Number: 42-383-34800                         
 UWI .                   UNIQUE WELL ID: 42383348000000                       
 PD  .                  Permanent Datum: G.L.                                 
 RUN .                       Run Number: 1&2                                  
 DMF .           Drilling Measured From: KELLY BUSHING                        
 LMF .            Logging Measured From: K.B.                                 
 TCS .         Time Circulation Stopped: 0100                                 
 TLAB.            Time Logger at Bottom: 0830                                 
 DFT .              Drilling Fluid Type: FW-PAC-STARCH                        
 MCSS.           Mud Cake Sample Source: N/A                                  
 MFSS.       Mud Filtrate Sample Source: MEAS                                 
 MSS .                Mud Sample Source: MUD PIT                              
 LCCN.             Logging Company Name: HALLIBURTON ENERGY SERVICES          
 LUL .              Equiptment Location: ODTX                                 
 LUN .              Logging Unit Number: 52525                                
 ENGI.          Logging Engineer's Name: LAUFER                               
 WITN.                   Witness's Name: N. VAN LIEW                          
~Curve Information Block                                                      
#MNEM.UNIT                   API CODE    Curve Description                  
#---------                 ------------  -------------------------------------
 DEPT.F                    00 000 00 00:   1  Depth Curve                     
 GR2 .GAPI                 00 000 00 00:   2  GAMMA RAY -DENSITY-NEUTRON- 
 NPHI.DECP                 00 000 00 00:   3  NEUTRON POROSITY -LIME-     
 DPHI.DECP                 00 000 00 00:   4  DENSITY POROSITY -LIME-     
 RHOB.G/C3                 00 000 00 00:   5  BULK DENSITY                
 DRHO.G/C3                 00 000 00 00:   6  DENSITY CORRECTION          
 PE  .B/E                  00 000 00 00:   7  PHOTO-ELECTRIC FACTOR       
 CALI.IN                   00 000 00 00:   8  CALIPER -DENSITY-           
 PHIX.DECP                 00 000 00 00:   9  CROSSPLOT POROSITY          
 LLS .OHMM                 00 000 00 00:  10  LATERO-LOG, SHALLOW RESIS.  
 LLD .OHMM                 00 000 00 00:  11  LATERO-LOG, DEEP RESISTIVITY
 CLLD.MMHO                 00 000 00 00:  12  LATERO-LOG, DEEP CONDUCTIVTY
 MGRD.OHMM                 00 000 00 00:  13  MICRO-SFL   RESISTIVITY     
 CAL2.IN                   00 000 00 00:  14  CALIPER -MICRO-SFL-         
 GR  .GAPI                 00 000 00 00:  15  GAMMA RAY -SONIC-           
 C13 .IN                   00 000 00 00:  16  CALIPER PADS 1 - 3    -FACT-
 C24 .IN                   00 000 00 00:  17  CALIPER PADS 2 - 4    -FACT-
 DT  .US/F                 00 000 00 00:  18  SONIC TRANSIT TIME          
 SPHI.DECP                 00 000 00 00:  19  SONIC POROSITY  -LIME-      
~Parameter Information Block                                                  
#MNEM.UNIT            Value              Description                          
#--------- ----------------------------  -------------------------------------
 EDF .F                       2695.0000: Elevation, Derrick Floor    
 EGL .F                       2678.0000: Elevation, Ground Level     
 EKB .F                       2696.0000: Elevation, Kelly Bushing    
 EPD .F                       2678.0000: Elevation Perminent Datum   
 TDD .F                       9050.0000: Total Depth-Driller         
 TDL .F                       9044.0000: Total Depth-Logger          
 CBD .F                       3050.0000: Casing Bottom Driller 1     
 CBL .F                       3044.0000: Casing Bottom Logger 1      
 TLI .F                       2900.0000: Top Logged Interval         
 BLI .F                       9037.0000: Bottom Logged Interval      
 DFD .LB/G                       9.1000: Drilling Fluid Density      
 DFPH.----                      10.5000: Drilling Fluid Ph           
 DFL .C3                         5.6000: Drilling Fluid Loss         
 DFV .CP                        52.0000: Drilling Fluid Viscosity    
 RM  .CP                        52.0000: Mud Sample Resistivity      
 MST .DEGF                      69.0000: Mud Sample Temperature      
 RMF .DEGF                      69.0000: Mud Filtrate Resistivity    
 MFST.DEGF                      69.0000: Mud Filtrate Sample Temp    
 RMC .DEGF                      69.0000: Mud Cake Resistivity        
 MCST.DEGF                      69.0000: Mud Cake Sample Temperature 
 MRT .DEGF                     150.0000: Maximum Recorded Temperature
 BHT .DEGF                     111.0000: Bottom Hole Temperature     
~A   DEPT       GR2        NPHI       DPHI       RHOB       DRHO       PE         CALI       PHIX       LLS        LLD        CLLD       MGRD       CAL2       GR         C13        C24        DT         SPHI  
# ...
  5006.0000    101.538      0.326      0.140      2.484      0.007      3.534      8.739      0.242     12.139     12.344     81.012      8.883      8.375     99.854      8.964      8.803     87.891      0.281
  5006.5000     92.332      0.317      0.110      2.534      0.020      3.724      8.688      0.225     13.085     13.517     73.978     10.805      8.340     96.120      8.931      8.777     86.798      0.291
  5007.0000     89.036      0.284      0.092      2.561      0.034      3.753      8.638      0.203     13.452     13.913     71.875     13.028      8.381     87.581      8.900      8.737     89.252      0.286
  5007.5000     85.407      0.277      0.083      2.576      0.038      3.695      8.688      0.196     12.248     12.738     78.508     22.171      8.435     79.603      8.872      8.692     90.192      0.258
  5008.0000     86.985      0.296      0.101      2.547      0.028      3.569      8.655      0.212     10.927     11.362     88.014     23.545      8.473     77.288      8.872      8.686     78.962      0.241
  5008.5000     94.384      0.317      0.129      2.503      0.027      3.204      8.705      0.233     10.134     10.511     95.136     13.128      8.493     79.848      8.904      8.723     72.555      0.236
  5009.0000    102.642      0.332      0.128      2.504      0.057      2.919      8.764      0.240      9.804     10.060     99.402      9.001      8.505     87.809      8.958      8.763     82.266      0.234
  5009.5000    101.783      0.332      0.140      2.485      0.048      2.905      8.772      0.245     10.245     10.352     96.600      8.502      8.510     96.330      9.038      8.783     88.098      0.258
  5010.0000    100.696      0.340      0.139      2.486      0.048      2.937      8.772      0.248     11.043     11.087     90.195      8.396      8.510    102.221      9.093      8.798     87.070      0.283
  5010.5000    103.694      0.329      0.136      2.492      0.059      3.011      8.772      0.242     11.360     11.363     88.002      9.958      8.513    106.377      9.115      8.807     86.995      0.283
  5011.0000    101.573      0.325      0.144      2.478      0.051      3.019      8.848      0.243     11.478     11.531     86.724     10.846      8.513    105.290      9.117      8.807     88.350      0.286
  5011.5000     99.574      0.335      0.142      2.481      0.052      3.057      8.857      0.247     11.476     11.520     86.807     10.873      8.513    107.429      9.124      8.804     88.775      0.284
  5012.0000    102.554      0.343      0.153      2.464      0.045      3.058      8.873      0.255     11.035     11.232     89.031     10.553      8.512    111.900      9.123      8.805     87.428      0.287
  5012.5000    104.273      0.332      0.149      2.470      0.047      3.013      8.857      0.248     11.136     11.321     88.330      9.969      8.511    109.761      9.095      8.810     87.400      0.294
  5013.0000    104.816      0.322      0.137      2.490      0.049      3.026      8.873      0.239     11.032     11.239     88.975     10.090      8.512    105.518      9.060      8.810     90.780      0.299
  5013.5000    106.973      0.325      0.138      2.488      0.039      3.021      8.932      0.241     10.862     11.185     89.407     11.531      8.510    102.923      9.039      8.806     92.273      0.304
  5014.0000    108.639      0.327      0.123      2.512      0.043      3.100      8.949      0.235     11.077     11.460     87.262     10.803      8.503     97.768      9.048      8.806     90.858      0.302
  5014.5000    104.694      0.313      0.112      2.530      0.048      3.141      8.958      0.224     10.990     11.464     87.227     10.136      8.496     94.857      9.059      8.802     88.278      0.291
  5015.0000    100.486      0.309      0.116      2.523      0.044      3.109      8.941      0.224     11.195     11.685     85.578      9.771      8.496     95.892      9.058      8.802     86.617      0.282
  5015.5000     97.838      0.304      0.116      2.524      0.040      3.147      8.932      0.221     11.102     11.623     86.036     11.155      8.508    100.450      9.046      8.795     86.805      0.274
  5016.0000     94.787      0.292      0.116      2.523      0.034      3.206      8.924      0.216     10.745     11.368     87.970     12.915      8.509    100.819      9.037      8.794     85.967      0.269
  5016.5000     95.699      0.285      0.120      2.516      0.038      3.197      8.932      0.214     10.664     11.349     88.114     13.118      8.509     96.558      9.037      8.793     84.448      0.263
  5017.0000     99.661      0.298      0.133      2.496      0.034      3.230      8.890      0.225     10.546     11.295     88.536      9.650      8.500     97.680      9.036      8.799     83.852      0.253
  5017.5000    104.957      0.318      0.132      2.498      0.032      3.320      8.857      0.235     10.727     11.485     87.068      8.925      8.480     96.295      9.035      8.812     82.514      0.247
  5018.0000    103.063      0.337      0.129      2.502      0.025      3.501      8.890      0.243     11.432     12.397     80.666     10.353      8.428     94.647      9.035      8.826     80.997      0.254
  5018.5000     93.823      0.323      0.120      2.517      0.012      3.852      8.907      0.233     12.521     13.589     73.591     12.441      8.375     96.365      9.035      8.817     83.980      0.265
  5019.0000     87.809      0.292      0.074      2.591      0.034      3.953      8.865      0.200     14.019     15.121     66.132     12.986      8.352     91.456      9.045      8.787     89.023      0.274
  5019.5000     85.371      0.247      0.064      2.607      0.043      4.019      8.781      0.174     15.392     16.300     61.351     12.679      8.373     83.180      9.014      8.734     88.787      0.273
  5020.0000     85.634      0.254      0.073      2.593      0.046      3.883      8.764      0.181     15.352     16.348     61.171     19.264      8.411     80.778      8.957      8.682     84.533      0.235
  5020.5000     96.996      0.300      0.102      2.545      0.038      3.799      8.772      0.214     14.300     15.163     65.951     21.267      8.443     83.548      8.925      8.665     73.241      0.200
  5021.0000    111.076      0.346      0.136      2.491      0.040      3.339      8.781      0.250     12.557     13.480     74.183     15.044      8.469     87.668      8.961      8.684     66.512      0.200
  5021.5000    115.337      0.345      0.136      2.492      0.057      3.130      8.781      0.249     11.064     11.974     83.513     11.206      8.490     96.067      9.012      8.754     77.267      0.211
  5022.0000    115.301      0.326      0.141      2.483      0.043      3.063      8.772      0.242     10.221     10.973     91.135     12.143      8.507    107.709      9.052      8.802     87.842      0.252
  5022.5000    110.971      0.321      0.132      2.498      0.043      3.028      8.705      0.236      9.841     10.565     94.655     12.137      8.511    107.674      9.083      8.827     89.337      0.291
  5023.0000    104.062      0.313      0.115      2.525      0.046      3.040      8.705      0.226      9.774     10.463     95.579     10.855      8.517    107.131      9.112      8.831     90.639      0.295
  5023.5000    101.485      0.312      0.106      2.539      0.049      3.016      8.705      0.222      9.857     10.506     95.182      9.766      8.525    105.886      9.113      8.843     89.367      0.287
  5024.0000    100.100      0.303      0.110      2.533      0.043      3.034      8.789      0.219     10.083     10.734     93.160     10.452      8.527    105.360      9.114      8.847     85.898      0.277
  5024.5000    103.992      0.291      0.113      2.527      0.041      3.080      8.798      0.214     10.418     11.180     89.447     10.935      8.519    100.731      9.114      8.855     83.900      0.264
  5025.0000    107.622      0.295      0.116      2.523      0.038      3.087      8.806      0.217     10.972     11.799     84.756     10.357      8.514    100.468      9.108      8.844     83.608      0.257
