~Version Information                                                          
 VERS.                             1.20: CWLS log ASCII Standard -VERSION 1.20
 WRAP.                               NO: One line per depth step              
~Well Information Block                                                       
#MNEM.UNIT           Data Type           Information                          
#--------- ----------------------------  -------------------------------------
 STRT.F                         93.0000:                                      
 STOP.F                       8960.0000:                                      
 STEP.F                          0.5000:                                      
 NULL.                        -999.2500:                                      
 COMP.                     Company Name: ENRON OIL & GAS COMPANY              
 WELL.                        Well Name: UNIVERSITY 6-7 NO.1                  
 FLD .                       Field Name: GRIERSON                             
 LOC .                         Location: SECTION 7,BLOCK6                     
 SLOC.                 SURFACE Location: 874 FEL X 2193 FSL                   
 SECT.                          Section:                                      
 TOWN.                         Township:                                      
 RANG.                            Range:                                      
 COUN.                           County: REAGAN                               
 STAT.                            State: TEXAS                                
 CTRY.                          Country: USA                                  
 SRVC.                  Service Company: HALLIBURTON ENERGY SERVICES          
 DATE.                 DATE as MM/DD/YY: 04/29/97                             
 APIN.                  API Well Number: 42-383-34746                         
 UWI .                   UNIQUE WELL ID: 42383347460000                       
 PD  .                  Permanent Datum: G.L.                                 
 RUN .                       Run Number: ONE                                  
 DMF .           Drilling Measured From: KELLY BUSHING                        
 LMF .            Logging Measured From: K.B.                                 
 TCS .         Time Circulation Stopped:                                      
 TLAB.            Time Logger at Bottom:                                      
 DFT .              Drilling Fluid Type: FRESH GEL                            
 MCSS.           Mud Cake Sample Source: MEAS.                                
 MFSS.       Mud Filtrate Sample Source: MEAS.                                
 MSS .                Mud Sample Source: FLOWLINE                             
 LCCN.             Logging Company Name: HALLIBURTON ENERGY SERVICES          
 LUL .              Equiptment Location: ODESSA                               
 LUN .              Logging Unit Number: 51941                                
 ENGI.          Logging Engineer's Name: MART RILEY                           
 WITN.                   Witness's Name: N. VAN LIEW                          
~Curve Information Block                                                      
#MNEM.UNIT                   API CODE    Curve Description                  
#---------                 ------------  -------------------------------------
 DEPT.F                    00 000 00 00:   1  Depth Curve                     
 C13 .INCH                 99 075 22 05:   2  CALIPER PADS 1 - 3    -FACT-
 C24 .INCH                 99 075 22 05:   3  CALIPER PADS 2 - 4    -FACT-
 DT  .US/F                 99 075 22 05:   4  SONIC TRANSIT TIME          
 ILD .OHMM                 99 075 22 05:   5  IL, DEEP RESISTIVITY        
 ILM .OHMM                 99 075 22 05:   6  IL, MEDIUM RESISTIVITY      
 SGRD.OHMM                 99 075 22 05:   7  SHORT GUARD RESISTIVITY     
 SP  .MV                   99 075 22 05:   8  SPONTANEOUS POTENTIAL       
 SPHI.DECP                 99 075 22 05:   9  SONIC POROSITY  -LIME-      
 GR  .GAPI                 99 075 22 05:  10  GAMMA RAY                   
 CALI.INCH                 99 075 22 05:  11  CALIPER                     
 DPHI.DECP                 99 075 22 05:  12  DENSITY POROSITY -LIME-     
 GR2 .GAPI                 99 075 22 05:  13  GAMMA RAY 2ND SERVICE       
 NPHI.DECP                 99 075 22 05:  14  NEUTRON POROSITY -LIME-     
 PE  .B/E                  99 075 22 05:  15  PHOTO-ELECTRIC FACTOR       
 RHOB.G/C3                 99 075 22 05:  16  BULK DENSITY                
 DRHO.G/C3                 99 075 22 05:  17  DENSITY CORRECTION          
~Parameter Information Block                                                  
#MNEM.UNIT            Value              Description                          
#--------- ----------------------------  -------------------------------------
 EDF .F                       2732.0000: Elevation, Derrick Floor    
 EGL .F                       2715.0000: Elevation, Ground Level     
 EKB .F                       2733.0000: Elevation, Kelly Bushing    
 EPD .F                       2715.0000: Elevation Perminent Datum   
 TDD .F                       8950.0000: Total Depth-Driller         
 TDL .F                       8946.0000: Total Depth-Logger          
 CBD .F                       3000.0000: Casing Bottom Driller 1     
 CBL .F                       2998.0000: Casing Bottom Logger 1      
 TLI .F                       2980.0000: Top Logged Interval         
 BLI .F                       8941.0000: Bottom Logged Interval      
 DFD .LB/G                       9.4000: Drilling Fluid Density      
 DFPH.----                      10.0000: Drilling Fluid Ph           
 DFL .C3                        11.2000: Drilling Fluid Loss         
 DFV .CP                        46.0000: Drilling Fluid Viscosity    
 RM  .CP                        46.0000: Mud Sample Resistivity      
 MST .DEGF                      74.0000: Mud Sample Temperature      
 RMF .DEGF                      74.0000: Mud Filtrate Resistivity    
 MFST.DEGF                      74.0000: Mud Filtrate Sample Temp    
 RMC .DEGF                      74.0000: Mud Cake Resistivity        
 MCST.DEGF                      74.0000: Mud Cake Sample Temperature 
 MRT .DEGF                     165.0000: Maximum Recorded Temperature
 BHT .DEGF                     165.0000: Bottom Hole Temperature     
~A   DEPT       C13        C24        DT         ILD        ILM        SGRD       SP         SPHI       GR         CALI       DPHI       GR2        NPHI       PE         RHOB       DRHO  
# ...
  8542.5000      8.747      8.423     75.139      8.283      8.892     15.952    121.739      0.195     97.004      8.487      0.038    107.581      0.225      3.751      2.646      0.052
  8543.0000      8.752      8.402     75.100      8.249      8.948     14.876    121.851      0.194    100.507      8.452      0.023    109.197      0.223      3.591      2.671      0.064
  8543.5000      8.743      8.400     76.472      8.236      8.889     15.323    122.045      0.204     97.813      8.431      0.025    105.762      0.222      3.521      2.667      0.056
  8544.0000      8.724      8.402     75.272      8.261      8.774     15.602    122.163      0.196     95.320      8.431      0.030    105.088      0.225      3.487      2.659      0.044
  8544.5000      8.722      8.415     74.686      8.303      8.694     15.085    122.358      0.192     94.512      8.459      0.033    102.663      0.222      3.390      2.654      0.040
  8545.0000      8.717      8.414     75.137      8.299      8.670     14.787    122.517      0.195     96.398      8.480      0.036     99.430      0.214      3.367      2.648      0.044
  8545.5000      8.724      8.419     75.011      8.208      8.673     14.498    122.629      0.194     94.377      8.487      0.036     99.834      0.213      3.330      2.648      0.047
  8546.0000      8.729      8.417     75.120      8.020      8.621     14.550    122.546      0.195     98.284      8.445      0.033    105.863      0.212      3.320      2.653      0.053
  8546.5000      8.720      8.429     74.606      7.790      8.446     15.040    122.340      0.191    105.223      8.445      0.033    103.707      0.216      3.314      2.653      0.060
  8547.0000      8.715      8.435     74.080      7.592      8.116     15.295    121.981      0.187    102.259      8.459      0.034    106.806      0.222      3.271      2.652      0.069
  8547.5000      8.722      8.445     74.411      7.464      7.699     15.065    121.380      0.190    102.259      8.431      0.038    108.019      0.231      3.248      2.645      0.083
  8548.0000      8.778      8.498     75.306      7.408      7.365     14.208    120.708      0.196    101.585      8.438      0.044    108.086      0.246      3.212      2.635      0.097
  8548.5000      8.789      8.536     77.363      7.396      7.236     12.737    120.078      0.210     98.015      8.466      0.051    106.873      0.254      3.203      2.623      0.099
  8549.0000      8.767      8.519     79.270      7.388      7.295     11.686    119.541      0.224     95.186      8.480      0.057    107.412      0.255      3.200      2.613      0.096
  8549.5000      8.759      8.495     80.316      7.400      7.500     11.373    119.253      0.231     95.455      8.459      0.058    106.267      0.251      3.301      2.611      0.102
  8550.0000      8.746      8.453     81.123      7.482      7.734     12.051    119.265      0.237     92.222      8.459      0.053     99.396      0.240      3.333      2.619      0.098
  8550.5000      8.721      8.447     79.459      7.653      7.992     13.089    119.447      0.225     89.695      8.445      0.053     98.588      0.226      3.311      2.619      0.082
  8551.0000      8.694      8.392     76.548      7.922      8.267     14.170    119.630      0.205     90.369      8.438      0.056     96.028      0.227      3.320      2.615      0.069
  8551.5000      8.696      8.370     76.425      8.250      8.567     14.614    119.854      0.204     89.695      8.410      0.033     92.053      0.225      3.349      2.654      0.086
  8552.0000      8.650      8.343     75.745      8.599      8.857     15.296    120.078      0.199     91.447      8.397      0.028     95.320      0.220      3.296      2.662      0.084
  8552.5000      8.601      8.329     74.955      8.886      9.176     15.667    120.184      0.193     89.695      8.410      0.040     98.554      0.222      3.307      2.642      0.069
  8553.0000      8.606      8.315     75.136      9.110      9.487     16.037    120.172      0.195     92.424      8.341      0.040     97.981      0.213      3.326      2.642      0.067
  8553.5000      8.598      8.318     73.902      9.254      9.743     16.295    120.248      0.186     91.076      8.334      0.039     96.769      0.211      3.282      2.644      0.068
  8554.0000      8.592      8.312     72.905      9.351      9.891     17.522    120.178      0.179     88.045      8.334      0.046     96.297      0.203      3.266      2.631      0.059
  8554.5000      8.586      8.297     73.942      9.502      9.936     17.526    120.025      0.186     86.698      8.348      0.043     98.992      0.203      3.213      2.636      0.064
  8555.0000      8.583      8.288     72.725      9.718     10.020     17.873    119.842      0.178     90.605      8.299      0.036     96.230      0.209      3.219      2.648      0.077
  8555.5000      8.559      8.293     72.711      9.907     10.159     17.151    119.759      0.178     94.781      8.299      0.039     95.421      0.214      3.167      2.643      0.081
  8556.0000      8.543      8.297     75.180     10.063     10.918     17.018    119.642      0.195     96.735      8.272      0.040     95.017      0.212      3.196      2.641      0.088
  8556.5000      8.550      8.283     74.611     10.123     11.380     17.109    119.665      0.191     92.693      8.279      0.033     89.628      0.208      3.378      2.654      0.096
  8557.0000      8.533      8.299     71.917     10.108     11.851     19.687    119.724      0.172     87.978      8.320      0.029     82.218      0.190      3.495      2.661      0.094
  8557.5000      8.483      8.274     70.794     10.140     12.036     22.762    119.624      0.164     80.568      8.341      0.020     81.645      0.164      3.592      2.676      0.098
  8558.0000      8.481      8.286     69.095     10.272     11.835     24.459    119.524      0.152     80.433      8.334      0.026     78.547      0.149      3.628      2.665      0.091
  8558.5000      8.481      8.273     66.084     10.413     11.589     25.941    119.376      0.131     89.796      8.306      0.022     82.454      0.158      3.651      2.673      0.098
  8559.0000      8.535      8.301     68.128     10.544     11.487     21.114    119.129      0.145     96.263      8.299      0.033     88.954      0.184      3.697      2.653      0.091
  8559.5000      8.532      8.291     70.494     10.522     11.640     19.104    118.970      0.162    102.596      8.286      0.030     95.017      0.212      3.559      2.659      0.093
  8560.0000      8.507      8.270     71.297     10.341     11.768     19.007    119.029      0.168    102.461      8.327      0.038     99.935      0.220      3.522      2.645      0.079
  8560.5000      8.462      8.226     73.241     10.128     11.643     19.162    119.194      0.181     99.362      8.306      0.035    100.608      0.209      3.474      2.651      0.077
  8561.0000      8.466      8.218     73.272      9.961     11.259     21.414    119.265      0.182     94.512      8.313      0.035     98.183      0.202      3.443      2.650      0.067
  8561.5000      8.472      8.226     72.345      9.845     10.454     21.499    119.341      0.175     93.973      8.306      0.042     96.802      0.207      3.339      2.638      0.052
  8562.0000      8.478      8.245     72.036      9.763     10.145     20.641    119.335      0.173     94.916      8.292      0.044     98.554      0.214      3.312      2.634      0.054
  8562.5000      8.479      8.268     73.128      9.626      9.934     19.262    119.294      0.181     95.186      8.272      0.043     99.968      0.212      3.347      2.637      0.059
  8563.0000      8.479      8.268     74.566      9.420      9.695     18.466    119.217      0.191     95.657      8.272      0.034    103.741      0.209      3.314      2.652      0.073
  8563.5000      8.467      8.244     75.972      9.191      9.447     17.927    119.041      0.201     96.061      8.279      0.029    105.762      0.213      3.315      2.660      0.082
