~Version Information                                                          
 VERS.                             1.20: CWLS log ASCII Standard -VERSION 1.20
 WRAP.                               NO: One line per depth step              
~Well Information Block                                                       
#MNEM.UNIT           Data Type           Information                          
#--------- ----------------------------  -------------------------------------
 STRT.F                         92.0000:                                      
 STOP.F                       9060.0000:                                      
 STEP.F                          0.5000:                                      
 NULL.                        -999.2500:                                      
 COMP.                     Company Name: ENRON OIL & GAS                      
 WELL.                        Well Name: UNIVERSITY 6-18W NO.1                
 FLD .                       Field Name: WILDCAT                              
 LOC .                         Location: SECTION 18, BLOCK 6                  
 SLOC.                 SURFACE Location: 1216' FNL & 505' FWL                 
 SECT.                          Section: 18                                   
 TOWN.                         Township:                                      
 RANG.                            Range:                                      
 COUN.                           County: REAGAN                               
 STAT.                            State: TX                                   
 CTRY.                          Country: USA                                  
 SRVC.                  Service Company: HALLIBURTON ENERGY SERVICES          
 DATE.                 DATE as MM/DD/YY: 08/17/97                             
 APIN.                  API Well Number: 42-383-34800                         
 UWI .                   UNIQUE WELL ID: 42383348000000                       
 PD  .                  Permanent Datum: G.L.                                 
 RUN .                       Run Number: 1&2                                  
 DMF .           Drilling Measured From: KELLY BUSHING                        
 LMF .            Logging Measured From: K.B.                                 
 TCS .         Time Circulation Stopped: 0100                                 
 TLAB.            Time Logger at Bottom: 0830                                 
 DFT .              Drilling Fluid Type: FW-PAC-STARCH                        
 MCSS.           Mud Cake Sample Source: N/A                                  
 MFSS.       Mud Filtrate Sample Source: MEAS                                 
 MSS .                Mud Sample Source: MUD PIT                              
 LCCN.             Logging Company Name: HALLIBURTON ENERGY SERVICES          
 LUL .              Equiptment Location: ODTX                                 
 LUN .              Logging Unit Number: 52525                                
 ENGI.          Logging Engineer's Name: LAUFER                               
 WITN.                   Witness's Name: N. VAN LIEW                          
~Curve Information Block                                                      
#MNEM.UNIT                   API CODE    Curve Description                  
#---------                 ------------  -------------------------------------
 DEPT.F                    00 000 00 00:   1  Depth Curve                     
 GR2 .GAPI                 00 000 00 00:   2  GAMMA RAY -DENSITY-NEUTRON- 
 NPHI.DECP                 00 000 00 00:   3  NEUTRON POROSITY -LIME-     
 DPHI.DECP                 00 000 00 00:   4  DENSITY POROSITY -LIME-     
 RHOB.G/C3                 00 000 00 00:   5  BULK DENSITY                
 DRHO.G/C3                 00 000 00 00:   6  DENSITY CORRECTION          
 PE  .B/E                  00 000 00 00:   7  PHOTO-ELECTRIC FACTOR       
 CALI.IN                   00 000 00 00:   8  CALIPER -DENSITY-           
 PHIX.DECP                 00 000 00 00:   9  CROSSPLOT POROSITY          
 LLS .OHMM                 00 000 00 00:  10  LATERO-LOG, SHALLOW RESIS.  
 LLD .OHMM                 00 000 00 00:  11  LATERO-LOG, DEEP RESISTIVITY
 CLLD.MMHO                 00 000 00 00:  12  LATERO-LOG, DEEP CONDUCTIVTY
 MGRD.OHMM                 00 000 00 00:  13  MICRO-SFL   RESISTIVITY     
 CAL2.IN                   00 000 00 00:  14  CALIPER -MICRO-SFL-         
 GR  .GAPI                 00 000 00 00:  15  GAMMA RAY -SONIC-           
 C13 .IN                   00 000 00 00:  16  CALIPER PADS 1 - 3    -FACT-
 C24 .IN                   00 000 00 00:  17  CALIPER PADS 2 - 4    -FACT-
 DT  .US/F                 00 000 00 00:  18  SONIC TRANSIT TIME          
 SPHI.DECP                 00 000 00 00:  19  SONIC POROSITY  -LIME-      
~Parameter Information Block                                                  
#MNEM.UNIT            Value              Description                          
#--------- ----------------------------  -------------------------------------
 EDF .F                       2695.0000: Elevation, Derrick Floor    
 EGL .F                       2678.0000: Elevation, Ground Level     
 EKB .F                       2696.0000: Elevation, Kelly Bushing    
 EPD .F                       2678.0000: Elevation Perminent Datum   
 TDD .F                       9050.0000: Total Depth-Driller         
 TDL .F                       9044.0000: Total Depth-Logger          
 CBD .F                       3050.0000: Casing Bottom Driller 1     
 CBL .F                       3044.0000: Casing Bottom Logger 1      
 TLI .F                       2900.0000: Top Logged Interval         
 BLI .F                       9037.0000: Bottom Logged Interval      
 DFD .LB/G                       9.1000: Drilling Fluid Density      
 DFPH.----                      10.5000: Drilling Fluid Ph           
 DFL .C3                         5.6000: Drilling Fluid Loss         
 DFV .CP                        52.0000: Drilling Fluid Viscosity    
 RM  .CP                        52.0000: Mud Sample Resistivity      
 MST .DEGF                      69.0000: Mud Sample Temperature      
 RMF .DEGF                      69.0000: Mud Filtrate Resistivity    
 MFST.DEGF                      69.0000: Mud Filtrate Sample Temp    
 RMC .DEGF                      69.0000: Mud Cake Resistivity        
 MCST.DEGF                      69.0000: Mud Cake Sample Temperature 
 MRT .DEGF                     150.0000: Maximum Recorded Temperature
 BHT .DEGF                     111.0000: Bottom Hole Temperature     
~A   DEPT       GR2        NPHI       DPHI       RHOB       DRHO       PE         CALI       PHIX       LLS        LLD        CLLD       MGRD       CAL2       GR         C13        C24        DT         SPHI  
# ...
  5825.0000     96.330      0.270      0.144      2.479      0.050      2.857      8.520      0.216     16.901     16.509     60.572     15.045      8.269     90.649      8.721      8.522     78.502      0.228
  5825.5000     95.225      0.285      0.144      2.478      0.049      2.823      8.520      0.223     17.108     16.622     60.160     18.015      8.284     89.054      8.729      8.528     79.244      0.230
  5826.0000     92.718      0.281      0.144      2.478      0.047      2.841      8.528      0.221     16.363     15.852     63.084     19.847      8.306     89.317      8.744      8.529     81.613      0.235
  5826.5000     92.192      0.265      0.138      2.488      0.048      2.876      8.528      0.211     15.074     14.414     69.376     18.082      8.321     90.824      8.753      8.530     82.391      0.237
  5827.0000     91.298      0.252      0.129      2.502      0.047      2.866      8.537      0.201     13.682     13.001     76.918     16.401      8.321     89.667      8.740      8.548     80.931      0.233
  5827.5000     88.948      0.230      0.121      2.515      0.051      2.853      8.537      0.186     12.650     12.037     83.076     14.289      8.320     87.283      8.739      8.556     78.656      0.222
  5828.0000     91.789      0.221      0.113      2.528      0.056      2.876      8.537      0.178     12.188     11.687     85.564     15.712      8.321     81.777      8.755      8.557     77.128      0.207
  5828.5000     95.296      0.224      0.121      2.515      0.049      2.873      8.520      0.183     12.385     11.923     83.868     14.216      8.300     78.481      8.756      8.549     75.211      0.193
  5829.0000     99.661      0.244      0.127      2.505      0.045      2.902      8.520      0.196     13.252     12.719     78.624     13.133      8.261     80.760      8.755      8.549     72.470      0.190
  5829.5000    103.870      0.263      0.136      2.491      0.044      2.942      8.537      0.209     14.629     14.040     71.223     12.301      8.221     84.898      8.754      8.543     73.423      0.198
  5830.0000    109.515      0.272      0.143      2.479      0.042      2.965      8.537      0.216     16.150     15.543     64.337     13.590      8.203     90.632      8.753      8.507     78.555      0.212
  5830.5000    107.376      0.273      0.137      2.489      0.055      3.069      8.537      0.215     17.723     17.319     57.739     15.639      8.194     96.716      8.745      8.471     81.670      0.227
  5831.0000     98.417      0.260      0.139      2.486      0.044      3.337      8.520      0.209     19.829     19.387     51.581     17.867      8.193     95.646      8.747      8.413     81.322      0.236
  5831.5000     87.107      0.248      0.118      2.520      0.056      3.486      8.520      0.194     22.049     21.477     46.561     20.368      8.192     89.965      8.752      8.391     80.412      0.235
  5832.0000     77.166      0.221      0.110      2.533      0.065      3.516      8.520      0.177     25.271     24.382     41.014     19.172      8.192     83.075      8.756      8.391     80.386      0.224
  5832.5000     76.657      0.206      0.112      2.529      0.061      3.648      8.520      0.170     28.322     26.943     37.116     23.293      8.192     75.938      8.756      8.386     78.658      0.201
  5833.0000     83.601      0.212      0.113      2.528      0.054      3.620      8.512      0.173     28.124     26.706     37.445     45.240      8.195     78.218      8.760      8.381     71.741      0.189
  5833.5000     95.488      0.227      0.122      2.513      0.049      3.394      8.512      0.185     25.878     24.172     41.371     57.208      8.204     82.373      8.760      8.364     69.536      0.188
  5834.0000    107.306      0.247      0.127      2.505      0.052      3.270      8.537      0.197     20.791     19.724     50.700     38.941      8.216     91.386      8.762      8.362     76.092      0.193
  5834.5000    107.902      0.257      0.115      2.525      0.048      3.330      8.537      0.198     16.869     16.271     61.458     28.295      8.221     98.171      8.763      8.373     79.861      0.215
  5835.0000    108.551      0.262      0.114      2.526      0.046      3.222      8.537      0.200     14.843     14.672     68.157     22.461      8.224     97.855      8.761      8.413     80.233      0.228
  5835.5000    104.922      0.269      0.126      2.508      0.043      3.240      8.520      0.208     14.422     14.212     70.365     16.130      8.225     95.243      8.760      8.433     80.141      0.227
  5836.0000    102.607      0.275      0.135      2.492      0.035      3.115      8.520      0.215     15.123     14.753     67.783     13.409      8.227     92.701      8.760      8.440     79.011      0.228
  5836.5000    100.187      0.264      0.146      2.475      0.029      3.046      8.562      0.213     15.980     15.382     65.011     13.027      8.239     90.035      8.761      8.460     79.481      0.230
  5837.0000     94.664      0.242      0.149      2.471      0.035      2.981      8.562      0.204     15.961     15.414     64.877     18.565      8.257     86.792      8.761      8.473     80.959      0.230
  5837.5000     89.264      0.228      0.135      2.493      0.040      2.957      8.537      0.190     15.424     14.918     67.035     20.598      8.266     84.986      8.760      8.488     80.966      0.224
  5838.0000     84.319      0.220      0.124      2.511      0.043      2.953      8.537      0.182     14.665     14.216     70.342     17.978      8.269     84.740      8.761      8.495     77.952      0.214
  5838.5000     84.512      0.225      0.124      2.511      0.045      2.971      8.520      0.184     14.236     13.815     72.384     14.939      8.277     85.407      8.763      8.496     74.887      0.206
  5839.0000     90.035      0.230      0.124      2.511      0.042      3.124      8.503      0.187     14.596     14.106     70.893     14.154      8.292     86.511      8.766      8.497     75.119      0.199
  5839.5000     95.857      0.239      0.125      2.509      0.040      3.125      8.520      0.192     15.055     14.580     68.586     13.753      8.303     92.981      8.766      8.503     76.691      0.199
  5840.0000     98.907      0.258      0.121      2.515      0.046      3.052      8.520      0.200     15.413     14.817     67.489     13.860      8.308     94.226      8.763      8.514     76.184      0.209
  5840.5000     97.768      0.250      0.115      2.526      0.048      3.027      8.512      0.194     14.975     14.244     70.207     15.433      8.312     94.173      8.760      8.518     77.464      0.212
  5841.0000     91.736      0.232      0.116      2.523      0.044      2.868      8.503      0.185     13.693     13.028     76.757     16.304      8.316     93.402      8.759      8.525     79.083      0.210
  5841.5000     85.933      0.219      0.113      2.528      0.045      2.735      8.503      0.177     12.428     11.991     83.394     15.519      8.317     87.388      8.760      8.524     77.194      0.209
  5842.0000     84.740      0.211      0.110      2.532      0.051      2.670      8.520      0.171     12.014     11.680     85.613     13.544      8.303     83.285      8.760      8.527     75.536      0.200
  5842.5000     90.561      0.211      0.126      2.507      0.042      2.707      8.520      0.178     12.926     12.370     80.843     11.154      8.292     83.723      8.759      8.520     74.352      0.189
  5843.0000     97.803      0.226      0.129      2.502      0.041      2.806      8.512      0.187     14.267     13.489     74.134     10.123      8.296     87.949      8.759      8.514     73.139      0.187
  5843.5000    101.275      0.257      0.132      2.497      0.040      2.853      8.520      0.204     14.947     14.083     71.006     13.327      8.302     94.734      8.764      8.501     73.378      0.197
  5844.0000     98.925      0.254      0.132      2.497      0.039      2.865      8.520      0.203     14.211     13.508     74.028     18.139      8.289     98.785      8.775      8.461     77.459      0.213
