~Version Information                                                          
 VERS.                             1.20: CWLS log ASCII Standard -VERSION 1.20
 WRAP.                               NO: One line per depth step              
~Well Information Block                                                       
#MNEM.UNIT           Data Type           Information                          
#--------- ----------------------------  -------------------------------------
 STRT.F                         93.0000:                                      
 STOP.F                       8960.0000:                                      
 STEP.F                          0.5000:                                      
 NULL.                        -999.2500:                                      
 COMP.                     Company Name: ENRON OIL & GAS COMPANY              
 WELL.                        Well Name: UNIVERSITY 6-7 NO.1                  
 FLD .                       Field Name: GRIERSON                             
 LOC .                         Location: SECTION 7,BLOCK6                     
 SLOC.                 SURFACE Location: 874 FEL X 2193 FSL                   
 SECT.                          Section:                                      
 TOWN.                         Township:                                      
 RANG.                            Range:                                      
 COUN.                           County: REAGAN                               
 STAT.                            State: TEXAS                                
 CTRY.                          Country: USA                                  
 SRVC.                  Service Company: HALLIBURTON ENERGY SERVICES          
 DATE.                 DATE as MM/DD/YY: 04/29/97                             
 APIN.                  API Well Number: 42-383-34746                         
 UWI .                   UNIQUE WELL ID: 42383347460000                       
 PD  .                  Permanent Datum: G.L.                                 
 RUN .                       Run Number: ONE                                  
 DMF .           Drilling Measured From: KELLY BUSHING                        
 LMF .            Logging Measured From: K.B.                                 
 TCS .         Time Circulation Stopped:                                      
 TLAB.            Time Logger at Bottom:                                      
 DFT .              Drilling Fluid Type: FRESH GEL                            
 MCSS.           Mud Cake Sample Source: MEAS.                                
 MFSS.       Mud Filtrate Sample Source: MEAS.                                
 MSS .                Mud Sample Source: FLOWLINE                             
 LCCN.             Logging Company Name: HALLIBURTON ENERGY SERVICES          
 LUL .              Equiptment Location: ODESSA                               
 LUN .              Logging Unit Number: 51941                                
 ENGI.          Logging Engineer's Name: MART RILEY                           
 WITN.                   Witness's Name: N. VAN LIEW                          
~Curve Information Block                                                      
#MNEM.UNIT                   API CODE    Curve Description                  
#---------                 ------------  -------------------------------------
 DEPT.F                    00 000 00 00:   1  Depth Curve                     
 C13 .INCH                 99 075 22 05:   2  CALIPER PADS 1 - 3    -FACT-
 C24 .INCH                 99 075 22 05:   3  CALIPER PADS 2 - 4    -FACT-
 DT  .US/F                 99 075 22 05:   4  SONIC TRANSIT TIME          
 ILD .OHMM                 99 075 22 05:   5  IL, DEEP RESISTIVITY        
 ILM .OHMM                 99 075 22 05:   6  IL, MEDIUM RESISTIVITY      
 SGRD.OHMM                 99 075 22 05:   7  SHORT GUARD RESISTIVITY     
 SP  .MV                   99 075 22 05:   8  SPONTANEOUS POTENTIAL       
 SPHI.DECP                 99 075 22 05:   9  SONIC POROSITY  -LIME-      
 GR  .GAPI                 99 075 22 05:  10  GAMMA RAY                   
 CALI.INCH                 99 075 22 05:  11  CALIPER                     
 DPHI.DECP                 99 075 22 05:  12  DENSITY POROSITY -LIME-     
 GR2 .GAPI                 99 075 22 05:  13  GAMMA RAY 2ND SERVICE       
 NPHI.DECP                 99 075 22 05:  14  NEUTRON POROSITY -LIME-     
 PE  .B/E                  99 075 22 05:  15  PHOTO-ELECTRIC FACTOR       
 RHOB.G/C3                 99 075 22 05:  16  BULK DENSITY                
 DRHO.G/C3                 99 075 22 05:  17  DENSITY CORRECTION          
~Parameter Information Block                                                  
#MNEM.UNIT            Value              Description                          
#--------- ----------------------------  -------------------------------------
 EDF .F                       2732.0000: Elevation, Derrick Floor    
 EGL .F                       2715.0000: Elevation, Ground Level     
 EKB .F                       2733.0000: Elevation, Kelly Bushing    
 EPD .F                       2715.0000: Elevation Perminent Datum   
 TDD .F                       8950.0000: Total Depth-Driller         
 TDL .F                       8946.0000: Total Depth-Logger          
 CBD .F                       3000.0000: Casing Bottom Driller 1     
 CBL .F                       2998.0000: Casing Bottom Logger 1      
 TLI .F                       2980.0000: Top Logged Interval         
 BLI .F                       8941.0000: Bottom Logged Interval      
 DFD .LB/G                       9.4000: Drilling Fluid Density      
 DFPH.----                      10.0000: Drilling Fluid Ph           
 DFL .C3                        11.2000: Drilling Fluid Loss         
 DFV .CP                        46.0000: Drilling Fluid Viscosity    
 RM  .CP                        46.0000: Mud Sample Resistivity      
 MST .DEGF                      74.0000: Mud Sample Temperature      
 RMF .DEGF                      74.0000: Mud Filtrate Resistivity    
 MFST.DEGF                      74.0000: Mud Filtrate Sample Temp    
 RMC .DEGF                      74.0000: Mud Cake Resistivity        
 MCST.DEGF                      74.0000: Mud Cake Sample Temperature 
 MRT .DEGF                     165.0000: Maximum Recorded Temperature
 BHT .DEGF                     165.0000: Bottom Hole Temperature     
~A   DEPT       C13        C24        DT         ILD        ILM        SGRD       SP         SPHI       GR         CALI       DPHI       GR2        NPHI       PE         RHOB       DRHO  
# ...
  3361.0000      8.416      8.489     57.534     30.699     34.176     42.002     54.551      0.070     40.284      8.263      0.059     35.838      0.074      4.431      2.609      0.022
  3361.5000      8.419      8.497     57.566     30.595     34.094     42.011     53.938      0.070     38.734      8.235      0.058     35.703      0.073      4.437      2.611      0.025
  3362.0000      8.423      8.494     57.269     30.474     33.939     42.413     53.543      0.068     36.377      8.214      0.056     35.097      0.070      4.382      2.615      0.024
  3362.5000      8.416      8.497     57.014     30.354     33.718     43.320     53.425      0.067     37.926      8.228      0.049     35.501      0.068      4.300      2.626      0.028
  3363.0000      8.433      8.489     56.745     30.185     33.351     42.846     53.467      0.065     36.983      8.263      0.050     33.413      0.068      4.195      2.625      0.021
  3363.5000      8.425      8.497     56.508     29.920     32.856     41.786     53.649      0.063     39.543      8.256      0.051     33.076      0.069      4.212      2.624      0.022
  3364.0000      8.423      8.500     56.264     29.571     32.335     41.379     53.649      0.061     38.128      8.249      0.047     31.324      0.071      4.200      2.630      0.021
  3364.5000      8.425      8.500     56.592     29.274     31.876     40.804     53.514      0.064     37.050      8.263      0.050     33.076      0.069      4.277      2.624      0.021
  3365.0000      8.458      8.498     56.614     29.101     31.361     40.469     53.266      0.064     35.029      8.256      0.052     33.682      0.065      4.294      2.622      0.020
  3365.5000      8.457      8.495     56.150     29.018     30.916     39.809     53.019      0.060     31.796      8.235      0.052     36.175      0.066      4.382      2.621      0.020
  3366.0000      8.450      8.493     56.469     28.991     30.784     38.436     52.783      0.063     30.381      8.235      0.048     37.522      0.067      4.480      2.628      0.028
  3366.5000      8.448      8.489     56.591     28.711     30.936     37.239     52.642      0.064     29.640      8.242      0.048     38.734      0.068      4.509      2.628      0.029
  3367.0000      8.447      8.480     56.292     28.058     31.404     36.965     52.424      0.061     28.158      8.221      0.044     35.164      0.069      4.514      2.635      0.028
  3367.5000      8.431      8.487     56.039     27.083     31.409     38.271     52.282      0.060     25.464      8.221      0.038     33.143      0.066      4.512      2.646      0.033
  3368.0000      8.433      8.491     55.964     25.899     30.479     42.688     52.159      0.059     26.205      8.228      0.042     30.112      0.059      4.503      2.638      0.030
  3368.5000      8.447      8.493     55.958     24.779     28.693     43.465     52.029      0.059     25.800      8.242      0.041     28.428      0.056      4.469      2.640      0.030
  3369.0000      8.453      8.492     55.420     23.688     26.774     40.877     51.729      0.055     26.609      8.249      0.050     27.552      0.059      4.519      2.624      0.022
  3369.5000      8.474      8.498     55.383     22.531     25.175     33.654     51.257      0.055     30.247      8.312      0.060     26.676      0.063      4.593      2.608      0.018
  3370.0000      8.503      8.517     56.045     21.296     23.956     29.838     50.586      0.060     30.718      8.339      0.068     28.024      0.069      4.596      2.593      0.011
  3370.5000      8.538      8.510     56.589     20.006     22.983     29.679     49.761      0.064     28.495      8.318      0.074     27.821      0.076      4.682      2.584      0.006
  3371.0000      8.540      8.505     57.344     18.772     22.007     31.551     48.889      0.069     27.687      8.318      0.080     27.350      0.076      4.683      2.574      0.002
  3371.5000      8.550      8.504     57.517     17.710     21.037     36.882     47.934      0.070     24.386      8.318      0.076     23.847      0.072      4.784      2.580      0.004
  3372.0000      8.553      8.515     57.283     16.838     20.102     38.756     46.915      0.068     24.992      8.291      0.076     21.691      0.074      4.871      2.579      0.008
  3372.5000      8.557      8.521     56.730     16.098     19.258     37.873     45.760      0.065     22.567      8.256      0.072     20.277      0.080      4.835      2.586      0.013
  3373.0000      8.566      8.523     56.370     15.411     18.525     35.559     44.788      0.062     22.028      8.270      0.069     20.816      0.082      4.758      2.591      0.021
  3373.5000      8.562      8.536     56.989     14.750     17.848     34.351     43.781      0.066     25.059      8.235      0.074     21.489      0.081      4.567      2.584      0.029
  3374.0000      8.579      8.550     57.619     14.101     17.201     33.743     42.868      0.071     24.857      8.242      0.077     24.857      0.083      4.507      2.579      0.030
  3374.5000      8.596      8.558     58.311     13.451     16.546     32.542     41.925      0.076     24.184      8.277      0.085     26.811      0.090      4.477      2.564      0.032
  3375.0000      8.602      8.570     58.142     12.791     15.887     32.336     41.324      0.075     25.329      8.291      0.085     26.407      0.090      4.385      2.565      0.037
  3375.5000      8.603      8.588     58.181     12.119     15.183     30.549     41.024      0.075     25.396      8.284      0.092     26.137      0.092      4.362      2.552      0.034
  3376.0000      8.632      8.626     59.077     11.466     14.421     29.614     41.053      0.081     25.194      8.256      0.096     23.712      0.097      4.299      2.546      0.030
  3376.5000      8.675      8.663     58.914     10.860     13.585     28.386     41.171      0.080     26.003      8.270      0.097     21.422      0.101      4.369      2.544      0.031
  3377.0000      8.716      8.694     59.236     10.305     12.722     27.704     41.271      0.082     26.609      8.353      0.096     22.769      0.107      4.302      2.545      0.032
  3377.5000      8.765      8.737     60.139      9.788     11.905     26.766     41.365      0.089     26.070      8.388      0.096     22.365      0.114      4.373      2.547      0.033
  3378.0000      8.812      8.787     60.317      9.282     11.184     25.743     41.395      0.090     27.350      8.325      0.093     22.432      0.122      4.331      2.550      0.042
  3378.5000      8.836      8.832     60.284      8.842     10.216     24.177     41.371      0.090     27.417      8.332      0.096     21.220      0.129      4.389      2.545      0.046
  3379.0000      8.833      8.862     60.958      8.507      9.728     23.086     41.295      0.094     25.598      8.388      0.097     21.961      0.131      4.363      2.544      0.051
  3379.5000      8.820      8.896     61.602      8.321      9.351     21.999     41.200      0.099     25.194      8.499      0.100     25.666      0.134      4.336      2.540      0.054
  3380.0000      8.827      8.932     61.845      8.292      9.116     21.524     41.035      0.101     24.588      8.506      0.100     27.350      0.137      4.310      2.539      0.056
  3380.5000      8.872      8.949     62.156      8.392      9.072     20.471     40.941      0.103     25.329      8.457      0.098     28.158      0.142      4.295      2.542      0.068
  3381.0000      8.912      8.951     62.759      8.576      9.256     19.428     40.853      0.107     23.982      8.485      0.100     26.407      0.148      4.287      2.539      0.069
  3381.5000      8.925      8.951     62.737      8.783      9.656     19.953     40.870      0.107     21.624      8.471      0.103     26.003      0.160      4.363      2.533      0.075
  3382.0000      8.927      8.934     62.783      8.968     10.185     21.761     40.882      0.107     19.468      8.478      0.114     22.769      0.161      4.607      2.514      0.069
