~Version Information                                                          
 VERS.                             1.20: CWLS log ASCII Standard -VERSION 1.20
 WRAP.                               NO: One line per depth step              
~Well Information Block                                                       
#MNEM.UNIT           Data Type           Information                          
#--------- ----------------------------  -------------------------------------
 STRT.F                         93.0000:                                      
 STOP.F                       8960.0000:                                      
 STEP.F                          0.5000:                                      
 NULL.                        -999.2500:                                      
 COMP.                     Company Name: ENRON OIL & GAS COMPANY              
 WELL.                        Well Name: UNIVERSITY 6-7 NO.1                  
 FLD .                       Field Name: GRIERSON                             
 LOC .                         Location: SECTION 7,BLOCK6                     
 SLOC.                 SURFACE Location: 874 FEL X 2193 FSL                   
 SECT.                          Section:                                      
 TOWN.                         Township:                                      
 RANG.                            Range:                                      
 COUN.                           County: REAGAN                               
 STAT.                            State: TEXAS                                
 CTRY.                          Country: USA                                  
 SRVC.                  Service Company: HALLIBURTON ENERGY SERVICES          
 DATE.                 DATE as MM/DD/YY: 04/29/97                             
 APIN.                  API Well Number: 42-383-34746                         
 UWI .                   UNIQUE WELL ID: 42383347460000                       
 PD  .                  Permanent Datum: G.L.                                 
 RUN .                       Run Number: ONE                                  
 DMF .           Drilling Measured From: KELLY BUSHING                        
 LMF .            Logging Measured From: K.B.                                 
 TCS .         Time Circulation Stopped:                                      
 TLAB.            Time Logger at Bottom:                                      
 DFT .              Drilling Fluid Type: FRESH GEL                            
 MCSS.           Mud Cake Sample Source: MEAS.                                
 MFSS.       Mud Filtrate Sample Source: MEAS.                                
 MSS .                Mud Sample Source: FLOWLINE                             
 LCCN.             Logging Company Name: HALLIBURTON ENERGY SERVICES          
 LUL .              Equiptment Location: ODESSA                               
 LUN .              Logging Unit Number: 51941                                
 ENGI.          Logging Engineer's Name: MART RILEY                           
 WITN.                   Witness's Name: N. VAN LIEW                          
~Curve Information Block                                                      
#MNEM.UNIT                   API CODE    Curve Description                  
#---------                 ------------  -------------------------------------
 DEPT.F                    00 000 00 00:   1  Depth Curve                     
 C13 .INCH                 99 075 22 05:   2  CALIPER PADS 1 - 3    -FACT-
 C24 .INCH                 99 075 22 05:   3  CALIPER PADS 2 - 4    -FACT-
 DT  .US/F                 99 075 22 05:   4  SONIC TRANSIT TIME          
 ILD .OHMM                 99 075 22 05:   5  IL, DEEP RESISTIVITY        
 ILM .OHMM                 99 075 22 05:   6  IL, MEDIUM RESISTIVITY      
 SGRD.OHMM                 99 075 22 05:   7  SHORT GUARD RESISTIVITY     
 SP  .MV                   99 075 22 05:   8  SPONTANEOUS POTENTIAL       
 SPHI.DECP                 99 075 22 05:   9  SONIC POROSITY  -LIME-      
 GR  .GAPI                 99 075 22 05:  10  GAMMA RAY                   
 CALI.INCH                 99 075 22 05:  11  CALIPER                     
 DPHI.DECP                 99 075 22 05:  12  DENSITY POROSITY -LIME-     
 GR2 .GAPI                 99 075 22 05:  13  GAMMA RAY 2ND SERVICE       
 NPHI.DECP                 99 075 22 05:  14  NEUTRON POROSITY -LIME-     
 PE  .B/E                  99 075 22 05:  15  PHOTO-ELECTRIC FACTOR       
 RHOB.G/C3                 99 075 22 05:  16  BULK DENSITY                
 DRHO.G/C3                 99 075 22 05:  17  DENSITY CORRECTION          
~Parameter Information Block                                                  
#MNEM.UNIT            Value              Description                          
#--------- ----------------------------  -------------------------------------
 EDF .F                       2732.0000: Elevation, Derrick Floor    
 EGL .F                       2715.0000: Elevation, Ground Level     
 EKB .F                       2733.0000: Elevation, Kelly Bushing    
 EPD .F                       2715.0000: Elevation Perminent Datum   
 TDD .F                       8950.0000: Total Depth-Driller         
 TDL .F                       8946.0000: Total Depth-Logger          
 CBD .F                       3000.0000: Casing Bottom Driller 1     
 CBL .F                       2998.0000: Casing Bottom Logger 1      
 TLI .F                       2980.0000: Top Logged Interval         
 BLI .F                       8941.0000: Bottom Logged Interval      
 DFD .LB/G                       9.4000: Drilling Fluid Density      
 DFPH.----                      10.0000: Drilling Fluid Ph           
 DFL .C3                        11.2000: Drilling Fluid Loss         
 DFV .CP                        46.0000: Drilling Fluid Viscosity    
 RM  .CP                        46.0000: Mud Sample Resistivity      
 MST .DEGF                      74.0000: Mud Sample Temperature      
 RMF .DEGF                      74.0000: Mud Filtrate Resistivity    
 MFST.DEGF                      74.0000: Mud Filtrate Sample Temp    
 RMC .DEGF                      74.0000: Mud Cake Resistivity        
 MCST.DEGF                      74.0000: Mud Cake Sample Temperature 
 MRT .DEGF                     165.0000: Maximum Recorded Temperature
 BHT .DEGF                     165.0000: Bottom Hole Temperature     
~A   DEPT       C13        C24        DT         ILD        ILM        SGRD       SP         SPHI       GR         CALI       DPHI       GR2        NPHI       PE         RHOB       DRHO  
# ...
  8134.0000      8.489      8.372     83.005     20.560     21.453     48.326    118.711      0.250    103.539      8.542      0.100     95.455      0.195      3.222      2.540      0.033
  8134.5000      8.501      8.383     82.477     20.429     21.350     44.153    118.245      0.247     98.284      8.542      0.098     91.279      0.212      3.310      2.542      0.040
  8135.0000      8.519      8.396     79.600     20.578     21.693     44.765    117.915      0.226    104.751      8.528      0.105     92.963      0.234      3.229      2.530      0.036
  8135.5000      8.529      8.415     78.645     20.772     22.268     40.653    117.697      0.220    104.145      8.508      0.114     95.522      0.238      3.034      2.515      0.038
  8136.0000      8.536      8.425     82.778     20.773     22.778     40.448    117.538      0.249    105.762      8.508      0.117     99.025      0.242      3.065      2.510      0.032
  8136.5000      8.548      8.425     82.648     20.424     22.793     43.050    117.344      0.248    117.214      8.508      0.112    109.602      0.246      3.078      2.519      0.034
  8137.0000      8.560      8.424     82.119     19.795     22.119     43.721    117.055      0.244    114.688      8.542      0.107    120.043      0.248      3.102      2.527      0.032
  8137.5000      8.564      8.426     82.397     19.118     21.091     40.937    116.831      0.246    112.869      8.514      0.102    124.556      0.248      3.123      2.535      0.035
  8138.0000      8.566      8.448     81.787     18.323     20.007     37.180    116.696      0.242    111.521      8.494      0.096    126.779      0.245      3.176      2.546      0.043
  8138.5000      8.560      8.449     82.227     17.366     19.064     34.050    116.572      0.245    109.366      8.501      0.097    122.670      0.238      3.270      2.545      0.045
  8139.0000      8.565      8.439     82.697     16.212     18.178     33.569    116.342      0.248    106.435      8.521      0.098    120.043      0.243      3.284      2.543      0.045
  8139.5000      8.571      8.441     82.355     15.025     17.057     33.165    116.142      0.246    112.566      8.563      0.096    119.033      0.244      3.319      2.545      0.053
  8140.0000      8.573      8.443     82.156     14.031     15.598     31.173    116.171      0.244    114.519      8.556      0.094    119.167      0.243      3.428      2.550      0.063
  8140.5000      8.577      8.441     82.948     13.394     14.137     29.129    116.342      0.250    113.643      8.563      0.088    116.069      0.233      3.586      2.560      0.069
  8141.0000      8.597      8.426     82.850     13.180     13.076     27.421    116.460      0.249    113.037      8.521      0.082    112.161      0.226      3.553      2.570      0.073
  8141.5000      8.611      8.423     81.773     13.318     12.536     25.032    116.643      0.242    104.145      8.514      0.072    100.912      0.214      3.594      2.587      0.080
  8142.0000      8.622      8.430     80.530     13.687     12.670     22.706    116.855      0.233     94.512      8.528      0.058     93.165      0.210      3.783      2.612      0.077
  8142.5000      8.575      8.423     78.662     14.019     13.409     21.252    117.167      0.220     89.258      8.528      0.044     85.485      0.200      4.003      2.634      0.067
  8143.0000      8.506      8.420     75.520     14.195     14.569     21.811    117.815      0.197     76.997      8.514      0.041     75.785      0.178      4.051      2.639      0.042
  8143.5000      8.437      8.417     71.067     14.257     15.786     26.501    118.664      0.166     67.162      8.521      0.022     66.488      0.131      4.173      2.672      0.038
  8144.0000      8.378      8.420     67.438     14.434     16.334     39.371    119.424      0.140     65.545      8.570      0.006     71.002      0.101      4.084      2.699      0.044
  8144.5000      8.360      8.413     66.189     14.837     16.029     52.287    119.848      0.131     71.608      8.535      0.026     74.033      0.109      3.952      2.666      0.033
  8145.0000      8.358      8.409     63.861     15.241     15.507     59.683    119.818      0.115     87.708      8.459      0.050     89.392      0.147      3.678      2.624      0.034
  8145.5000      8.360      8.419     65.877     15.364     15.052     39.985    119.659      0.129    104.415      8.473      0.079    103.202      0.192      3.484      2.574      0.028
  8146.0000      8.356      8.413     73.658     14.926     14.778     30.798    119.624      0.184    113.778      8.459      0.093    109.332      0.224      3.258      2.551      0.039
  8146.5000      8.355      8.420     78.977     14.076     14.455     30.443    119.636      0.222    114.991      8.480      0.104    111.622      0.228      3.176      2.532      0.042
  8147.0000      8.345      8.427     82.314     13.254     14.010     28.844    119.612      0.246    109.938      8.494      0.113    109.804      0.225      3.161      2.516      0.043
  8147.5000      8.356      8.442     82.330     12.667     13.445     30.919    119.312      0.246    104.415      8.521      0.121    106.974      0.223      3.063      2.502      0.041
  8148.0000      8.367      8.440     80.355     12.315     12.864     30.241    118.846      0.232    104.549      8.501      0.122    114.115      0.232      3.057      2.502      0.043
  8148.5000      8.362      8.425     81.606     12.114     12.334     27.662    118.428      0.240    107.783      8.508      0.118    113.037      0.235      3.076      2.509      0.047
  8149.0000      8.369      8.416     83.086     11.928     11.958     25.905    118.139      0.251    107.783      8.535      0.110    109.467      0.236      3.082      2.522      0.050
  8149.5000      8.377      8.413     82.778     11.682     11.706     24.265    117.786      0.249    107.176      8.521      0.106    109.602      0.231      3.123      2.529      0.047
  8150.0000      8.364      8.408     82.439     11.401     11.516     23.152    117.538      0.246    103.539      8.480      0.102    108.793      0.221      3.142      2.536      0.047
  8150.5000      8.359      8.415     81.363     11.194     11.316     23.680    117.585      0.239    102.596      8.480      0.101    106.099      0.219      3.141      2.537      0.048
  8151.0000      8.355      8.422     79.947     11.129     11.154     23.715    117.568      0.229    101.451      8.494      0.102    104.953      0.217      3.158      2.536      0.046
  8151.5000      8.358      8.421     79.478     11.266     11.110     23.597    116.761      0.225    102.057      8.508      0.101    106.705      0.213      3.108      2.537      0.043
  8152.0000      8.369      8.414     79.631     11.588     11.251     23.769    115.394      0.227    103.269      8.459      0.099    104.886      0.218      3.208      2.541      0.047
  8152.5000      8.361      8.422     79.678     12.061     11.568     24.043    113.968      0.227    102.730      8.445      0.101    101.922      0.228      3.179      2.537      0.047
  8153.0000      8.362      8.421     80.589     12.616     12.139     25.174    112.790      0.233    104.751      8.480      0.105    100.238      0.230      3.170      2.530      0.050
  8153.5000      8.359      8.428     81.200     13.124     13.026     26.660    111.682      0.238    103.539      8.501      0.103     99.295      0.223      3.136      2.535      0.061
  8154.0000      8.356      8.396     80.795     13.500     14.042     29.498    110.663      0.235     98.554      8.494      0.103     97.678      0.216      3.060      2.533      0.056
  8154.5000      8.362      8.365     79.944     13.734     14.769     35.033    109.767      0.229     99.227      8.473      0.099     96.600      0.209      3.032      2.540      0.060
  8155.0000      8.366      8.340     79.817     13.930     14.889     36.713    109.060      0.228    100.709      8.466      0.100    103.269      0.199      3.014      2.539      0.058
