~Version Information                                                          
 VERS.                             1.20: CWLS log ASCII Standard -VERSION 1.20
 WRAP.                               NO: One line per depth step              
~Well Information Block                                                       
#MNEM.UNIT           Data Type           Information                          
#--------- ----------------------------  -------------------------------------
 STRT.F                         93.0000:                                      
 STOP.F                       8960.0000:                                      
 STEP.F                          0.5000:                                      
 NULL.                        -999.2500:                                      
 COMP.                     Company Name: ENRON OIL & GAS COMPANY              
 WELL.                        Well Name: UNIVERSITY 6-7 NO.1                  
 FLD .                       Field Name: GRIERSON                             
 LOC .                         Location: SECTION 7,BLOCK6                     
 SLOC.                 SURFACE Location: 874 FEL X 2193 FSL                   
 SECT.                          Section:                                      
 TOWN.                         Township:                                      
 RANG.                            Range:                                      
 COUN.                           County: REAGAN                               
 STAT.                            State: TEXAS                                
 CTRY.                          Country: USA                                  
 SRVC.                  Service Company: HALLIBURTON ENERGY SERVICES          
 DATE.                 DATE as MM/DD/YY: 04/29/97                             
 APIN.                  API Well Number: 42-383-34746                         
 UWI .                   UNIQUE WELL ID: 42383347460000                       
 PD  .                  Permanent Datum: G.L.                                 
 RUN .                       Run Number: ONE                                  
 DMF .           Drilling Measured From: KELLY BUSHING                        
 LMF .            Logging Measured From: K.B.                                 
 TCS .         Time Circulation Stopped:                                      
 TLAB.            Time Logger at Bottom:                                      
 DFT .              Drilling Fluid Type: FRESH GEL                            
 MCSS.           Mud Cake Sample Source: MEAS.                                
 MFSS.       Mud Filtrate Sample Source: MEAS.                                
 MSS .                Mud Sample Source: FLOWLINE                             
 LCCN.             Logging Company Name: HALLIBURTON ENERGY SERVICES          
 LUL .              Equiptment Location: ODESSA                               
 LUN .              Logging Unit Number: 51941                                
 ENGI.          Logging Engineer's Name: MART RILEY                           
 WITN.                   Witness's Name: N. VAN LIEW                          
~Curve Information Block                                                      
#MNEM.UNIT                   API CODE    Curve Description                  
#---------                 ------------  -------------------------------------
 DEPT.F                    00 000 00 00:   1  Depth Curve                     
 C13 .INCH                 99 075 22 05:   2  CALIPER PADS 1 - 3    -FACT-
 C24 .INCH                 99 075 22 05:   3  CALIPER PADS 2 - 4    -FACT-
 DT  .US/F                 99 075 22 05:   4  SONIC TRANSIT TIME          
 ILD .OHMM                 99 075 22 05:   5  IL, DEEP RESISTIVITY        
 ILM .OHMM                 99 075 22 05:   6  IL, MEDIUM RESISTIVITY      
 SGRD.OHMM                 99 075 22 05:   7  SHORT GUARD RESISTIVITY     
 SP  .MV                   99 075 22 05:   8  SPONTANEOUS POTENTIAL       
 SPHI.DECP                 99 075 22 05:   9  SONIC POROSITY  -LIME-      
 GR  .GAPI                 99 075 22 05:  10  GAMMA RAY                   
 CALI.INCH                 99 075 22 05:  11  CALIPER                     
 DPHI.DECP                 99 075 22 05:  12  DENSITY POROSITY -LIME-     
 GR2 .GAPI                 99 075 22 05:  13  GAMMA RAY 2ND SERVICE       
 NPHI.DECP                 99 075 22 05:  14  NEUTRON POROSITY -LIME-     
 PE  .B/E                  99 075 22 05:  15  PHOTO-ELECTRIC FACTOR       
 RHOB.G/C3                 99 075 22 05:  16  BULK DENSITY                
 DRHO.G/C3                 99 075 22 05:  17  DENSITY CORRECTION          
~Parameter Information Block                                                  
#MNEM.UNIT            Value              Description                          
#--------- ----------------------------  -------------------------------------
 EDF .F                       2732.0000: Elevation, Derrick Floor    
 EGL .F                       2715.0000: Elevation, Ground Level     
 EKB .F                       2733.0000: Elevation, Kelly Bushing    
 EPD .F                       2715.0000: Elevation Perminent Datum   
 TDD .F                       8950.0000: Total Depth-Driller         
 TDL .F                       8946.0000: Total Depth-Logger          
 CBD .F                       3000.0000: Casing Bottom Driller 1     
 CBL .F                       2998.0000: Casing Bottom Logger 1      
 TLI .F                       2980.0000: Top Logged Interval         
 BLI .F                       8941.0000: Bottom Logged Interval      
 DFD .LB/G                       9.4000: Drilling Fluid Density      
 DFPH.----                      10.0000: Drilling Fluid Ph           
 DFL .C3                        11.2000: Drilling Fluid Loss         
 DFV .CP                        46.0000: Drilling Fluid Viscosity    
 RM  .CP                        46.0000: Mud Sample Resistivity      
 MST .DEGF                      74.0000: Mud Sample Temperature      
 RMF .DEGF                      74.0000: Mud Filtrate Resistivity    
 MFST.DEGF                      74.0000: Mud Filtrate Sample Temp    
 RMC .DEGF                      74.0000: Mud Cake Resistivity        
 MCST.DEGF                      74.0000: Mud Cake Sample Temperature 
 MRT .DEGF                     165.0000: Maximum Recorded Temperature
 BHT .DEGF                     165.0000: Bottom Hole Temperature     
~A   DEPT       C13        C24        DT         ILD        ILM        SGRD       SP         SPHI       GR         CALI       DPHI       GR2        NPHI       PE         RHOB       DRHO  
# ...
  5360.5000      8.713      8.974     86.331     16.815     16.787     23.192    101.024      0.274     89.325      8.516      0.183     91.683      0.283      2.609      2.398      0.082
  5361.0000      8.865      9.102     87.080     17.314     18.134     24.102    100.947      0.279     84.340      8.502      0.176     87.776      0.290      2.739      2.409      0.141
  5361.5000      9.149      9.003     85.502     17.554     19.596     25.584    100.941      0.268     78.210      8.502      0.176     80.096      0.267      2.805      2.409      0.188
  5362.0000      9.520      8.732     81.600     17.541     20.327     29.858    101.165      0.240     75.246      8.502      0.188     72.686      0.229      2.860      2.389      0.216
  5362.5000      9.821      8.510     83.233     17.342     19.839     31.270    101.637      0.252     74.437      8.564      0.187     67.297      0.209      2.919      2.391      0.244
  5363.0000      9.885      8.455     82.498     17.006     18.719     30.692    102.238      0.247     74.909      8.529      0.180     66.960      0.222      2.948      2.402      0.251
  5363.5000      9.726      8.492     76.092     16.416     17.565     26.191    102.874      0.202     76.189      8.613      0.180     72.147      0.247      2.901      2.402      0.245
  5364.0000      9.481      8.548     79.011     15.643     16.551     23.269    103.457      0.222     80.231      8.592      0.177     75.313      0.254      2.884      2.408      0.247
  5364.5000      9.403      8.586     85.480     14.787     15.546     22.023    103.946      0.268     78.614      8.571      0.180     79.692      0.254      2.837      2.402      0.261
  5365.0000      9.388      8.611     86.241     14.027     14.653     21.312    104.317      0.273     78.142      8.543      0.226     80.433      0.257      2.834      2.324      0.261
  5365.5000      9.471      8.610     86.169     13.468     13.934     20.446    104.476      0.273     78.210      8.620      0.258     75.448      0.261      2.936      2.269      0.275
  5366.0000      9.693      8.591     86.064     13.081     13.461     19.995    104.577      0.272     77.873      8.675      0.281     73.090      0.268      2.910      2.230      0.277
  5366.5000      9.838      8.575     86.008     12.847     13.151     19.335    104.795      0.272     76.526      8.661      0.303     69.452      0.271      2.823      2.192      0.254
  5367.0000      9.857      8.595     86.111     12.693     12.971     18.967    105.195      0.272     79.624      8.717      0.284     69.655      0.280      2.792      2.224      0.255
  5367.5000      9.842      8.607     85.961     12.569     12.873     18.888    105.537      0.271     82.319      8.758      0.263     69.385      0.274      2.796      2.260      0.253
  5368.0000      9.906      8.621     85.822     12.458     12.800     18.796    105.684      0.270     78.345      8.807      0.236     70.059      0.278      2.845      2.306      0.267
  5368.5000      9.889      8.636     85.702     12.344     12.703     19.320    105.672      0.269     79.624      8.779      0.219     71.810      0.279      2.852      2.336      0.270
  5369.0000      9.855      8.638     85.745     12.219     12.563     19.181    105.749      0.270     79.220      8.772      0.195     77.334      0.281      2.823      2.376      0.277
  5369.5000      9.780      8.646     86.544     12.073     12.427     19.147    105.944      0.275     77.469      8.862      0.173     78.614      0.283      2.864      2.414      0.284
  5370.0000      9.723      8.673     87.492     11.915     12.256     18.928    106.138      0.282     79.557      8.904      0.152     83.532      0.277      2.812      2.450      0.285
  5370.5000      9.740      8.679     87.336     11.787     12.002     18.955    106.391      0.281     82.656      8.897      0.152     83.666      0.276      2.788      2.451      0.279
  5371.0000      9.725      8.678     87.061     11.697     11.739     19.130    106.627      0.279     82.656      8.911      0.184     83.464      0.280      2.619      2.395      0.261
  5371.5000      9.797      8.678     87.842     11.632     11.561     18.133    106.863      0.285     81.511      9.015      0.209     85.418      0.292      2.700      2.353      0.263
  5372.0000      9.927      8.684     88.031     11.545     11.535     17.391    107.057      0.286     81.174      9.147      0.209     82.791      0.293      2.827      2.353      0.281
  5372.5000      9.945      8.687     87.900     11.425     11.578     17.103    107.310      0.285     80.904      9.341      0.208     81.241      0.292      2.890      2.355      0.299
  5373.0000      9.954      8.674     88.731     11.303     11.595     17.384    107.434      0.291     77.334      9.383      0.203     85.822      0.293      2.947      2.363      0.306
  5373.5000      9.958      8.677     89.089     11.218     11.561     18.057    107.487      0.293     81.039      9.216      0.194     84.946      0.296      3.083      2.378      0.312
  5374.0000      9.970      8.683     88.406     11.179     11.482     18.100    107.564      0.289     79.220      8.960      0.195     80.096      0.286      3.016      2.376      0.285
  5374.5000      9.962      8.700     87.731     11.149     11.381     18.171    107.587      0.284     83.262      8.724      0.204     79.759      0.284      2.983      2.361      0.253
  5375.0000      9.944      8.702     87.983     11.096     11.275     17.783    107.676      0.286     86.563      8.661      0.214     78.749      0.295      2.927      2.343      0.214
  5375.5000      9.939      8.697     88.006     10.997     11.190     17.510    107.729      0.286     87.573      8.710      0.222     79.018      0.301      2.917      2.330      0.169
  5376.0000      9.941      8.745     87.081     10.834     11.117     17.294    107.664      0.279     88.180      8.717      0.235     82.252      0.309      2.792      2.308      0.118
  5376.5000      9.928      8.806     87.086     10.645     10.994     17.887    107.434      0.279     89.662      8.710      0.260     86.361      0.310      2.645      2.265      0.062
  5377.0000      9.921      8.918     88.859     10.468     10.439     17.885    107.234      0.292     90.605      8.703      0.244     85.755      0.314      2.626      2.293      0.053
  5377.5000      9.849      8.939     89.144     10.327     10.224     17.371    107.057      0.294     91.009      8.738      0.231     92.087      0.306      2.662      2.314      0.032
  5378.0000      9.775      8.937     87.720     10.169     10.000     16.039    106.839      0.284     90.807      8.724      0.207     90.874      0.320      2.742      2.356      0.030
  5378.5000      9.596      8.857     88.330      9.993      9.746     15.577    106.562      0.288     91.817      8.772      0.196     89.796      0.307      2.677      2.374      0.046
  5379.0000      9.636      8.758     89.258      9.861      9.502     15.749    106.379      0.295     91.952      8.731      0.194     94.377      0.301      2.677      2.377      0.084
  5379.5000      9.700      8.681     89.789      9.782      9.326     15.832    106.397      0.298     95.927      8.682      0.201     92.895      0.301      2.770      2.366      0.109
  5380.0000      9.851      8.693     89.998      9.803      9.335     15.095    106.344      0.300     96.331      8.640      0.219     97.139      0.314      2.819      2.335      0.101
  5380.5000      9.779      8.708     89.405      9.836      9.456     14.569    106.073      0.296     99.227      8.682      0.213    100.709      0.320      2.809      2.346      0.097
  5381.0000      9.585      8.704     89.953      9.849      9.612     14.597    105.643      0.300     98.486      8.682      0.178     97.139      0.321      2.959      2.405      0.115
  5381.5000      9.231      8.702     91.147      9.849      9.724     15.283    105.372      0.308    100.979      8.668      0.162     95.051      0.314      3.181      2.433      0.090
