~Version Information                                                          
 VERS.                             1.20: CWLS log ASCII Standard -VERSION 1.20
 WRAP.                               NO: One line per depth step              
~Well Information Block                                                       
#MNEM.UNIT           Data Type           Information                          
#--------- ----------------------------  -------------------------------------
 STRT.F                         93.0000:                                      
 STOP.F                       8960.0000:                                      
 STEP.F                          0.5000:                                      
 NULL.                        -999.2500:                                      
 COMP.                     Company Name: ENRON OIL & GAS COMPANY              
 WELL.                        Well Name: UNIVERSITY 6-7 NO.1                  
 FLD .                       Field Name: GRIERSON                             
 LOC .                         Location: SECTION 7,BLOCK6                     
 SLOC.                 SURFACE Location: 874 FEL X 2193 FSL                   
 SECT.                          Section:                                      
 TOWN.                         Township:                                      
 RANG.                            Range:                                      
 COUN.                           County: REAGAN                               
 STAT.                            State: TEXAS                                
 CTRY.                          Country: USA                                  
 SRVC.                  Service Company: HALLIBURTON ENERGY SERVICES          
 DATE.                 DATE as MM/DD/YY: 04/29/97                             
 APIN.                  API Well Number: 42-383-34746                         
 UWI .                   UNIQUE WELL ID: 42383347460000                       
 PD  .                  Permanent Datum: G.L.                                 
 RUN .                       Run Number: ONE                                  
 DMF .           Drilling Measured From: KELLY BUSHING                        
 LMF .            Logging Measured From: K.B.                                 
 TCS .         Time Circulation Stopped:                                      
 TLAB.            Time Logger at Bottom:                                      
 DFT .              Drilling Fluid Type: FRESH GEL                            
 MCSS.           Mud Cake Sample Source: MEAS.                                
 MFSS.       Mud Filtrate Sample Source: MEAS.                                
 MSS .                Mud Sample Source: FLOWLINE                             
 LCCN.             Logging Company Name: HALLIBURTON ENERGY SERVICES          
 LUL .              Equiptment Location: ODESSA                               
 LUN .              Logging Unit Number: 51941                                
 ENGI.          Logging Engineer's Name: MART RILEY                           
 WITN.                   Witness's Name: N. VAN LIEW                          
~Curve Information Block                                                      
#MNEM.UNIT                   API CODE    Curve Description                  
#---------                 ------------  -------------------------------------
 DEPT.F                    00 000 00 00:   1  Depth Curve                     
 C13 .INCH                 99 075 22 05:   2  CALIPER PADS 1 - 3    -FACT-
 C24 .INCH                 99 075 22 05:   3  CALIPER PADS 2 - 4    -FACT-
 DT  .US/F                 99 075 22 05:   4  SONIC TRANSIT TIME          
 ILD .OHMM                 99 075 22 05:   5  IL, DEEP RESISTIVITY        
 ILM .OHMM                 99 075 22 05:   6  IL, MEDIUM RESISTIVITY      
 SGRD.OHMM                 99 075 22 05:   7  SHORT GUARD RESISTIVITY     
 SP  .MV                   99 075 22 05:   8  SPONTANEOUS POTENTIAL       
 SPHI.DECP                 99 075 22 05:   9  SONIC POROSITY  -LIME-      
 GR  .GAPI                 99 075 22 05:  10  GAMMA RAY                   
 CALI.INCH                 99 075 22 05:  11  CALIPER                     
 DPHI.DECP                 99 075 22 05:  12  DENSITY POROSITY -LIME-     
 GR2 .GAPI                 99 075 22 05:  13  GAMMA RAY 2ND SERVICE       
 NPHI.DECP                 99 075 22 05:  14  NEUTRON POROSITY -LIME-     
 PE  .B/E                  99 075 22 05:  15  PHOTO-ELECTRIC FACTOR       
 RHOB.G/C3                 99 075 22 05:  16  BULK DENSITY                
 DRHO.G/C3                 99 075 22 05:  17  DENSITY CORRECTION          
~Parameter Information Block                                                  
#MNEM.UNIT            Value              Description                          
#--------- ----------------------------  -------------------------------------
 EDF .F                       2732.0000: Elevation, Derrick Floor    
 EGL .F                       2715.0000: Elevation, Ground Level     
 EKB .F                       2733.0000: Elevation, Kelly Bushing    
 EPD .F                       2715.0000: Elevation Perminent Datum   
 TDD .F                       8950.0000: Total Depth-Driller         
 TDL .F                       8946.0000: Total Depth-Logger          
 CBD .F                       3000.0000: Casing Bottom Driller 1     
 CBL .F                       2998.0000: Casing Bottom Logger 1      
 TLI .F                       2980.0000: Top Logged Interval         
 BLI .F                       8941.0000: Bottom Logged Interval      
 DFD .LB/G                       9.4000: Drilling Fluid Density      
 DFPH.----                      10.0000: Drilling Fluid Ph           
 DFL .C3                        11.2000: Drilling Fluid Loss         
 DFV .CP                        46.0000: Drilling Fluid Viscosity    
 RM  .CP                        46.0000: Mud Sample Resistivity      
 MST .DEGF                      74.0000: Mud Sample Temperature      
 RMF .DEGF                      74.0000: Mud Filtrate Resistivity    
 MFST.DEGF                      74.0000: Mud Filtrate Sample Temp    
 RMC .DEGF                      74.0000: Mud Cake Resistivity        
 MCST.DEGF                      74.0000: Mud Cake Sample Temperature 
 MRT .DEGF                     165.0000: Maximum Recorded Temperature
 BHT .DEGF                     165.0000: Bottom Hole Temperature     
~A   DEPT       C13        C24        DT         ILD        ILM        SGRD       SP         SPHI       GR         CALI       DPHI       GR2        NPHI       PE         RHOB       DRHO  
# ...
  3769.5000      9.806      9.467     77.586      2.700      3.302      6.368     75.961      0.212     61.571      9.251      0.169     67.162      0.229      2.572      2.421      0.065
  3770.0000      9.810      9.473     78.689      2.697      3.274      6.449     75.177      0.220     57.462      9.223      0.174     68.240      0.230      2.541      2.413      0.066
  3770.5000      9.809      9.479     78.639      2.721      3.261      6.371     74.541      0.220     61.571      9.209      0.175     69.587      0.242      2.589      2.411      0.073
  3771.0000      9.811      9.488     78.909      2.764      3.284      6.240     73.911      0.221     60.022      9.230      0.172     70.126      0.245      2.588      2.416      0.078
  3771.5000      9.829      9.484     79.436      2.816      3.356      6.157     73.245      0.225     57.933      9.265      0.170     68.779      0.242      2.581      2.419      0.081
  3772.0000      9.792      9.471     79.759      2.876      3.485      6.117     72.561      0.227     59.078      9.265      0.173     67.162      0.236      2.630      2.414      0.079
  3772.5000      9.711      9.413     79.756      2.940      3.664      6.162     71.825      0.227     61.369      9.216      0.166     63.727      0.245      2.704      2.426      0.090
  3773.0000      9.571      9.347     80.077      3.009      3.863      6.311     71.065      0.230     62.918      9.168      0.171     62.649      0.248      2.689      2.418      0.087
  3773.5000      9.398      9.233     80.933      3.076      4.019      6.496     70.234      0.236     64.872      9.091      0.179     58.674      0.244      2.614      2.404      0.080
  3774.0000      8.959      8.936     81.389      3.136      4.082      6.375     69.351      0.239     66.286      8.946      0.189     56.047      0.248      2.561      2.387      0.075
  3774.5000      8.502      8.584     81.606      3.177      4.048      5.825     68.579      0.240     64.131      8.675      0.204     57.192      0.253      2.508      2.362      0.072
  3775.0000      8.217      8.330     82.389      3.194      3.966      5.213     68.007      0.246     60.426      8.405      0.222     56.586      0.259      2.436      2.330      0.063
  3775.5000      8.163      8.249     83.611      3.187      3.881      4.619     67.713      0.255     55.980      8.266      0.240     58.068      0.264      2.419      2.300      0.053
  3776.0000      8.153      8.212     85.586      3.158      3.830      4.385     67.630      0.269     57.057      8.245      0.251     62.177      0.261      2.392      2.280      0.052
  3776.5000      8.177      8.231     86.833      3.111      3.824      4.309     67.819      0.277     55.710      8.259      0.254     62.245      0.251      2.420      2.276      0.056
  3777.0000      8.226      8.300     87.202      3.054      3.854      4.457     68.455      0.280     59.213      8.280      0.254     60.358      0.242      2.401      2.276      0.049
  3777.5000      8.293      8.408     86.709      2.995      3.893      5.068     69.580      0.277     62.649      8.294      0.240     60.628      0.239      2.474      2.300      0.055
  3778.0000      8.369      8.493     85.630      2.944      3.902      5.677     70.959      0.269     64.535      8.349      0.221     58.944      0.233      2.466      2.332      0.066
  3778.5000      8.472      8.554     85.170      2.898      3.873      6.140     72.420      0.266     65.747      8.446      0.204     60.560      0.229      2.506      2.361      0.072
  3779.0000      8.698      8.788     82.750      2.848      3.829      6.313     74.011      0.249     64.670      8.585      0.190     63.390      0.228      2.550      2.385      0.076
  3779.5000      9.094      9.215     81.262      2.788      3.781      6.217     75.442      0.238     64.468      8.821      0.189     69.318      0.231      2.542      2.387      0.079
  3780.0000      9.574      9.642     81.869      2.715      3.726      6.281     76.556      0.242     63.188      9.084      0.185     68.038      0.237      2.524      2.393      0.085
  3780.5000      9.886      9.851     81.848      2.633      3.650      6.239     77.457      0.242     60.965      9.355      0.189     66.825      0.246      2.521      2.386      0.081
  3781.0000      9.988      9.919     81.383      2.555      3.550      6.160     78.206      0.239     62.042      9.508      0.191     64.939      0.251      2.409      2.384      0.079
  3781.5000     10.047      9.954     81.205      2.487      3.438      6.074     78.860      0.238     61.908      9.542      0.189     63.524      0.253      2.410      2.387      0.081
  3782.0000     10.058      9.956     81.064      2.436      3.329      5.981     79.408      0.237     59.011      9.528      0.193     63.390      0.252      2.388      2.380      0.077
  3782.5000     10.055      9.960     81.180      2.404      3.242      5.882     79.802      0.237     62.514      9.577      0.194     66.084      0.255      2.358      2.378      0.073
  3783.0000     10.061      9.958     81.039      2.392      3.190      5.825     79.973      0.236     66.152      9.563      0.191     64.804      0.259      2.324      2.384      0.080
  3783.5000     10.065      9.958     81.170      2.395      3.176      5.780     80.079      0.237     68.105      9.570      0.195     66.556      0.266      2.387      2.377      0.081
  3784.0000     10.050      9.951     81.677      2.412      3.202      5.798     80.197      0.241     68.577      9.535      0.195     71.271      0.263      2.463      2.376      0.085
  3784.5000     10.019      9.935     81.067      2.441      3.257      5.863     80.291      0.237     70.193      9.556      0.200     68.846      0.264      2.434      2.367      0.082
  3785.0000      9.980      9.930     80.941      2.479      3.331      5.927     80.356      0.236     68.846      9.591      0.201     70.328      0.266      2.499      2.366      0.084
  3785.5000      9.937      9.923     81.720      2.519      3.420      5.988     80.374      0.241     66.084      9.570      0.203     65.343      0.265      2.461      2.363      0.079
  3786.0000      9.925      9.917     81.595      2.555      3.511      6.045     80.333      0.240     66.286      9.528      0.203     61.032      0.262      2.507      2.363      0.079
  3786.5000      9.901      9.904     81.153      2.582      3.591      6.072     80.232      0.237     63.592      9.521      0.205     63.996      0.264      2.508      2.359      0.079
  3787.0000      9.859      9.885     81.616      2.601      3.648      6.086     80.126      0.241     62.649      9.549      0.202     63.524      0.269      2.463      2.364      0.081
  3787.5000      9.864      9.881     81.456      2.613      3.679      6.084     80.115      0.239     62.783      9.556      0.207     63.322      0.268      2.405      2.356      0.077
  3788.0000      9.955      9.928     81.330      2.622      3.694      6.093     80.126      0.239     64.063      9.556      0.209     69.250      0.280      2.407      2.353      0.073
  3788.5000     10.047      9.972     81.461      2.629      3.705      6.121     80.191      0.239     61.840      9.528      0.201     70.530      0.277      2.497      2.366      0.082
  3789.0000     10.065      9.990     81.520      2.636      3.716      6.154     80.203      0.240     62.986      9.556      0.198     70.935      0.273      2.472      2.371      0.085
  3789.5000     10.058      9.965     81.430      2.644      3.729      6.172     80.327      0.239     61.099      9.542      0.203     69.250      0.279      2.444      2.363      0.078
  3790.0000     10.039      9.924     81.036      2.651      3.744      6.184     80.580      0.236     59.752      9.528      0.201     69.991      0.269      2.504      2.366      0.081
  3790.5000     10.041      9.910     81.036      2.659      3.758      6.211     80.922      0.236     60.224      9.521      0.196     66.758      0.270      2.570      2.374      0.088
