~Version Information                                                          
 VERS.                             1.20: CWLS log ASCII Standard -VERSION 1.20
 WRAP.                               NO: One line per depth step              
~Well Information Block                                                       
#MNEM.UNIT           Data Type           Information                          
#--------- ----------------------------  -------------------------------------
 STRT.F                         92.0000:                                      
 STOP.F                       9060.0000:                                      
 STEP.F                          0.5000:                                      
 NULL.                        -999.2500:                                      
 COMP.                     Company Name: ENRON OIL & GAS                      
 WELL.                        Well Name: UNIVERSITY 6-18W NO.1                
 FLD .                       Field Name: WILDCAT                              
 LOC .                         Location: SECTION 18, BLOCK 6                  
 SLOC.                 SURFACE Location: 1216' FNL & 505' FWL                 
 SECT.                          Section: 18                                   
 TOWN.                         Township:                                      
 RANG.                            Range:                                      
 COUN.                           County: REAGAN                               
 STAT.                            State: TX                                   
 CTRY.                          Country: USA                                  
 SRVC.                  Service Company: HALLIBURTON ENERGY SERVICES          
 DATE.                 DATE as MM/DD/YY: 08/17/97                             
 APIN.                  API Well Number: 42-383-34800                         
 UWI .                   UNIQUE WELL ID: 42383348000000                       
 PD  .                  Permanent Datum: G.L.                                 
 RUN .                       Run Number: 1&2                                  
 DMF .           Drilling Measured From: KELLY BUSHING                        
 LMF .            Logging Measured From: K.B.                                 
 TCS .         Time Circulation Stopped: 0100                                 
 TLAB.            Time Logger at Bottom: 0830                                 
 DFT .              Drilling Fluid Type: FW-PAC-STARCH                        
 MCSS.           Mud Cake Sample Source: N/A                                  
 MFSS.       Mud Filtrate Sample Source: MEAS                                 
 MSS .                Mud Sample Source: MUD PIT                              
 LCCN.             Logging Company Name: HALLIBURTON ENERGY SERVICES          
 LUL .              Equiptment Location: ODTX                                 
 LUN .              Logging Unit Number: 52525                                
 ENGI.          Logging Engineer's Name: LAUFER                               
 WITN.                   Witness's Name: N. VAN LIEW                          
~Curve Information Block                                                      
#MNEM.UNIT                   API CODE    Curve Description                  
#---------                 ------------  -------------------------------------
 DEPT.F                    00 000 00 00:   1  Depth Curve                     
 GR2 .GAPI                 00 000 00 00:   2  GAMMA RAY -DENSITY-NEUTRON- 
 NPHI.DECP                 00 000 00 00:   3  NEUTRON POROSITY -LIME-     
 DPHI.DECP                 00 000 00 00:   4  DENSITY POROSITY -LIME-     
 RHOB.G/C3                 00 000 00 00:   5  BULK DENSITY                
 DRHO.G/C3                 00 000 00 00:   6  DENSITY CORRECTION          
 PE  .B/E                  00 000 00 00:   7  PHOTO-ELECTRIC FACTOR       
 CALI.IN                   00 000 00 00:   8  CALIPER -DENSITY-           
 PHIX.DECP                 00 000 00 00:   9  CROSSPLOT POROSITY          
 LLS .OHMM                 00 000 00 00:  10  LATERO-LOG, SHALLOW RESIS.  
 LLD .OHMM                 00 000 00 00:  11  LATERO-LOG, DEEP RESISTIVITY
 CLLD.MMHO                 00 000 00 00:  12  LATERO-LOG, DEEP CONDUCTIVTY
 MGRD.OHMM                 00 000 00 00:  13  MICRO-SFL   RESISTIVITY     
 CAL2.IN                   00 000 00 00:  14  CALIPER -MICRO-SFL-         
 GR  .GAPI                 00 000 00 00:  15  GAMMA RAY -SONIC-           
 C13 .IN                   00 000 00 00:  16  CALIPER PADS 1 - 3    -FACT-
 C24 .IN                   00 000 00 00:  17  CALIPER PADS 2 - 4    -FACT-
 DT  .US/F                 00 000 00 00:  18  SONIC TRANSIT TIME          
 SPHI.DECP                 00 000 00 00:  19  SONIC POROSITY  -LIME-      
~Parameter Information Block                                                  
#MNEM.UNIT            Value              Description                          
#--------- ----------------------------  -------------------------------------
 EDF .F                       2695.0000: Elevation, Derrick Floor    
 EGL .F                       2678.0000: Elevation, Ground Level     
 EKB .F                       2696.0000: Elevation, Kelly Bushing    
 EPD .F                       2678.0000: Elevation Perminent Datum   
 TDD .F                       9050.0000: Total Depth-Driller         
 TDL .F                       9044.0000: Total Depth-Logger          
 CBD .F                       3050.0000: Casing Bottom Driller 1     
 CBL .F                       3044.0000: Casing Bottom Logger 1      
 TLI .F                       2900.0000: Top Logged Interval         
 BLI .F                       9037.0000: Bottom Logged Interval      
 DFD .LB/G                       9.1000: Drilling Fluid Density      
 DFPH.----                      10.5000: Drilling Fluid Ph           
 DFL .C3                         5.6000: Drilling Fluid Loss         
 DFV .CP                        52.0000: Drilling Fluid Viscosity    
 RM  .CP                        52.0000: Mud Sample Resistivity      
 MST .DEGF                      69.0000: Mud Sample Temperature      
 RMF .DEGF                      69.0000: Mud Filtrate Resistivity    
 MFST.DEGF                      69.0000: Mud Filtrate Sample Temp    
 RMC .DEGF                      69.0000: Mud Cake Resistivity        
 MCST.DEGF                      69.0000: Mud Cake Sample Temperature 
 MRT .DEGF                     150.0000: Maximum Recorded Temperature
 BHT .DEGF                     111.0000: Bottom Hole Temperature     
~A   DEPT       GR2        NPHI       DPHI       RHOB       DRHO       PE         CALI       PHIX       LLS        LLD        CLLD       MGRD       CAL2       GR         C13        C24        DT         SPHI  
# ...
  2997.5000     18.253   -999.250   -999.250   -999.250   -999.250   -999.250   -999.250   -999.250   -999.250   -999.250   -999.250   -999.250   -999.250     16.710      8.219      8.144     46.311      0.005
  2998.0000     15.973   -999.250   -999.250   -999.250   -999.250   -999.250   -999.250   -999.250   -999.250   -999.250   -999.250   -999.250   -999.250     16.324      8.218      8.147     47.878      0.004
  2998.5000     15.675   -999.250   -999.250   -999.250   -999.250   -999.250   -999.250   -999.250   -999.250   -999.250   -999.250   -999.250   -999.250     15.500      8.214      8.147     49.908      0.009
  2999.0000     16.657   -999.250   -999.250   -999.250   -999.250   -999.250   -999.250   -999.250   -999.250   -999.250   -999.250   -999.250   -999.250     15.658      8.211      8.145     50.073      0.011
  2999.5000     16.780   -999.250   -999.250   -999.250   -999.250   -999.250   -999.250   -999.250   -999.250   -999.250   -999.250   -999.250   -999.250     17.727      8.222      8.145     48.481      0.010
  3000.0000     16.078      0.397      0.151      2.468     -0.436     40.208      8.049      0.279     26.553     19.899     50.254     17.389      7.920     17.060      8.263      8.147     48.036      0.007
  3000.5000     14.869      0.413      0.170      2.437     -0.376     22.904      8.032      0.294     26.552     19.901     50.250     17.389      7.919     16.745      8.305      8.159     48.525      0.005
  3001.0000     12.887      0.418      0.171      2.435     -0.361     20.685      8.023      0.297     26.551     19.907     50.234     17.389      7.921     16.455      8.322      8.175     48.409      0.011
  3001.5000     12.765      0.386      0.161      2.451     -0.359     20.802      8.007      0.278     26.550     19.902     50.246     17.389      7.923     17.481      8.321      8.179     49.938      0.020
  3002.0000     16.008      0.368      0.151      2.467     -0.355     20.327      7.956      0.266     26.548     19.908     50.230     17.389      7.924     19.690      8.319      8.177     52.083      0.027
  3002.5000     20.251      0.359      0.147      2.473     -0.353     20.539      7.965      0.260     26.549     19.903     50.245     17.389      7.923     23.337      8.314      8.177     53.016      0.037
  3003.0000     24.828      0.363      0.147      2.473     -0.356     20.465      7.965      0.262     20.893     19.034     52.539     17.389      7.920     26.949      8.305      8.176     53.691      0.041
  3003.5000     31.175      0.349      0.154      2.463     -0.356     20.376      7.965      0.258     12.710     16.263     61.490     17.389      7.919     30.386      8.299      8.177     53.794      0.041
  3004.0000     34.611      0.340      0.168      2.439     -0.363     21.126      7.965      0.260      6.500     11.391     87.792     17.389      7.919     34.191      8.306      8.178     53.214      0.039
  3004.5000     37.066      0.326      0.186      2.410     -0.372     22.066      7.965      0.261      2.037      1.204    830.857     17.389      7.918     34.664      8.291      8.178     52.625      0.033
  3005.0000     39.100      0.330      0.215      2.363     -0.380     23.057      7.965      0.276      2.013      1.212    825.020     17.389      7.920     35.927      8.281      8.180     51.097      0.033
  3005.5000     39.503      0.327      0.237      2.329     -0.390     24.197      7.981      0.285      2.025      1.258    794.841     17.389      7.922     37.505      8.272      8.179     51.525      0.036
  3006.0000     39.609      0.344      0.247      2.312     -0.394     24.829      8.023      0.298      2.004      1.213    824.373     17.389      7.922     35.295      8.273      8.177     54.058      0.045
  3006.5000     39.959      0.357      0.251      2.305     -0.392     24.378      8.023      0.306      2.010      1.199    833.875     17.389      7.922     34.717      8.276      8.176     56.081      0.064
  3007.0000     39.609      0.342      0.267      2.280     -0.400     25.519      8.007      0.307      2.020      1.187    842.417     17.389      7.920     35.278      8.289      8.176     59.294      0.081
  3007.5000     40.205      0.348      0.263      2.286     -0.401     25.765      8.007      0.308      1.983      1.223    817.590     17.389      7.920     33.121      8.290      8.179     61.997      0.102
  3008.0000     40.082      0.363      0.251      2.307     -0.401     25.861      8.015      0.308      1.984      1.166    857.915     17.389      7.920     32.946      8.291      8.179     64.636      0.127
  3008.5000     37.768      0.382      0.234      2.333     -0.398     25.603      8.015      0.309      1.969      1.170    854.872     17.389      7.920     32.385      8.291      8.179     69.102      0.145
  3009.0000     35.278      0.344      0.202      2.385     -0.391     24.428      8.007      0.276      1.945      1.180    847.797     17.389      7.921     30.964      8.289      8.183     71.772      0.154
  3009.5000     32.280      0.310      0.160      2.453     -0.385     23.463      8.015      0.242      1.950      1.158    863.881     17.389      7.921     32.209      8.287      8.185     70.017      0.150
  3010.0000     28.492      0.299      0.140      2.485     -0.383     23.513      8.015      0.228      1.930      1.149    870.207     17.389      7.920     30.701      8.287      8.185     66.158      0.141
  3010.5000     25.459      0.296      0.134      2.494     -0.386     24.049      8.015      0.225      1.936      1.144    874.092     17.389      7.920     29.334      8.283      8.188     64.792      0.147
  3011.0000     24.740      0.295      0.140      2.484     -0.396     25.983      8.015      0.227      1.925      1.168    856.460     17.389      7.921     30.456      8.284      8.186     70.091      0.164
  3011.5000     25.389      0.301      0.155      2.460     -0.407     28.313      8.066      0.236      1.909      1.147    872.155     17.389      7.918     30.596      8.276      8.192     77.117      0.177
  3012.0000     26.301      0.307      0.167      2.442     -0.413     29.962      8.066      0.243      1.911      1.143    874.950     17.389      7.919     29.386      8.276      8.200     75.450      0.176
  3012.5000     29.369      0.309      0.175      2.428     -0.417     31.132      8.066      0.248      1.906      1.117    895.246     17.389      7.921     30.877      8.285      8.207     68.741      0.160
  3013.0000     29.720      0.309      0.174      2.430     -0.413     29.895      8.007      0.248      1.915      1.133    882.696     17.389      7.922     30.281      8.287      8.209     64.930      0.139
  3013.5000     29.194      0.317      0.188      2.407     -0.420     31.847      8.007      0.258      1.918      1.093    914.745     17.389      7.920     28.966      8.295      8.207     65.295      0.138
  3014.0000     29.649      0.341      0.195      2.396     -0.417     30.956      7.998      0.272      1.916      1.109    901.980     17.389      7.918     27.633      8.298      8.203     68.745      0.155
  3014.5000     27.195      0.393      0.189      2.406     -0.411     29.261      8.057      0.293      1.928      1.129    885.707     17.389      7.914     27.195      8.297      8.195     73.784      0.178
  3015.0000     24.424      0.407      0.192      2.400     -0.410     28.866      8.074      0.301      1.935      1.114    897.372     17.389      7.914     24.758      8.308      8.186     77.006      0.193
  3015.5000     24.652      0.389      0.195      2.397     -0.410     28.807      8.091      0.294      1.932      1.149    870.427     17.389      7.920     23.951      8.329      8.187     76.406      0.192
  3016.0000     24.670      0.359      0.195      2.396     -0.409     28.784      8.049      0.280      1.954      1.126    887.872     17.389      7.928     26.090      8.336      8.185     72.798      0.178
  3016.5000     24.389      0.326      0.195      2.396     -0.407     27.859      8.049      0.265      1.941      1.200    833.499     17.389      7.930     25.757      8.340      8.185     69.006      0.158
