~Version Information                                                          
 VERS.                             1.20: CWLS log ASCII Standard -VERSION 1.20
 WRAP.                               NO: One line per depth step              
~Well Information Block                                                       
#MNEM.UNIT           Data Type           Information                          
#--------- ----------------------------  -------------------------------------
 STRT.F                         93.0000:                                      
 STOP.F                       8960.0000:                                      
 STEP.F                          0.5000:                                      
 NULL.                        -999.2500:                                      
 COMP.                     Company Name: ENRON OIL & GAS COMPANY              
 WELL.                        Well Name: UNIVERSITY 6-7 NO.1                  
 FLD .                       Field Name: GRIERSON                             
 LOC .                         Location: SECTION 7,BLOCK6                     
 SLOC.                 SURFACE Location: 874 FEL X 2193 FSL                   
 SECT.                          Section:                                      
 TOWN.                         Township:                                      
 RANG.                            Range:                                      
 COUN.                           County: REAGAN                               
 STAT.                            State: TEXAS                                
 CTRY.                          Country: USA                                  
 SRVC.                  Service Company: HALLIBURTON ENERGY SERVICES          
 DATE.                 DATE as MM/DD/YY: 04/29/97                             
 APIN.                  API Well Number: 42-383-34746                         
 UWI .                   UNIQUE WELL ID: 42383347460000                       
 PD  .                  Permanent Datum: G.L.                                 
 RUN .                       Run Number: ONE                                  
 DMF .           Drilling Measured From: KELLY BUSHING                        
 LMF .            Logging Measured From: K.B.                                 
 TCS .         Time Circulation Stopped:                                      
 TLAB.            Time Logger at Bottom:                                      
 DFT .              Drilling Fluid Type: FRESH GEL                            
 MCSS.           Mud Cake Sample Source: MEAS.                                
 MFSS.       Mud Filtrate Sample Source: MEAS.                                
 MSS .                Mud Sample Source: FLOWLINE                             
 LCCN.             Logging Company Name: HALLIBURTON ENERGY SERVICES          
 LUL .              Equiptment Location: ODESSA                               
 LUN .              Logging Unit Number: 51941                                
 ENGI.          Logging Engineer's Name: MART RILEY                           
 WITN.                   Witness's Name: N. VAN LIEW                          
~Curve Information Block                                                      
#MNEM.UNIT                   API CODE    Curve Description                  
#---------                 ------------  -------------------------------------
 DEPT.F                    00 000 00 00:   1  Depth Curve                     
 C13 .INCH                 99 075 22 05:   2  CALIPER PADS 1 - 3    -FACT-
 C24 .INCH                 99 075 22 05:   3  CALIPER PADS 2 - 4    -FACT-
 DT  .US/F                 99 075 22 05:   4  SONIC TRANSIT TIME          
 ILD .OHMM                 99 075 22 05:   5  IL, DEEP RESISTIVITY        
 ILM .OHMM                 99 075 22 05:   6  IL, MEDIUM RESISTIVITY      
 SGRD.OHMM                 99 075 22 05:   7  SHORT GUARD RESISTIVITY     
 SP  .MV                   99 075 22 05:   8  SPONTANEOUS POTENTIAL       
 SPHI.DECP                 99 075 22 05:   9  SONIC POROSITY  -LIME-      
 GR  .GAPI                 99 075 22 05:  10  GAMMA RAY                   
 CALI.INCH                 99 075 22 05:  11  CALIPER                     
 DPHI.DECP                 99 075 22 05:  12  DENSITY POROSITY -LIME-     
 GR2 .GAPI                 99 075 22 05:  13  GAMMA RAY 2ND SERVICE       
 NPHI.DECP                 99 075 22 05:  14  NEUTRON POROSITY -LIME-     
 PE  .B/E                  99 075 22 05:  15  PHOTO-ELECTRIC FACTOR       
 RHOB.G/C3                 99 075 22 05:  16  BULK DENSITY                
 DRHO.G/C3                 99 075 22 05:  17  DENSITY CORRECTION          
~Parameter Information Block                                                  
#MNEM.UNIT            Value              Description                          
#--------- ----------------------------  -------------------------------------
 EDF .F                       2732.0000: Elevation, Derrick Floor    
 EGL .F                       2715.0000: Elevation, Ground Level     
 EKB .F                       2733.0000: Elevation, Kelly Bushing    
 EPD .F                       2715.0000: Elevation Perminent Datum   
 TDD .F                       8950.0000: Total Depth-Driller         
 TDL .F                       8946.0000: Total Depth-Logger          
 CBD .F                       3000.0000: Casing Bottom Driller 1     
 CBL .F                       2998.0000: Casing Bottom Logger 1      
 TLI .F                       2980.0000: Top Logged Interval         
 BLI .F                       8941.0000: Bottom Logged Interval      
 DFD .LB/G                       9.4000: Drilling Fluid Density      
 DFPH.----                      10.0000: Drilling Fluid Ph           
 DFL .C3                        11.2000: Drilling Fluid Loss         
 DFV .CP                        46.0000: Drilling Fluid Viscosity    
 RM  .CP                        46.0000: Mud Sample Resistivity      
 MST .DEGF                      74.0000: Mud Sample Temperature      
 RMF .DEGF                      74.0000: Mud Filtrate Resistivity    
 MFST.DEGF                      74.0000: Mud Filtrate Sample Temp    
 RMC .DEGF                      74.0000: Mud Cake Resistivity        
 MCST.DEGF                      74.0000: Mud Cake Sample Temperature 
 MRT .DEGF                     165.0000: Maximum Recorded Temperature
 BHT .DEGF                     165.0000: Bottom Hole Temperature     
~A   DEPT       C13        C24        DT         ILD        ILM        SGRD       SP         SPHI       GR         CALI       DPHI       GR2        NPHI       PE         RHOB       DRHO  
# ...
  7338.5000      8.437      8.348     77.505     37.662     42.994    111.704     93.665      0.211    103.943      8.542      0.098    111.825      0.176      3.718      2.542      0.047
  7339.0000      8.467      8.357     73.944     40.622     46.359    169.978     94.143      0.186    103.674      8.549      0.089    107.042      0.143      3.786      2.559      0.051
  7339.5000      8.474      8.330     69.173     42.826     48.822    141.981     94.484      0.153    101.451      8.570      0.106    103.539      0.145      3.711      2.529      0.037
  7340.0000      8.459      8.299     63.927     42.633     50.238     99.260     94.696      0.115    115.193      8.563      0.122    108.322      0.169      3.594      2.501      0.038
  7340.5000      8.453      8.294     66.567     39.444     49.986     76.333     94.985      0.134    113.980      8.535      0.120    118.696      0.195      3.557      2.505      0.041
  7341.0000      8.448      8.293     71.308     34.961     46.179     81.592     95.274      0.168    101.181      8.521      0.111    111.420      0.209      3.714      2.520      0.030
  7341.5000      8.457      8.303     71.350     30.971     39.409    115.629     95.504      0.168     95.388      8.591      0.089    102.057      0.175      3.727      2.558      0.040
  7342.0000      8.451      8.317     72.664     28.182     32.594     98.506     95.798      0.177     93.232      8.598      0.077    105.829      0.142      3.771      2.579      0.046
  7342.5000      8.465      8.329     71.152     26.429     27.607     66.015     96.116      0.167     97.948      8.591      0.084    100.912      0.143      3.785      2.566      0.028
  7343.0000      8.473      8.318     68.033     25.304     24.637     45.906     96.375      0.145    111.959      8.494      0.100    108.322      0.178      3.650      2.538      0.020
  7343.5000      8.488      8.314     74.353     24.560     23.165     37.841     96.470      0.189    120.851      8.508      0.116    125.297      0.209      3.456      2.512      0.026
  7344.0000      8.489      8.312     82.033     24.145     22.748     37.142     96.446      0.244    124.624      8.494      0.118    130.282      0.221      3.422      2.509      0.036
  7344.5000      8.490      8.308     83.569     24.057     23.246     39.537     96.429      0.254    120.851      8.487      0.127    127.588      0.233      3.461      2.492      0.026
  7345.0000      8.480      8.306     81.552     24.264     24.420     41.914     96.370      0.240    122.333      8.535      0.125    130.148      0.254      3.489      2.497      0.035
  7345.5000      8.475      8.309     83.028     24.755     26.007     52.985     96.205      0.251    123.950      8.549      0.129    126.982      0.243      3.634      2.490      0.026
  7346.0000      8.482      8.318     85.028     25.581     27.290     63.028     96.075      0.265    109.399      8.549      0.106    110.343      0.224      3.774      2.529      0.034
  7346.5000      8.481      8.320     78.550     26.696     27.925     81.543     96.040      0.219    102.394      8.549      0.094     96.937      0.198      3.836      2.549      0.038
  7347.0000      8.485      8.320     74.103     27.927     28.188     83.718     96.134      0.187    102.057      8.549      0.097     97.004      0.175      3.746      2.543      0.042
  7347.5000      8.485      8.320     74.542     28.956     28.465     64.235     96.252      0.191     99.766      8.584      0.108    100.373      0.164      3.666      2.526      0.043
  7348.0000      8.497      8.318     71.783     29.455     28.977     59.318     96.375      0.171    111.286      8.563      0.131    114.182      0.188      3.551      2.485      0.031
  7348.5000      8.509      8.308     72.289     29.423     29.529     53.411     96.523      0.175    127.453      8.549      0.138    130.552      0.224      3.334      2.474      0.041
  7349.0000      8.514      8.306     80.317     29.255     30.039     57.031     96.841      0.231    138.164      8.598      0.135    142.610      0.241      3.335      2.479      0.049
  7349.5000      8.520      8.310     83.598     29.090     30.645     60.722     97.289      0.255    135.402      8.591      0.129    146.787      0.234      3.505      2.489      0.042
  7350.0000      8.528      8.316     82.395     28.975     31.304     59.883     97.725      0.246    133.381      8.584      0.118    143.486      0.227      3.589      2.508      0.041
  7350.5000      8.526      8.337     80.355     28.943     31.723     63.253     98.066      0.232    123.748      8.584      0.114    134.324      0.217      3.644      2.515      0.041
  7351.0000      8.539      8.342     79.600     28.954     31.544     67.843     98.379      0.226    114.721      8.577      0.115    121.592      0.215      3.740      2.513      0.026
  7351.5000      8.549      8.346     78.453     29.005     31.005     69.150     98.626      0.218    111.690      8.598      0.097    119.774      0.211      3.791      2.545      0.035
  7352.0000      8.552      8.336     76.577     29.019     30.571     61.947     98.767      0.205    109.938      8.577      0.092    113.576      0.201      3.737      2.553      0.039
  7352.5000      8.552      8.336     77.556     28.848     30.638     61.792     98.809      0.212    109.534      8.584      0.099    115.328      0.189      3.710      2.541      0.036
  7353.0000      8.545      8.338     77.469     28.545     31.004     59.155     98.709      0.211    105.897      8.577      0.093    114.317      0.192      3.857      2.551      0.039
  7353.5000      8.549      8.348     74.486     28.243     31.675     67.350     98.538      0.190    100.642      8.605      0.094    106.233      0.191      3.924      2.550      0.028
  7354.0000      8.542      8.353     75.123     28.164     32.401     70.711     98.296      0.195     84.542      8.605      0.091     87.237      0.175      4.037      2.555      0.018
  7354.5000      8.539      8.358     73.773     28.670     32.853     72.153     97.954      0.185     68.779      8.598      0.061     70.665      0.153      4.273      2.605      0.019
  7355.0000      8.540      8.365     67.758     29.731     33.287     97.435     97.483      0.143     60.291      8.549      0.039     60.897      0.128      4.248      2.643      0.033
  7355.5000      8.542      8.372     67.834     30.933     33.914     78.048     97.000      0.143     60.965      8.584      0.056     57.260      0.121      4.083      2.614      0.022
  7356.0000      8.545      8.377     66.602     31.447     35.387     75.302     96.599      0.134     62.042      8.605      0.073     63.457      0.147      4.120      2.586      0.011
  7356.5000      8.545      8.379     64.173     30.277     37.020     72.886     96.358      0.117     66.960      8.625      0.086     68.981      0.192      4.045      2.562      0.017
  7357.0000      8.536      8.379     69.391     27.876     36.536     77.148     96.211      0.154     67.634      8.632      0.094     69.722      0.214      3.757      2.549      0.025
  7357.5000      8.526      8.376     73.337     25.390     32.694    129.518     96.099      0.182     68.981      8.632      0.097     70.598      0.194      3.827      2.544      0.023
  7358.0000      8.526      8.381     72.092     23.490     27.168    126.308     96.034      0.173     70.059      8.584      0.096     72.080      0.175      3.751      2.545      0.026
  7358.5000      8.530      8.383     71.669     22.137     22.594     86.188     96.057      0.170     80.366      8.570      0.101     79.490      0.186      3.570      2.537      0.027
  7359.0000      8.534      8.381     73.158     20.862     19.857     49.339     96.099      0.181     87.102      8.570      0.108     91.211      0.202      3.438      2.525      0.032
  7359.5000      8.533      8.383     76.961     19.288     18.521     34.694     96.146      0.208     97.745      8.612      0.110     99.362      0.216      3.386      2.522      0.036
