~Version Information                                                          
 VERS.                             1.20: CWLS log ASCII Standard -VERSION 1.20
 WRAP.                               NO: One line per depth step              
~Well Information Block                                                       
#MNEM.UNIT           Data Type           Information                          
#--------- ----------------------------  -------------------------------------
 STRT.F                         93.0000:                                      
 STOP.F                       8960.0000:                                      
 STEP.F                          0.5000:                                      
 NULL.                        -999.2500:                                      
 COMP.                     Company Name: ENRON OIL & GAS COMPANY              
 WELL.                        Well Name: UNIVERSITY 6-7 NO.1                  
 FLD .                       Field Name: GRIERSON                             
 LOC .                         Location: SECTION 7,BLOCK6                     
 SLOC.                 SURFACE Location: 874 FEL X 2193 FSL                   
 SECT.                          Section:                                      
 TOWN.                         Township:                                      
 RANG.                            Range:                                      
 COUN.                           County: REAGAN                               
 STAT.                            State: TEXAS                                
 CTRY.                          Country: USA                                  
 SRVC.                  Service Company: HALLIBURTON ENERGY SERVICES          
 DATE.                 DATE as MM/DD/YY: 04/29/97                             
 APIN.                  API Well Number: 42-383-34746                         
 UWI .                   UNIQUE WELL ID: 42383347460000                       
 PD  .                  Permanent Datum: G.L.                                 
 RUN .                       Run Number: ONE                                  
 DMF .           Drilling Measured From: KELLY BUSHING                        
 LMF .            Logging Measured From: K.B.                                 
 TCS .         Time Circulation Stopped:                                      
 TLAB.            Time Logger at Bottom:                                      
 DFT .              Drilling Fluid Type: FRESH GEL                            
 MCSS.           Mud Cake Sample Source: MEAS.                                
 MFSS.       Mud Filtrate Sample Source: MEAS.                                
 MSS .                Mud Sample Source: FLOWLINE                             
 LCCN.             Logging Company Name: HALLIBURTON ENERGY SERVICES          
 LUL .              Equiptment Location: ODESSA                               
 LUN .              Logging Unit Number: 51941                                
 ENGI.          Logging Engineer's Name: MART RILEY                           
 WITN.                   Witness's Name: N. VAN LIEW                          
~Curve Information Block                                                      
#MNEM.UNIT                   API CODE    Curve Description                  
#---------                 ------------  -------------------------------------
 DEPT.F                    00 000 00 00:   1  Depth Curve                     
 C13 .INCH                 99 075 22 05:   2  CALIPER PADS 1 - 3    -FACT-
 C24 .INCH                 99 075 22 05:   3  CALIPER PADS 2 - 4    -FACT-
 DT  .US/F                 99 075 22 05:   4  SONIC TRANSIT TIME          
 ILD .OHMM                 99 075 22 05:   5  IL, DEEP RESISTIVITY        
 ILM .OHMM                 99 075 22 05:   6  IL, MEDIUM RESISTIVITY      
 SGRD.OHMM                 99 075 22 05:   7  SHORT GUARD RESISTIVITY     
 SP  .MV                   99 075 22 05:   8  SPONTANEOUS POTENTIAL       
 SPHI.DECP                 99 075 22 05:   9  SONIC POROSITY  -LIME-      
 GR  .GAPI                 99 075 22 05:  10  GAMMA RAY                   
 CALI.INCH                 99 075 22 05:  11  CALIPER                     
 DPHI.DECP                 99 075 22 05:  12  DENSITY POROSITY -LIME-     
 GR2 .GAPI                 99 075 22 05:  13  GAMMA RAY 2ND SERVICE       
 NPHI.DECP                 99 075 22 05:  14  NEUTRON POROSITY -LIME-     
 PE  .B/E                  99 075 22 05:  15  PHOTO-ELECTRIC FACTOR       
 RHOB.G/C3                 99 075 22 05:  16  BULK DENSITY                
 DRHO.G/C3                 99 075 22 05:  17  DENSITY CORRECTION          
~Parameter Information Block                                                  
#MNEM.UNIT            Value              Description                          
#--------- ----------------------------  -------------------------------------
 EDF .F                       2732.0000: Elevation, Derrick Floor    
 EGL .F                       2715.0000: Elevation, Ground Level     
 EKB .F                       2733.0000: Elevation, Kelly Bushing    
 EPD .F                       2715.0000: Elevation Perminent Datum   
 TDD .F                       8950.0000: Total Depth-Driller         
 TDL .F                       8946.0000: Total Depth-Logger          
 CBD .F                       3000.0000: Casing Bottom Driller 1     
 CBL .F                       2998.0000: Casing Bottom Logger 1      
 TLI .F                       2980.0000: Top Logged Interval         
 BLI .F                       8941.0000: Bottom Logged Interval      
 DFD .LB/G                       9.4000: Drilling Fluid Density      
 DFPH.----                      10.0000: Drilling Fluid Ph           
 DFL .C3                        11.2000: Drilling Fluid Loss         
 DFV .CP                        46.0000: Drilling Fluid Viscosity    
 RM  .CP                        46.0000: Mud Sample Resistivity      
 MST .DEGF                      74.0000: Mud Sample Temperature      
 RMF .DEGF                      74.0000: Mud Filtrate Resistivity    
 MFST.DEGF                      74.0000: Mud Filtrate Sample Temp    
 RMC .DEGF                      74.0000: Mud Cake Resistivity        
 MCST.DEGF                      74.0000: Mud Cake Sample Temperature 
 MRT .DEGF                     165.0000: Maximum Recorded Temperature
 BHT .DEGF                     165.0000: Bottom Hole Temperature     
~A   DEPT       C13        C24        DT         ILD        ILM        SGRD       SP         SPHI       GR         CALI       DPHI       GR2        NPHI       PE         RHOB       DRHO  
# ...
  4952.0000      9.254      8.956     83.005     11.908     12.640     19.158    110.280      0.250    106.570      8.980      0.091    114.587      0.280      3.164      2.555      0.050
  4952.5000      9.284      8.994     82.259     12.086     12.584     18.144    109.390      0.245    106.705      9.001      0.082    112.700      0.255      3.200      2.570      0.057
  4953.0000      9.317      9.038     81.208     12.408     12.693     17.440    108.312      0.238     99.834      8.973      0.068    104.212      0.251      3.256      2.594      0.070
  4953.5000      9.333      9.075     80.216     12.854     12.920     17.723    107.705      0.231     98.352      8.953      0.060    103.404      0.248      3.264      2.607      0.068
  4954.0000      9.348      9.113     78.881     13.341     13.253     18.540    107.275      0.221    101.248      8.925      0.069    107.109      0.252      3.297      2.592      0.063
  4954.5000      9.352      9.143     77.655     13.728     13.765     18.855    106.963      0.213     98.823      8.925      0.069    106.840      0.252      3.292      2.592      0.063
  4955.0000      9.359      9.154     76.064     13.869     14.399     18.922    106.497      0.201     95.522      8.960      0.073    106.772      0.258      3.260      2.585      0.060
  4955.5000      9.360      9.152     78.272     13.763     14.896     20.443    105.761      0.217     89.662      9.008      0.078    100.844      0.258      3.412      2.577      0.021
  4956.0000      9.360      9.167     82.863     13.593     14.870     22.990    104.912      0.249     82.521      9.029      0.038     91.413      0.260      3.502      2.644      0.041
  4956.5000      9.353      9.184     79.883     13.497     14.189     22.720    104.064      0.228     74.168      9.022      0.025     84.205      0.244      3.538      2.667      0.052
  4957.0000      9.357      9.189     69.380     13.577     13.334     20.048    103.139      0.154     72.080      9.015      0.029     78.142      0.230      3.510      2.661      0.045
  4957.5000      9.359      9.180     75.011     13.726     12.742     16.746    102.255      0.194     73.696      9.022      0.046     75.650      0.236      3.586      2.631      0.037
  4958.0000      9.346      9.171     79.659     13.754     12.566     14.756    101.578      0.227     71.541      9.057      0.079     79.288      0.249      3.378      2.575      0.043
  4958.5000      9.329      9.146     65.202     13.579     12.844     14.021    101.142      0.124     70.732      9.015      0.096     77.940      0.254      3.214      2.546      0.052
  4959.0000      9.284      9.122     59.836     13.249     13.318     14.267    101.006      0.087     74.909      8.994      0.104     79.355      0.256      3.134      2.532      0.052
  4959.5000      9.234      9.116     66.173     12.940     13.720     15.452    101.160      0.131     79.827      8.960      0.118     81.915      0.254      3.070      2.507      0.050
  4960.0000      9.193      9.090     68.795     12.775     13.935     16.972    101.566      0.150     83.599      8.904      0.124     87.304      0.256      3.040      2.499      0.054
  4960.5000      9.182      9.057     66.939     12.782     13.898     18.292    102.014      0.137     88.112      8.883      0.122     90.268      0.259      2.986      2.502      0.052
  4961.0000      9.179      9.015     67.173     12.827     13.775     18.814    102.544      0.138     95.388      8.918      0.120     98.486      0.260      2.966      2.504      0.048
  4961.5000      9.179      8.994     70.414     12.837     13.719     18.666    103.110      0.161     90.133      8.890      0.109    101.855      0.259      3.156      2.524      0.060
  4962.0000      9.181      8.966     70.086     12.776     13.579     17.743    103.658      0.159     77.940      8.849      0.090     90.942      0.247      3.418      2.556      0.049
  4962.5000      9.039      8.844     70.573     12.608     13.334     19.937    104.241      0.162     71.002      8.751      0.056     78.075      0.227      3.653      2.614      0.072
  4963.0000      8.914      8.721     73.484     12.392     12.896     20.726    104.907      0.183     65.815      8.627      0.032     68.577      0.213      3.624      2.656      0.082
  4963.5000      8.884      8.661     70.434     12.134     12.470     21.159    105.237      0.161     62.918      8.599      0.019     62.716      0.204      3.791      2.678      0.081
  4964.0000      8.975      8.706     65.367     11.792     12.139     20.297    105.160      0.126     64.939      8.620      0.029     63.390      0.209      3.703      2.660      0.069
  4964.5000      9.020      8.755     67.189     11.444     11.784     18.049    104.977      0.139     71.339      8.703      0.049     72.551      0.215      3.629      2.626      0.064
  4965.0000      9.061      8.815     70.866     11.224     11.303     18.886    105.130      0.165     72.282      8.828      0.053     75.178      0.213      3.613      2.620      0.060
  4965.5000      9.093      8.852     72.156     11.159     10.471     17.873    105.419      0.174     74.976      8.835      0.053     76.458      0.217      3.538      2.620      0.058
  4966.0000      9.116      8.916     74.941     11.237     10.267     15.360    105.720      0.193     80.702      8.828      0.050     77.469      0.215      3.720      2.625      0.057
  4966.5000      9.127      8.987     75.505     11.353     10.438     13.371    106.132      0.197     84.946      8.842      0.047     75.785      0.235      3.701      2.630      0.071
  4967.0000      9.092      8.985     73.042     11.438     11.198     13.232    106.462      0.180     91.615      8.876      0.067     81.443      0.260      3.530      2.596      0.057
  4967.5000      9.080      8.882     76.652     11.561     11.584     14.674    106.656      0.205     97.004      8.904      0.093     90.201      0.271      3.282      2.551      0.045
  4968.0000      9.075      8.783     80.228     11.828     11.930     16.214    106.715      0.231     98.756      8.876      0.107     97.880      0.263      3.143      2.526      0.039
  4968.5000      9.069      8.781     80.936     12.220     12.331     17.533    106.615      0.236    102.865      8.849      0.120    104.010      0.270      3.069      2.505      0.041
  4969.0000      9.051      8.756     82.194     12.719     12.822     18.810    106.391      0.245     99.295      8.855      0.123    110.881      0.279      3.033      2.500      0.036
  4969.5000      9.048      8.716     82.206     13.280     13.322     20.548    106.161      0.245     94.984      8.849      0.111    106.974      0.282      3.079      2.521      0.042
  4970.0000      9.048      8.717     83.006     13.871     13.720     21.324    106.103      0.250     93.097      8.835      0.111    103.674      0.276      3.116      2.520      0.049
  4970.5000      9.050      8.743     84.033     14.374     14.100     21.687    106.050      0.258     94.647      8.869      0.106    106.233      0.272      3.147      2.529      0.055
  4971.0000      9.035      8.758     82.455     14.740     14.541     20.753    105.949      0.246     95.388      8.876      0.096    104.549      0.270      3.038      2.545      0.056
  4971.5000      9.027      8.773     81.864     14.917     15.002     20.981    105.902      0.242     99.093      8.897      0.103    109.332      0.264      3.005      2.534      0.054
  4972.0000      9.027      8.783     82.842     14.992     15.470     21.955    105.938      0.249    103.000      8.849      0.105    111.757      0.258      3.046      2.530      0.057
  4972.5000      9.033      8.782     82.506     15.102     15.833     21.538    106.197      0.247    100.238      8.821      0.101    108.726      0.263      3.026      2.537      0.062
  4973.0000      9.033      8.775     81.002     15.309     16.117     23.529    106.704      0.236     95.927      8.786      0.112    113.711      0.268      3.023      2.519      0.058
