~Version Information                                                          
 VERS.                             1.20: CWLS log ASCII Standard -VERSION 1.20
 WRAP.                               NO: One line per depth step              
~Well Information Block                                                       
#MNEM.UNIT           Data Type           Information                          
#--------- ----------------------------  -------------------------------------
 STRT.F                         92.0000:                                      
 STOP.F                       9060.0000:                                      
 STEP.F                          0.5000:                                      
 NULL.                        -999.2500:                                      
 COMP.                     Company Name: ENRON OIL & GAS                      
 WELL.                        Well Name: UNIVERSITY 6-18W NO.1                
 FLD .                       Field Name: WILDCAT                              
 LOC .                         Location: SECTION 18, BLOCK 6                  
 SLOC.                 SURFACE Location: 1216' FNL & 505' FWL                 
 SECT.                          Section: 18                                   
 TOWN.                         Township:                                      
 RANG.                            Range:                                      
 COUN.                           County: REAGAN                               
 STAT.                            State: TX                                   
 CTRY.                          Country: USA                                  
 SRVC.                  Service Company: HALLIBURTON ENERGY SERVICES          
 DATE.                 DATE as MM/DD/YY: 08/17/97                             
 APIN.                  API Well Number: 42-383-34800                         
 UWI .                   UNIQUE WELL ID: 42383348000000                       
 PD  .                  Permanent Datum: G.L.                                 
 RUN .                       Run Number: 1&2                                  
 DMF .           Drilling Measured From: KELLY BUSHING                        
 LMF .            Logging Measured From: K.B.                                 
 TCS .         Time Circulation Stopped: 0100                                 
 TLAB.            Time Logger at Bottom: 0830                                 
 DFT .              Drilling Fluid Type: FW-PAC-STARCH                        
 MCSS.           Mud Cake Sample Source: N/A                                  
 MFSS.       Mud Filtrate Sample Source: MEAS                                 
 MSS .                Mud Sample Source: MUD PIT                              
 LCCN.             Logging Company Name: HALLIBURTON ENERGY SERVICES          
 LUL .              Equiptment Location: ODTX                                 
 LUN .              Logging Unit Number: 52525                                
 ENGI.          Logging Engineer's Name: LAUFER                               
 WITN.                   Witness's Name: N. VAN LIEW                          
~Curve Information Block                                                      
#MNEM.UNIT                   API CODE    Curve Description                  
#---------                 ------------  -------------------------------------
 DEPT.F                    00 000 00 00:   1  Depth Curve                     
 GR2 .GAPI                 00 000 00 00:   2  GAMMA RAY -DENSITY-NEUTRON- 
 NPHI.DECP                 00 000 00 00:   3  NEUTRON POROSITY -LIME-     
 DPHI.DECP                 00 000 00 00:   4  DENSITY POROSITY -LIME-     
 RHOB.G/C3                 00 000 00 00:   5  BULK DENSITY                
 DRHO.G/C3                 00 000 00 00:   6  DENSITY CORRECTION          
 PE  .B/E                  00 000 00 00:   7  PHOTO-ELECTRIC FACTOR       
 CALI.IN                   00 000 00 00:   8  CALIPER -DENSITY-           
 PHIX.DECP                 00 000 00 00:   9  CROSSPLOT POROSITY          
 LLS .OHMM                 00 000 00 00:  10  LATERO-LOG, SHALLOW RESIS.  
 LLD .OHMM                 00 000 00 00:  11  LATERO-LOG, DEEP RESISTIVITY
 CLLD.MMHO                 00 000 00 00:  12  LATERO-LOG, DEEP CONDUCTIVTY
 MGRD.OHMM                 00 000 00 00:  13  MICRO-SFL   RESISTIVITY     
 CAL2.IN                   00 000 00 00:  14  CALIPER -MICRO-SFL-         
 GR  .GAPI                 00 000 00 00:  15  GAMMA RAY -SONIC-           
 C13 .IN                   00 000 00 00:  16  CALIPER PADS 1 - 3    -FACT-
 C24 .IN                   00 000 00 00:  17  CALIPER PADS 2 - 4    -FACT-
 DT  .US/F                 00 000 00 00:  18  SONIC TRANSIT TIME          
 SPHI.DECP                 00 000 00 00:  19  SONIC POROSITY  -LIME-      
~Parameter Information Block                                                  
#MNEM.UNIT            Value              Description                          
#--------- ----------------------------  -------------------------------------
 EDF .F                       2695.0000: Elevation, Derrick Floor    
 EGL .F                       2678.0000: Elevation, Ground Level     
 EKB .F                       2696.0000: Elevation, Kelly Bushing    
 EPD .F                       2678.0000: Elevation Perminent Datum   
 TDD .F                       9050.0000: Total Depth-Driller         
 TDL .F                       9044.0000: Total Depth-Logger          
 CBD .F                       3050.0000: Casing Bottom Driller 1     
 CBL .F                       3044.0000: Casing Bottom Logger 1      
 TLI .F                       2900.0000: Top Logged Interval         
 BLI .F                       9037.0000: Bottom Logged Interval      
 DFD .LB/G                       9.1000: Drilling Fluid Density      
 DFPH.----                      10.5000: Drilling Fluid Ph           
 DFL .C3                         5.6000: Drilling Fluid Loss         
 DFV .CP                        52.0000: Drilling Fluid Viscosity    
 RM  .CP                        52.0000: Mud Sample Resistivity      
 MST .DEGF                      69.0000: Mud Sample Temperature      
 RMF .DEGF                      69.0000: Mud Filtrate Resistivity    
 MFST.DEGF                      69.0000: Mud Filtrate Sample Temp    
 RMC .DEGF                      69.0000: Mud Cake Resistivity        
 MCST.DEGF                      69.0000: Mud Cake Sample Temperature 
 MRT .DEGF                     150.0000: Maximum Recorded Temperature
 BHT .DEGF                     111.0000: Bottom Hole Temperature     
~A   DEPT       GR2        NPHI       DPHI       RHOB       DRHO       PE         CALI       PHIX       LLS        LLD        CLLD       MGRD       CAL2       GR         C13        C24        DT         SPHI  
# ...
  7833.5000     82.356      0.240      0.121      2.516      0.053      3.075      8.772      0.191     16.182     20.484     48.819     15.286      8.328     70.643      8.828      8.685     79.439      0.236
  7834.0000     86.739      0.245      0.130      2.501      0.050      3.020      8.772      0.197     16.520     21.081     47.435     18.041      8.312     73.080      8.816      8.689     78.675      0.227
  7834.5000     88.791      0.260      0.135      2.493      0.045      2.989      8.764      0.207     17.504     22.167     45.113     17.779      8.285     77.376      8.838      8.692     79.559      0.228
  7835.0000     80.585      0.263      0.131      2.499      0.042      3.073      8.764      0.207     18.616     23.380     42.771     17.568      8.253     82.549      8.845      8.700     80.953      0.241
  7835.5000     73.922      0.230      0.117      2.521      0.044      3.115      8.772      0.185     19.601     24.047     41.585     15.931      8.234     85.477      8.809      8.719     83.609      0.254
  7836.0000     69.714      0.200      0.110      2.532      0.045      3.097      8.772      0.166     19.524     23.126     43.242     19.920      8.231     83.162      8.784      8.708     86.203      0.253
  7836.5000     66.698      0.191      0.106      2.539      0.043      3.125      8.772      0.159     18.065     20.573     48.606     24.246      8.233     76.727      8.753      8.695     83.619      0.236
  7837.0000     67.259      0.202      0.095      2.556      0.048      3.254      8.772      0.161     16.092     17.940     55.741     23.726      8.231     71.765      8.752      8.684     75.961      0.216
  7837.5000     73.782      0.209      0.099      2.551      0.052      3.236      8.756      0.166     14.662     16.149     61.923     15.978      8.230     70.485      8.753      8.692     72.536      0.203
  7838.0000     75.219      0.219      0.104      2.542      0.051      3.210      8.756      0.174     13.974     15.210     65.745     14.704      8.226     71.783      8.753      8.700     75.908      0.198
  7838.5000     78.867      0.229      0.105      2.541      0.048      3.142      8.772      0.179     14.467     15.487     64.569     12.499      8.222     73.712      8.753      8.717     78.381      0.212
  7839.0000     80.076      0.227      0.109      2.535      0.050      3.162      8.772      0.180     15.434     16.348     61.168     14.404      8.221     74.378      8.755      8.715     79.253      0.228
  7839.5000     80.234      0.242      0.109      2.534      0.047      3.231      8.756      0.188     16.211     17.083     58.538     18.873      8.218     73.554      8.755      8.721     81.497      0.226
  7840.0000     84.302      0.251      0.111      2.531      0.047      3.166      8.756      0.193     16.960     17.887     55.908     19.434      8.210     72.747      8.755      8.735     79.814      0.232
  7840.5000     90.158      0.254      0.121      2.516      0.044      3.155      8.756      0.198     17.241     18.435     54.246     16.142      8.203     74.992      8.754      8.729     79.212      0.235
  7841.0000     90.737      0.256      0.117      2.522      0.049      3.112      8.747      0.198     17.927     19.179     52.142     16.992      8.199     81.952      8.754      8.725     82.141      0.232
  7841.5000     88.265      0.255      0.116      2.523      0.044      3.334      8.747      0.197     18.607     20.191     49.527     19.347      8.200     87.721      8.753      8.716     81.233      0.245
  7842.0000     81.391      0.225      0.104      2.543      0.049      3.231      8.772      0.177     18.835     20.545     48.674     17.245      8.209     88.492      8.754      8.720     82.697      0.256
  7842.5000     73.133      0.200      0.094      2.558      0.052      3.246      8.772      0.160     18.236     19.890     50.277     20.211      8.220     84.390      8.758      8.719     86.100      0.246
  7843.0000     67.890      0.199      0.088      2.568      0.053      3.292      8.772      0.157     16.936     18.329     54.557     27.849      8.229     77.446      8.758      8.725     82.806      0.229
  7843.5000     69.083      0.221      0.091      2.564      0.047      3.368      8.772      0.170     15.321     16.585     60.295     25.292      8.231     69.398      8.763      8.717     74.042      0.212
  7844.0000     75.763      0.226      0.101      2.548      0.047      3.330      8.772      0.176     14.355     15.458     64.691     17.303      8.232     67.925      8.782      8.712     72.248      0.196
  7844.5000     83.443      0.229      0.110      2.534      0.056      3.195      8.781      0.181     14.097     14.956     66.862     16.410      8.233     69.714      8.799      8.706     75.738      0.195
  7845.0000     90.667      0.250      0.121      2.514      0.052      3.229      8.756      0.196     14.423     15.205     65.767     13.804      8.233     79.445      8.799      8.711     77.986      0.212
  7845.5000     91.824      0.265      0.132      2.498      0.046      3.231      8.756      0.208     15.753     16.382     61.041     13.997      8.233     88.194      8.799      8.717     79.475      0.232
  7846.0000     87.563      0.265      0.133      2.497      0.045      3.242      8.764      0.209     17.346     17.993     55.578     17.680      8.233     93.577      8.799      8.725     82.641      0.249
  7846.5000     86.897      0.250      0.128      2.503      0.041      3.274      8.764      0.199     19.639     20.265     49.346     19.861      8.242     94.016      8.799      8.729     86.322      0.264
  7847.0000     88.370      0.238      0.111      2.531      0.043      3.292      8.756      0.186     20.951     21.707     46.069     17.228      8.258     88.545      8.792      8.723     87.317      0.269
  7847.5000     85.950      0.226      0.113      2.528      0.041      3.249      8.772      0.181     20.438     21.568     46.366     17.665      8.271     80.199      8.784      8.721     85.250      0.260
  7848.0000     89.930      0.229      0.121      2.515      0.056      3.168      8.772      0.186     19.043     20.436     48.934     19.880      8.274     76.903      8.783      8.720     81.772      0.233
  7848.5000     94.857      0.260      0.151      2.467      0.045      3.139      8.772      0.213     16.883     18.847     53.059     19.202      8.275     74.518      8.791      8.720     76.123      0.210
  7849.0000     97.329      0.295      0.162      2.449      0.050      3.054      8.772      0.236     16.024     18.114     55.205     15.585      8.274     80.182      8.797      8.728     72.223      0.208
  7849.5000     98.609      0.303      0.174      2.431      0.054      2.989      8.781      0.244     16.200     18.364     54.453     14.955      8.275     85.003      8.784      8.727     77.314      0.225
  7850.0000     99.153      0.303      0.156      2.458      0.069      2.963      8.781      0.237     17.232     19.362     51.648     15.797      8.274     90.421      8.753      8.726     86.216      0.250
  7850.5000    101.310      0.288      0.155      2.460      0.043      3.123      8.772      0.229     18.310     20.482     48.824     15.789      8.274     91.526      8.725      8.725     89.202      0.273
  7851.0000     95.646      0.265      0.141      2.482      0.040      3.227      8.772      0.212     18.691     20.787     48.107     15.292      8.275     92.245      8.719      8.721     86.606      0.283
  7851.5000     91.070      0.246      0.123      2.511      0.056      3.240      8.747      0.195     18.458     20.368     49.097     21.254      8.274     88.405      8.733      8.725     86.336      0.271
  7852.0000     92.490      0.253      0.127      2.505      0.049      3.194      8.747      0.200     17.066     18.895     52.923     28.184      8.275     83.758      8.747      8.719     85.494      0.247
  7852.5000     92.858      0.275      0.126      2.508      0.044      3.156      8.756      0.211     15.658     17.503     57.133     19.900      8.274     79.743      8.745      8.716     79.258      0.228
