~Version Information                                                          
 VERS.                             1.20: CWLS log ASCII Standard -VERSION 1.20
 WRAP.                               NO: One line per depth step              
~Well Information Block                                                       
#MNEM.UNIT           Data Type           Information                          
#--------- ----------------------------  -------------------------------------
 STRT.F                         92.0000:                                      
 STOP.F                       9060.0000:                                      
 STEP.F                          0.5000:                                      
 NULL.                        -999.2500:                                      
 COMP.                     Company Name: ENRON OIL & GAS                      
 WELL.                        Well Name: UNIVERSITY 6-18W NO.1                
 FLD .                       Field Name: WILDCAT                              
 LOC .                         Location: SECTION 18, BLOCK 6                  
 SLOC.                 SURFACE Location: 1216' FNL & 505' FWL                 
 SECT.                          Section: 18                                   
 TOWN.                         Township:                                      
 RANG.                            Range:                                      
 COUN.                           County: REAGAN                               
 STAT.                            State: TX                                   
 CTRY.                          Country: USA                                  
 SRVC.                  Service Company: HALLIBURTON ENERGY SERVICES          
 DATE.                 DATE as MM/DD/YY: 08/17/97                             
 APIN.                  API Well Number: 42-383-34800                         
 UWI .                   UNIQUE WELL ID: 42383348000000                       
 PD  .                  Permanent Datum: G.L.                                 
 RUN .                       Run Number: 1&2                                  
 DMF .           Drilling Measured From: KELLY BUSHING                        
 LMF .            Logging Measured From: K.B.                                 
 TCS .         Time Circulation Stopped: 0100                                 
 TLAB.            Time Logger at Bottom: 0830                                 
 DFT .              Drilling Fluid Type: FW-PAC-STARCH                        
 MCSS.           Mud Cake Sample Source: N/A                                  
 MFSS.       Mud Filtrate Sample Source: MEAS                                 
 MSS .                Mud Sample Source: MUD PIT                              
 LCCN.             Logging Company Name: HALLIBURTON ENERGY SERVICES          
 LUL .              Equiptment Location: ODTX                                 
 LUN .              Logging Unit Number: 52525                                
 ENGI.          Logging Engineer's Name: LAUFER                               
 WITN.                   Witness's Name: N. VAN LIEW                          
~Curve Information Block                                                      
#MNEM.UNIT                   API CODE    Curve Description                  
#---------                 ------------  -------------------------------------
 DEPT.F                    00 000 00 00:   1  Depth Curve                     
 GR2 .GAPI                 00 000 00 00:   2  GAMMA RAY -DENSITY-NEUTRON- 
 NPHI.DECP                 00 000 00 00:   3  NEUTRON POROSITY -LIME-     
 DPHI.DECP                 00 000 00 00:   4  DENSITY POROSITY -LIME-     
 RHOB.G/C3                 00 000 00 00:   5  BULK DENSITY                
 DRHO.G/C3                 00 000 00 00:   6  DENSITY CORRECTION          
 PE  .B/E                  00 000 00 00:   7  PHOTO-ELECTRIC FACTOR       
 CALI.IN                   00 000 00 00:   8  CALIPER -DENSITY-           
 PHIX.DECP                 00 000 00 00:   9  CROSSPLOT POROSITY          
 LLS .OHMM                 00 000 00 00:  10  LATERO-LOG, SHALLOW RESIS.  
 LLD .OHMM                 00 000 00 00:  11  LATERO-LOG, DEEP RESISTIVITY
 CLLD.MMHO                 00 000 00 00:  12  LATERO-LOG, DEEP CONDUCTIVTY
 MGRD.OHMM                 00 000 00 00:  13  MICRO-SFL   RESISTIVITY     
 CAL2.IN                   00 000 00 00:  14  CALIPER -MICRO-SFL-         
 GR  .GAPI                 00 000 00 00:  15  GAMMA RAY -SONIC-           
 C13 .IN                   00 000 00 00:  16  CALIPER PADS 1 - 3    -FACT-
 C24 .IN                   00 000 00 00:  17  CALIPER PADS 2 - 4    -FACT-
 DT  .US/F                 00 000 00 00:  18  SONIC TRANSIT TIME          
 SPHI.DECP                 00 000 00 00:  19  SONIC POROSITY  -LIME-      
~Parameter Information Block                                                  
#MNEM.UNIT            Value              Description                          
#--------- ----------------------------  -------------------------------------
 EDF .F                       2695.0000: Elevation, Derrick Floor    
 EGL .F                       2678.0000: Elevation, Ground Level     
 EKB .F                       2696.0000: Elevation, Kelly Bushing    
 EPD .F                       2678.0000: Elevation Perminent Datum   
 TDD .F                       9050.0000: Total Depth-Driller         
 TDL .F                       9044.0000: Total Depth-Logger          
 CBD .F                       3050.0000: Casing Bottom Driller 1     
 CBL .F                       3044.0000: Casing Bottom Logger 1      
 TLI .F                       2900.0000: Top Logged Interval         
 BLI .F                       9037.0000: Bottom Logged Interval      
 DFD .LB/G                       9.1000: Drilling Fluid Density      
 DFPH.----                      10.5000: Drilling Fluid Ph           
 DFL .C3                         5.6000: Drilling Fluid Loss         
 DFV .CP                        52.0000: Drilling Fluid Viscosity    
 RM  .CP                        52.0000: Mud Sample Resistivity      
 MST .DEGF                      69.0000: Mud Sample Temperature      
 RMF .DEGF                      69.0000: Mud Filtrate Resistivity    
 MFST.DEGF                      69.0000: Mud Filtrate Sample Temp    
 RMC .DEGF                      69.0000: Mud Cake Resistivity        
 MCST.DEGF                      69.0000: Mud Cake Sample Temperature 
 MRT .DEGF                     150.0000: Maximum Recorded Temperature
 BHT .DEGF                     111.0000: Bottom Hole Temperature     
~A   DEPT       GR2        NPHI       DPHI       RHOB       DRHO       PE         CALI       PHIX       LLS        LLD        CLLD       MGRD       CAL2       GR         C13        C24        DT         SPHI  
# ...
  3407.0000     52.811      0.097      0.068      2.601     -0.003      4.308      8.411      0.090     30.103     27.672     36.138     26.720      8.112     49.708      8.704      8.334     59.475      0.083
  3407.5000     55.354      0.092      0.063      2.608      0.002      4.351      8.419      0.086     32.469     29.682     33.691     24.624      8.109     48.972      8.702      8.335     59.231      0.083
  3408.0000     58.843      0.088      0.054      2.623      0.012      4.389      8.385      0.080     36.207     33.024     30.281     26.253      8.107     48.603      8.704      8.333     59.377      0.080
  3408.5000     55.319      0.085      0.053      2.625      0.010      4.359      8.352      0.078     42.182     38.237     26.153     27.605      8.105     47.446      8.713      8.334     58.681      0.076
  3409.0000     53.565      0.080      0.050      2.630      0.015      4.481      8.360      0.073     49.057     44.464     22.490     29.055      8.104     46.552      8.717      8.336     57.302      0.069
  3409.5000     52.198      0.073      0.048      2.633      0.015      4.508      8.352      0.068     55.725     50.768     19.697     33.911      8.103     45.342      8.719      8.335     56.234      0.061
  3410.0000     47.569      0.067      0.048      2.633      0.013      4.445      8.352      0.064     60.915     56.462     17.711     46.739      8.104     44.185      8.719      8.332     55.225      0.058
  3410.5000     44.413      0.063      0.047      2.635      0.014      4.384      8.343      0.061     63.235     59.203     16.891     52.989      8.104     41.870      8.719      8.328     55.044      0.056
  3411.0000     41.888      0.063      0.053      2.625      0.007      4.331      8.301      0.063     63.616     60.076     16.646     61.858      8.103     39.819      8.717      8.325     56.036      0.056
  3411.5000     39.205      0.063      0.056      2.620      0.004      4.450      8.276      0.065     63.949     60.555     16.514     64.867      8.104     37.505      8.717      8.314     55.891      0.058
  3412.0000     38.714      0.065      0.062      2.610     -0.002      4.449      8.293      0.068     62.764     59.652     16.764     66.033      8.105     35.611      8.719      8.308     55.684      0.058
  3412.5000     39.889      0.066      0.063      2.608     -0.003      4.496      8.293      0.069     60.927     58.222     17.176     64.500      8.104     34.611      8.719      8.309     55.566      0.057
  3413.0000     39.503      0.068      0.068      2.600     -0.004      4.576      8.284      0.072     58.705     55.860     17.902     63.120      8.103     37.768      8.719      8.306     55.652      0.060
  3413.5000     41.450      0.073      0.067      2.602     -0.002      4.488      8.276      0.074     54.358     52.258     19.136     62.878      8.106     41.187      8.719      8.290     56.670      0.063
  3414.0000     45.482      0.074      0.064      2.607     -0.000      4.706      8.268      0.074     52.651     50.767     19.698     60.117      8.108     41.870      8.713      8.284     57.175      0.067
  3414.5000     45.605      0.075      0.059      2.614      0.004      4.696      8.268      0.073     52.740     51.407     19.453     54.117      8.108     41.292      8.706      8.287     57.584      0.068
  3415.0000     41.835      0.071      0.044      2.638      0.022      4.382      8.268      0.066     57.677     55.775     17.929     50.291      8.105     36.190      8.702      8.286     57.484      0.061
  3415.5000     39.363      0.063      0.046      2.636      0.023      4.396      8.268      0.061     69.175     64.477     15.509     53.411      8.091     30.719      8.706      8.277     54.991      0.052
  3416.0000     33.630      0.057      0.049      2.632      0.027      4.548      8.268      0.058     77.577     71.294     14.026     58.713      8.090     25.985      8.694      8.265     52.722      0.045
  3416.5000     26.090      0.055      0.055      2.622      0.018      4.530      8.268      0.059     79.104     71.459     13.994     88.934      8.116     24.249      8.669      8.263     52.469      0.043
  3417.0000     26.248      0.059      0.058      2.617      0.022      4.268      8.268      0.063     70.430     64.122     15.595    143.510      8.155     23.407      8.680      8.283     54.309      0.046
  3417.5000     26.984      0.066      0.060      2.613      0.018      4.500      8.268      0.068     59.274     54.933     18.204    164.645      8.168     24.565      8.756      8.313     55.817      0.053
  3418.0000     27.335      0.071      0.054      2.623      0.015      4.719      8.293      0.069     52.354     49.042     20.391    126.410      8.168     25.564      8.807      8.337     55.873      0.056
  3418.5000     29.001      0.074      0.054      2.623      0.011      4.609      8.318      0.071     49.023     45.819     21.825     75.749      8.172     25.196      8.853      8.348     55.641      0.056
  3419.0000     28.685      0.071      0.043      2.640      0.022      4.529      8.377      0.066     47.969     44.568     22.438     51.526      8.181     26.458      9.007      8.344     55.111      0.055
  3419.5000     28.142      0.070      0.040      2.646      0.027      4.599      8.394      0.063     48.163     44.927     22.258     36.591      8.183     27.931      9.174      8.341     55.106      0.058
  3420.0000     27.458      0.071      0.036      2.652      0.029      4.531      8.385      0.063     49.656     46.511     21.500     22.829      8.177     25.880      9.326      8.340     56.530      0.060
  3420.5000     26.634      0.070      0.039      2.647      0.022      4.524      8.385      0.063     52.906     49.549     20.182     12.860      8.168     25.038      9.399      8.341     57.150      0.061
  3421.0000     26.178      0.066      0.034      2.656      0.027      4.581      8.394      0.059     57.661     53.659     18.636      8.608      8.165     25.932      9.460      8.340     55.941      0.060
  3421.5000     24.810      0.060      0.032      2.658      0.024      4.568      8.419      0.055     62.071     57.799     17.301      6.556      8.155     23.039      9.434      8.344     55.147      0.056
  3422.0000     25.704      0.055      0.039      2.648      0.012      4.493      8.411      0.054     64.274     59.997     16.668      5.773      8.145     22.145      9.239      8.370     54.969      0.054
  3422.5000     25.459      0.054      0.041      2.644      0.013      4.437      8.411      0.054     62.584     59.007     16.947      5.991      8.144     24.144      8.948      8.399     55.141      0.056
  3423.0000     25.810      0.057      0.049      2.632      0.010      4.393      8.427      0.058     58.600     55.605     17.984      9.245      8.156     23.723      8.751      8.412     56.056      0.061
  3423.5000     27.212      0.062      0.055      2.621      0.007      4.351      8.427      0.064     54.116     51.658     19.358     14.232      8.167     23.670      8.700      8.421     57.292      0.066
  3424.0000     27.107      0.064      0.060      2.614      0.009      4.376      8.453      0.066     49.855     47.489     21.058     16.870      8.167     25.880      8.668      8.435     57.983      0.068
  3424.5000     26.984      0.062      0.060      2.613      0.014      4.380      8.469      0.065     46.610     44.237     22.605     21.252      8.168     25.459      8.661      8.453     57.303      0.069
  3425.0000     27.896      0.062      0.065      2.606      0.011      4.382      8.495      0.067     44.190     41.510     24.091     32.034      8.170     24.039      8.672      8.475     56.714      0.067
  3425.5000     25.950      0.063      0.064      2.606      0.011      4.359      8.520      0.067     42.101     39.095     25.579     48.943      8.181     24.565      8.710      8.490     56.742      0.064
  3426.0000     25.669      0.064      0.068      2.600      0.011      4.378      8.537      0.070     40.544     36.971     27.048     49.413      8.200     25.249      8.740      8.505     56.584      0.063
