~Version Information                                                          
 VERS.                             1.20: CWLS log ASCII Standard -VERSION 1.20
 WRAP.                               NO: One line per depth step              
~Well Information Block                                                       
#MNEM.UNIT           Data Type           Information                          
#--------- ----------------------------  -------------------------------------
 STRT.F                         92.0000:                                      
 STOP.F                       9060.0000:                                      
 STEP.F                          0.5000:                                      
 NULL.                        -999.2500:                                      
 COMP.                     Company Name: ENRON OIL & GAS                      
 WELL.                        Well Name: UNIVERSITY 6-18W NO.1                
 FLD .                       Field Name: WILDCAT                              
 LOC .                         Location: SECTION 18, BLOCK 6                  
 SLOC.                 SURFACE Location: 1216' FNL & 505' FWL                 
 SECT.                          Section: 18                                   
 TOWN.                         Township:                                      
 RANG.                            Range:                                      
 COUN.                           County: REAGAN                               
 STAT.                            State: TX                                   
 CTRY.                          Country: USA                                  
 SRVC.                  Service Company: HALLIBURTON ENERGY SERVICES          
 DATE.                 DATE as MM/DD/YY: 08/17/97                             
 APIN.                  API Well Number: 42-383-34800                         
 UWI .                   UNIQUE WELL ID: 42383348000000                       
 PD  .                  Permanent Datum: G.L.                                 
 RUN .                       Run Number: 1&2                                  
 DMF .           Drilling Measured From: KELLY BUSHING                        
 LMF .            Logging Measured From: K.B.                                 
 TCS .         Time Circulation Stopped: 0100                                 
 TLAB.            Time Logger at Bottom: 0830                                 
 DFT .              Drilling Fluid Type: FW-PAC-STARCH                        
 MCSS.           Mud Cake Sample Source: N/A                                  
 MFSS.       Mud Filtrate Sample Source: MEAS                                 
 MSS .                Mud Sample Source: MUD PIT                              
 LCCN.             Logging Company Name: HALLIBURTON ENERGY SERVICES          
 LUL .              Equiptment Location: ODTX                                 
 LUN .              Logging Unit Number: 52525                                
 ENGI.          Logging Engineer's Name: LAUFER                               
 WITN.                   Witness's Name: N. VAN LIEW                          
~Curve Information Block                                                      
#MNEM.UNIT                   API CODE    Curve Description                  
#---------                 ------------  -------------------------------------
 DEPT.F                    00 000 00 00:   1  Depth Curve                     
 GR2 .GAPI                 00 000 00 00:   2  GAMMA RAY -DENSITY-NEUTRON- 
 NPHI.DECP                 00 000 00 00:   3  NEUTRON POROSITY -LIME-     
 DPHI.DECP                 00 000 00 00:   4  DENSITY POROSITY -LIME-     
 RHOB.G/C3                 00 000 00 00:   5  BULK DENSITY                
 DRHO.G/C3                 00 000 00 00:   6  DENSITY CORRECTION          
 PE  .B/E                  00 000 00 00:   7  PHOTO-ELECTRIC FACTOR       
 CALI.IN                   00 000 00 00:   8  CALIPER -DENSITY-           
 PHIX.DECP                 00 000 00 00:   9  CROSSPLOT POROSITY          
 LLS .OHMM                 00 000 00 00:  10  LATERO-LOG, SHALLOW RESIS.  
 LLD .OHMM                 00 000 00 00:  11  LATERO-LOG, DEEP RESISTIVITY
 CLLD.MMHO                 00 000 00 00:  12  LATERO-LOG, DEEP CONDUCTIVTY
 MGRD.OHMM                 00 000 00 00:  13  MICRO-SFL   RESISTIVITY     
 CAL2.IN                   00 000 00 00:  14  CALIPER -MICRO-SFL-         
 GR  .GAPI                 00 000 00 00:  15  GAMMA RAY -SONIC-           
 C13 .IN                   00 000 00 00:  16  CALIPER PADS 1 - 3    -FACT-
 C24 .IN                   00 000 00 00:  17  CALIPER PADS 2 - 4    -FACT-
 DT  .US/F                 00 000 00 00:  18  SONIC TRANSIT TIME          
 SPHI.DECP                 00 000 00 00:  19  SONIC POROSITY  -LIME-      
~Parameter Information Block                                                  
#MNEM.UNIT            Value              Description                          
#--------- ----------------------------  -------------------------------------
 EDF .F                       2695.0000: Elevation, Derrick Floor    
 EGL .F                       2678.0000: Elevation, Ground Level     
 EKB .F                       2696.0000: Elevation, Kelly Bushing    
 EPD .F                       2678.0000: Elevation Perminent Datum   
 TDD .F                       9050.0000: Total Depth-Driller         
 TDL .F                       9044.0000: Total Depth-Logger          
 CBD .F                       3050.0000: Casing Bottom Driller 1     
 CBL .F                       3044.0000: Casing Bottom Logger 1      
 TLI .F                       2900.0000: Top Logged Interval         
 BLI .F                       9037.0000: Bottom Logged Interval      
 DFD .LB/G                       9.1000: Drilling Fluid Density      
 DFPH.----                      10.5000: Drilling Fluid Ph           
 DFL .C3                         5.6000: Drilling Fluid Loss         
 DFV .CP                        52.0000: Drilling Fluid Viscosity    
 RM  .CP                        52.0000: Mud Sample Resistivity      
 MST .DEGF                      69.0000: Mud Sample Temperature      
 RMF .DEGF                      69.0000: Mud Filtrate Resistivity    
 MFST.DEGF                      69.0000: Mud Filtrate Sample Temp    
 RMC .DEGF                      69.0000: Mud Cake Resistivity        
 MCST.DEGF                      69.0000: Mud Cake Sample Temperature 
 MRT .DEGF                     150.0000: Maximum Recorded Temperature
 BHT .DEGF                     111.0000: Bottom Hole Temperature     
~A   DEPT       GR2        NPHI       DPHI       RHOB       DRHO       PE         CALI       PHIX       LLS        LLD        CLLD       MGRD       CAL2       GR         C13        C24        DT         SPHI  
# ...
  6624.5000     47.025      0.076      0.053      2.625      0.042      3.442      8.259      0.072     97.975     53.052     18.849     23.545      7.973     49.024      8.423      8.172     69.703      0.158
  6625.0000     41.923      0.056      0.031      2.659      0.058      3.425      8.251      0.052    130.377     96.893     10.321     99.225      7.984     35.962      8.417      8.160     56.917      0.102
  6625.5000     49.936      0.066      0.045      2.638      0.056      3.528      8.242      0.063    120.443    106.440      9.395   1576.994      8.003     39.293      8.424      8.161     53.689      0.064
  6626.0000     66.137      0.098      0.078      2.584      0.048      3.408      8.242      0.094     60.240     61.169     16.348    733.706      8.034     55.038      8.460      8.181     55.403      0.074
  6626.5000     79.936      0.148      0.094      2.559      0.048      3.223      8.268      0.131     35.611     36.526     27.378     76.786      8.059     73.308      8.505      8.197     61.477      0.117
  6627.0000     90.035      0.203      0.108      2.536      0.046      3.128      8.276      0.166     22.292     23.709     42.178     46.497      8.083     86.546      8.553      8.223     72.598      0.162
  6627.5000     97.049      0.243      0.109      2.534      0.054      3.049      8.268      0.188     15.116     17.394     57.490     29.402      8.094     98.943      8.597      8.247     79.739      0.205
  6628.0000     98.767      0.256      0.103      2.544      0.052      3.175      8.301      0.193     13.190     15.011     66.617     17.200      8.101    101.397      8.630      8.275     81.166      0.234
  6628.5000    101.853      0.256      0.102      2.546      0.051      3.169      8.360      0.192     13.847     15.030     66.534      8.518      8.095     99.714      8.644      8.294     82.148      0.243
  6629.0000    100.310      0.255      0.103      2.544      0.048      3.180      8.411      0.192     16.695     17.017     58.763      8.905      8.084     95.296      8.645      8.310     82.573      0.245
  6629.5000     95.366      0.255      0.103      2.544      0.043      3.353      8.419      0.192     20.904     20.337     49.172     11.494      8.073     90.632      8.646      8.311     82.658      0.242
  6630.0000     91.052      0.252      0.094      2.559      0.049      3.391      8.411      0.187     23.067     22.182     45.081     14.281      8.086     83.723      8.643      8.295     81.137      0.229
  6630.5000     91.561      0.233      0.092      2.562      0.047      3.357      8.402      0.176     22.550     21.668     46.150     18.418      8.103     84.232      8.641      8.274     77.631      0.216
  6631.0000     93.472      0.227      0.089      2.567      0.050      3.286      8.369      0.172     19.864     19.548     51.156     28.899      8.112     86.266      8.639      8.283     74.859      0.210
  6631.5000     98.066      0.237      0.093      2.560      0.051      3.347      8.369      0.179     17.665     18.071     55.338     24.745      8.112     89.176      8.639      8.308     76.730      0.207
  6632.0000     99.469      0.237      0.088      2.569      0.062      3.173      8.377      0.177     17.369     17.937     55.750     12.581      8.110     92.490      8.640      8.312     78.828      0.210
  6632.5000     98.101      0.234      0.092      2.562      0.054      3.158      8.385      0.177     17.940     18.741     53.360     12.454      8.105     92.630      8.643      8.310     77.802      0.214
  6633.0000     93.402      0.225      0.088      2.568      0.049      3.285      8.394      0.171     17.891     19.108     52.335     20.021      8.090     90.982      8.643      8.296     77.233      0.215
  6633.5000     86.441      0.224      0.078      2.584      0.050      3.289      8.402      0.167     17.444     19.550     51.151     24.892      8.074     90.281      8.643      8.303     77.605      0.217
  6634.0000     84.986      0.201      0.077      2.587      0.044      3.457      8.394      0.154     19.432     21.441     46.639     17.882      8.072     87.616      8.642      8.301     79.569      0.202
  6634.5000     77.850      0.193      0.071      2.596      0.038      3.675      8.369      0.148     23.968     25.312     39.506     20.646      8.071     81.760      8.641      8.288     74.984      0.199
  6635.0000     74.448      0.185      0.066      2.604      0.036      3.812      8.318      0.141     30.667     30.951     32.309     19.882      8.078     75.255      8.639      8.272     71.533      0.191
  6635.5000     77.762      0.170      0.075      2.589      0.034      3.780      8.301      0.136     33.036     32.891     30.403     28.384      8.101     72.098      8.639      8.254     74.820      0.162
  6636.0000     80.883      0.158      0.081      2.580      0.037      3.649      8.284      0.131     27.757     25.876     38.646     55.601      8.132     73.606      8.640      8.255     68.855      0.160
  6636.5000     86.143      0.180      0.087      2.571      0.030      3.488      8.318      0.146     20.903     19.811     50.476    148.964      8.151     77.534      8.639      8.285     65.773      0.168
  6637.0000     95.927      0.223      0.094      2.558      0.034      3.194      8.352      0.172     16.224     16.706     59.858     35.344      8.147     86.388      8.645      8.312     73.456      0.179
  6637.5000    100.696      0.247      0.103      2.544      0.040      3.023      8.411      0.188     16.652     17.134     58.362     15.490      8.117     93.384      8.636      8.327     79.212      0.204
  6638.0000    106.868      0.253      0.118      2.520      0.031      3.043      8.394      0.197     22.328     20.976     47.673      9.743      8.085     98.539      8.622      8.321     80.502      0.222
  6638.5000    111.602      0.254      0.123      2.512      0.036      3.024      8.385      0.199     27.943     26.217     38.143     11.748      8.071    103.589      8.590      8.304     78.681      0.225
  6639.0000    111.006      0.254      0.133      2.496      0.039      3.076      8.419      0.203     30.357     29.934     33.407     21.714      8.066    102.870      8.564      8.273     78.536      0.225
  6639.5000    106.710      0.255      0.132      2.497      0.035      3.153      8.352      0.203     30.513     31.551     31.695     42.413      8.044     97.137      8.521      8.254     79.877      0.230
  6640.0000     93.893      0.237      0.121      2.515      0.024      3.395      8.293      0.190     29.403     32.377     30.886     43.560      8.017     87.248      8.513      8.248     81.622      0.240
  6640.5000     71.082      0.165      0.097      2.553      0.015      3.641      8.310      0.141     39.519     38.843     25.744     23.731      8.005     69.381      8.511      8.208     83.583      0.219
  6641.0000     52.163      0.090      0.060      2.614      0.016      3.872      8.310      0.083     61.428     50.201     19.920     17.845      8.008     50.164      8.504      8.159     76.611      0.175
  6641.5000     42.098      0.057      0.032      2.658      0.021      3.830      8.276      0.053     61.332     51.257     19.510     30.959      8.018     38.451      8.540      8.147     61.553      0.121
  6642.0000     42.852      0.054      0.037      2.651      0.022      3.837      8.234      0.052     51.756     42.151     23.724    144.429      8.044     36.628      8.571      8.164     52.709      0.071
  6642.5000     55.073      0.073      0.062      2.610      0.025      3.696      8.234      0.073     28.102     29.986     33.349    849.003      8.068     49.042      8.566      8.184     52.058      0.066
  6643.0000     71.117      0.119      0.091      2.563      0.032      3.480      8.268      0.112     20.085     24.797     40.327     43.945      8.088     63.858      8.588      8.199     59.770      0.105
  6643.5000     89.474      0.193      0.111      2.531      0.042      3.142      8.276      0.162     20.339     23.735     42.132     15.392      8.108     76.377      8.619      8.226     72.387      0.153
