~Version Information                                                          
 VERS.                             1.20: CWLS log ASCII Standard -VERSION 1.20
 WRAP.                               NO: One line per depth step              
~Well Information Block                                                       
#MNEM.UNIT           Data Type           Information                          
#--------- ----------------------------  -------------------------------------
 STRT.F                         92.0000:                                      
 STOP.F                       9060.0000:                                      
 STEP.F                          0.5000:                                      
 NULL.                        -999.2500:                                      
 COMP.                     Company Name: ENRON OIL & GAS                      
 WELL.                        Well Name: UNIVERSITY 6-18W NO.1                
 FLD .                       Field Name: WILDCAT                              
 LOC .                         Location: SECTION 18, BLOCK 6                  
 SLOC.                 SURFACE Location: 1216' FNL & 505' FWL                 
 SECT.                          Section: 18                                   
 TOWN.                         Township:                                      
 RANG.                            Range:                                      
 COUN.                           County: REAGAN                               
 STAT.                            State: TX                                   
 CTRY.                          Country: USA                                  
 SRVC.                  Service Company: HALLIBURTON ENERGY SERVICES          
 DATE.                 DATE as MM/DD/YY: 08/17/97                             
 APIN.                  API Well Number: 42-383-34800                         
 UWI .                   UNIQUE WELL ID: 42383348000000                       
 PD  .                  Permanent Datum: G.L.                                 
 RUN .                       Run Number: 1&2                                  
 DMF .           Drilling Measured From: KELLY BUSHING                        
 LMF .            Logging Measured From: K.B.                                 
 TCS .         Time Circulation Stopped: 0100                                 
 TLAB.            Time Logger at Bottom: 0830                                 
 DFT .              Drilling Fluid Type: FW-PAC-STARCH                        
 MCSS.           Mud Cake Sample Source: N/A                                  
 MFSS.       Mud Filtrate Sample Source: MEAS                                 
 MSS .                Mud Sample Source: MUD PIT                              
 LCCN.             Logging Company Name: HALLIBURTON ENERGY SERVICES          
 LUL .              Equiptment Location: ODTX                                 
 LUN .              Logging Unit Number: 52525                                
 ENGI.          Logging Engineer's Name: LAUFER                               
 WITN.                   Witness's Name: N. VAN LIEW                          
~Curve Information Block                                                      
#MNEM.UNIT                   API CODE    Curve Description                  
#---------                 ------------  -------------------------------------
 DEPT.F                    00 000 00 00:   1  Depth Curve                     
 GR2 .GAPI                 00 000 00 00:   2  GAMMA RAY -DENSITY-NEUTRON- 
 NPHI.DECP                 00 000 00 00:   3  NEUTRON POROSITY -LIME-     
 DPHI.DECP                 00 000 00 00:   4  DENSITY POROSITY -LIME-     
 RHOB.G/C3                 00 000 00 00:   5  BULK DENSITY                
 DRHO.G/C3                 00 000 00 00:   6  DENSITY CORRECTION          
 PE  .B/E                  00 000 00 00:   7  PHOTO-ELECTRIC FACTOR       
 CALI.IN                   00 000 00 00:   8  CALIPER -DENSITY-           
 PHIX.DECP                 00 000 00 00:   9  CROSSPLOT POROSITY          
 LLS .OHMM                 00 000 00 00:  10  LATERO-LOG, SHALLOW RESIS.  
 LLD .OHMM                 00 000 00 00:  11  LATERO-LOG, DEEP RESISTIVITY
 CLLD.MMHO                 00 000 00 00:  12  LATERO-LOG, DEEP CONDUCTIVTY
 MGRD.OHMM                 00 000 00 00:  13  MICRO-SFL   RESISTIVITY     
 CAL2.IN                   00 000 00 00:  14  CALIPER -MICRO-SFL-         
 GR  .GAPI                 00 000 00 00:  15  GAMMA RAY -SONIC-           
 C13 .IN                   00 000 00 00:  16  CALIPER PADS 1 - 3    -FACT-
 C24 .IN                   00 000 00 00:  17  CALIPER PADS 2 - 4    -FACT-
 DT  .US/F                 00 000 00 00:  18  SONIC TRANSIT TIME          
 SPHI.DECP                 00 000 00 00:  19  SONIC POROSITY  -LIME-      
~Parameter Information Block                                                  
#MNEM.UNIT            Value              Description                          
#--------- ----------------------------  -------------------------------------
 EDF .F                       2695.0000: Elevation, Derrick Floor    
 EGL .F                       2678.0000: Elevation, Ground Level     
 EKB .F                       2696.0000: Elevation, Kelly Bushing    
 EPD .F                       2678.0000: Elevation Perminent Datum   
 TDD .F                       9050.0000: Total Depth-Driller         
 TDL .F                       9044.0000: Total Depth-Logger          
 CBD .F                       3050.0000: Casing Bottom Driller 1     
 CBL .F                       3044.0000: Casing Bottom Logger 1      
 TLI .F                       2900.0000: Top Logged Interval         
 BLI .F                       9037.0000: Bottom Logged Interval      
 DFD .LB/G                       9.1000: Drilling Fluid Density      
 DFPH.----                      10.5000: Drilling Fluid Ph           
 DFL .C3                         5.6000: Drilling Fluid Loss         
 DFV .CP                        52.0000: Drilling Fluid Viscosity    
 RM  .CP                        52.0000: Mud Sample Resistivity      
 MST .DEGF                      69.0000: Mud Sample Temperature      
 RMF .DEGF                      69.0000: Mud Filtrate Resistivity    
 MFST.DEGF                      69.0000: Mud Filtrate Sample Temp    
 RMC .DEGF                      69.0000: Mud Cake Resistivity        
 MCST.DEGF                      69.0000: Mud Cake Sample Temperature 
 MRT .DEGF                     150.0000: Maximum Recorded Temperature
 BHT .DEGF                     111.0000: Bottom Hole Temperature     
~A   DEPT       GR2        NPHI       DPHI       RHOB       DRHO       PE         CALI       PHIX       LLS        LLD        CLLD       MGRD       CAL2       GR         C13        C24        DT         SPHI  
# ...
  3797.0000     67.803      0.241      0.184      2.413      0.054      2.559      9.244      0.219      6.706      5.955    167.924     12.444      8.849     62.122      9.542      9.422     76.561      0.205
  3797.5000     68.364      0.237      0.183      2.416      0.055      2.590      9.244      0.216      6.762      5.989    166.965     12.250      8.856     64.699      9.613      9.451     76.627      0.205
  3798.0000     69.854      0.240      0.179      2.422      0.060      2.632      9.277      0.215      6.772      6.021    166.081     12.048      8.857     64.068      9.648      9.471     76.536      0.205
  3798.5000     70.170      0.239      0.178      2.424      0.061      2.731      9.277      0.215      6.790      6.059    165.051     11.866      8.852     63.805      9.662      9.471     76.439      0.204
  3799.0000     69.907      0.240      0.178      2.423      0.060      2.708      9.277      0.215      6.777      6.077    164.556     11.751      8.846     63.121      9.661      9.470     76.345      0.202
  3799.5000     70.415      0.239      0.185      2.412      0.056      2.655      9.319      0.218      6.804      6.081    164.434     11.909      8.850     61.438      9.661      9.470     75.988      0.201
  3800.0000     70.275      0.234      0.188      2.408      0.053      2.594      9.319      0.217      6.787      6.040    165.571     12.306      8.854     60.070      9.661      9.469     75.744      0.202
  3800.5000     69.556      0.238      0.195      2.396      0.051      2.581      9.319      0.222      6.731      6.006    166.513     12.224      8.861     62.595      9.624      9.470     76.273      0.205
  3801.0000     67.768      0.245      0.200      2.388      0.045      2.523      9.277      0.228      6.700      5.989    166.976     11.583      8.886     62.911      9.615      9.471     77.488      0.209
  3801.5000     65.909      0.237      0.198      2.392      0.046      2.578      9.261      0.223      6.658      5.928    168.705     11.109      8.923     64.436      9.620      9.472     78.044      0.212
  3802.0000     63.349      0.230      0.193      2.398      0.045      2.599      9.277      0.218      6.645      5.922    168.860     10.597      8.959     62.332      9.647      9.473     77.744      0.213
  3802.5000     61.508      0.232      0.189      2.406      0.053      2.680      9.328      0.216      6.668      5.930    168.629     10.137      8.984     59.439      9.661      9.479     77.603      0.211
  3803.0000     61.052      0.237      0.197      2.393      0.042      2.651      9.378      0.223      6.717      5.961    167.762     10.521      8.997     57.388      9.685      9.487     76.966      0.212
  3803.5000     60.035      0.246      0.197      2.393      0.043      2.633      9.412      0.227      6.801      6.024    165.989     10.323      9.005     58.282      9.710      9.495     77.372      0.213
  3804.0000     60.141      0.247      0.204      2.382      0.045      2.533      9.404      0.231      6.934      6.196    161.398      9.404      9.012     57.125      9.724      9.521     78.575      0.215
  3804.5000     60.053      0.246      0.207      2.377      0.046      2.496      9.404      0.232      7.099      6.328    158.029      9.176      9.015     57.335      9.743      9.542     78.717      0.219
  3805.0000     58.826      0.246      0.202      2.385      0.052      2.512      9.387      0.230      7.253      6.478    154.379      9.290      9.015     58.703      9.771      9.556     78.484      0.220
  3805.5000     60.421      0.252      0.207      2.377      0.054      2.520      9.404      0.235      7.369      6.570    152.205      9.506      9.029     58.861      9.791      9.566     78.666      0.220
  3806.0000     62.630      0.255      0.212      2.368      0.054      2.479      9.420      0.239      7.405      6.624    150.961      9.646      9.042     57.546      9.792      9.574     78.877      0.222
  3806.5000     62.543      0.249      0.218      2.359      0.051      2.513      9.387      0.239      7.455      6.660    150.152      9.721      9.051     59.334      9.813      9.581     79.144      0.224
  3807.0000     68.048      0.244      0.216      2.362      0.058      2.577      9.437      0.235      7.485      6.641    150.574      9.617      9.051     59.650      9.830      9.585     79.714      0.225
  3807.5000     72.186      0.246      0.216      2.363      0.063      2.561      9.462      0.236      7.483      6.674    149.840      9.626      9.051     57.283      9.831      9.585     79.744      0.227
  3808.0000     70.275      0.245      0.212      2.369      0.065      2.541      9.513      0.234      7.471      6.647    150.443      9.681      9.050     57.896      9.826      9.583     79.752      0.228
  3808.5000     69.644      0.253      0.211      2.370      0.069      2.594      9.513      0.237      7.424      6.617    151.124      9.656      9.050     59.264      9.820      9.575     79.778      0.227
  3809.0000     66.891      0.249      0.218      2.359      0.062      2.519      9.521      0.239      7.434      6.664    150.062      9.581      9.051     59.842      9.816      9.580     79.703      0.227
  3809.5000     62.683      0.245      0.222      2.352      0.056      2.483      9.530      0.239      7.449      6.649    150.408      9.754      9.050     60.070      9.815      9.584     79.641      0.227
  3810.0000     60.631      0.245      0.218      2.359      0.057      2.449      9.530      0.237      7.437      6.665    150.035      9.856      9.050     59.439      9.816      9.585     79.712      0.226
  3810.5000     60.316      0.246      0.221      2.354      0.053      2.482      9.521      0.239      7.342      6.609    151.300      9.927      9.050     56.336      9.816      9.580     79.452      0.223
  3811.0000     62.665      0.238      0.214      2.366      0.054      2.522      9.513      0.231      7.009      6.348    157.525     10.732      9.058     59.229      9.819      9.576     78.528      0.221
  3811.5000     65.366      0.239      0.206      2.378      0.049      2.511      9.496      0.228      6.413      5.860    170.649     11.085      9.087     60.070      9.820      9.569     78.197      0.220
  3812.0000     70.117      0.235      0.197      2.392      0.052      2.583      9.505      0.222      5.641      5.224    191.432     11.260      9.134     62.227      9.820      9.564     78.808      0.218
  3812.5000     72.519      0.230      0.189      2.405      0.052      2.604      9.513      0.216      4.873      4.545    220.035     10.972      9.176     65.015      9.833      9.574     78.581      0.215
  3813.0000     75.114      0.230      0.184      2.414      0.047      2.567      9.530      0.213      4.271      4.004    249.756     11.509      9.194     64.752      9.862      9.600     77.475      0.212
  3813.5000     74.851      0.236      0.183      2.416      0.043      2.568      9.555      0.215      3.954      3.732    267.938     11.530      9.200     62.069      9.878      9.619     76.630      0.207
  3814.0000     72.204      0.229      0.174      2.429      0.051      2.541      9.555      0.208      3.937      3.664    272.959     10.721      9.194     62.490      9.868      9.630     76.180      0.204
  3814.5000     71.117      0.242      0.172      2.433      0.057      2.539      9.505      0.214      4.176      3.845    260.064     10.283      9.168     65.646      9.867      9.634     76.292      0.205
  3815.0000     70.976      0.246      0.176      2.426      0.060      2.565      9.505      0.218      4.572      4.161    240.351     10.332      9.139     66.067      9.871      9.638     76.992      0.209
  3815.5000     71.537      0.246      0.177      2.425      0.066      2.583      9.513      0.218      4.984      4.533    220.582     10.466      9.148     64.752      9.878      9.639     77.872      0.214
  3816.0000     75.868      0.245      0.178      2.423      0.067      2.587      9.530      0.218      5.210      4.802    208.244     10.368      9.188     63.595      9.907      9.646     78.669      0.218
