~Version Information                                                          
 VERS.                             1.20: CWLS log ASCII Standard -VERSION 1.20
 WRAP.                               NO: One line per depth step              
~Well Information Block                                                       
#MNEM.UNIT           Data Type           Information                          
#--------- ----------------------------  -------------------------------------
 STRT.F                         93.0000:                                      
 STOP.F                       8960.0000:                                      
 STEP.F                          0.5000:                                      
 NULL.                        -999.2500:                                      
 COMP.                     Company Name: ENRON OIL & GAS COMPANY              
 WELL.                        Well Name: UNIVERSITY 6-7 NO.1                  
 FLD .                       Field Name: GRIERSON                             
 LOC .                         Location: SECTION 7,BLOCK6                     
 SLOC.                 SURFACE Location: 874 FEL X 2193 FSL                   
 SECT.                          Section:                                      
 TOWN.                         Township:                                      
 RANG.                            Range:                                      
 COUN.                           County: REAGAN                               
 STAT.                            State: TEXAS                                
 CTRY.                          Country: USA                                  
 SRVC.                  Service Company: HALLIBURTON ENERGY SERVICES          
 DATE.                 DATE as MM/DD/YY: 04/29/97                             
 APIN.                  API Well Number: 42-383-34746                         
 UWI .                   UNIQUE WELL ID: 42383347460000                       
 PD  .                  Permanent Datum: G.L.                                 
 RUN .                       Run Number: ONE                                  
 DMF .           Drilling Measured From: KELLY BUSHING                        
 LMF .            Logging Measured From: K.B.                                 
 TCS .         Time Circulation Stopped:                                      
 TLAB.            Time Logger at Bottom:                                      
 DFT .              Drilling Fluid Type: FRESH GEL                            
 MCSS.           Mud Cake Sample Source: MEAS.                                
 MFSS.       Mud Filtrate Sample Source: MEAS.                                
 MSS .                Mud Sample Source: FLOWLINE                             
 LCCN.             Logging Company Name: HALLIBURTON ENERGY SERVICES          
 LUL .              Equiptment Location: ODESSA                               
 LUN .              Logging Unit Number: 51941                                
 ENGI.          Logging Engineer's Name: MART RILEY                           
 WITN.                   Witness's Name: N. VAN LIEW                          
~Curve Information Block                                                      
#MNEM.UNIT                   API CODE    Curve Description                  
#---------                 ------------  -------------------------------------
 DEPT.F                    00 000 00 00:   1  Depth Curve                     
 C13 .INCH                 99 075 22 05:   2  CALIPER PADS 1 - 3    -FACT-
 C24 .INCH                 99 075 22 05:   3  CALIPER PADS 2 - 4    -FACT-
 DT  .US/F                 99 075 22 05:   4  SONIC TRANSIT TIME          
 ILD .OHMM                 99 075 22 05:   5  IL, DEEP RESISTIVITY        
 ILM .OHMM                 99 075 22 05:   6  IL, MEDIUM RESISTIVITY      
 SGRD.OHMM                 99 075 22 05:   7  SHORT GUARD RESISTIVITY     
 SP  .MV                   99 075 22 05:   8  SPONTANEOUS POTENTIAL       
 SPHI.DECP                 99 075 22 05:   9  SONIC POROSITY  -LIME-      
 GR  .GAPI                 99 075 22 05:  10  GAMMA RAY                   
 CALI.INCH                 99 075 22 05:  11  CALIPER                     
 DPHI.DECP                 99 075 22 05:  12  DENSITY POROSITY -LIME-     
 GR2 .GAPI                 99 075 22 05:  13  GAMMA RAY 2ND SERVICE       
 NPHI.DECP                 99 075 22 05:  14  NEUTRON POROSITY -LIME-     
 PE  .B/E                  99 075 22 05:  15  PHOTO-ELECTRIC FACTOR       
 RHOB.G/C3                 99 075 22 05:  16  BULK DENSITY                
 DRHO.G/C3                 99 075 22 05:  17  DENSITY CORRECTION          
~Parameter Information Block                                                  
#MNEM.UNIT            Value              Description                          
#--------- ----------------------------  -------------------------------------
 EDF .F                       2732.0000: Elevation, Derrick Floor    
 EGL .F                       2715.0000: Elevation, Ground Level     
 EKB .F                       2733.0000: Elevation, Kelly Bushing    
 EPD .F                       2715.0000: Elevation Perminent Datum   
 TDD .F                       8950.0000: Total Depth-Driller         
 TDL .F                       8946.0000: Total Depth-Logger          
 CBD .F                       3000.0000: Casing Bottom Driller 1     
 CBL .F                       2998.0000: Casing Bottom Logger 1      
 TLI .F                       2980.0000: Top Logged Interval         
 BLI .F                       8941.0000: Bottom Logged Interval      
 DFD .LB/G                       9.4000: Drilling Fluid Density      
 DFPH.----                      10.0000: Drilling Fluid Ph           
 DFL .C3                        11.2000: Drilling Fluid Loss         
 DFV .CP                        46.0000: Drilling Fluid Viscosity    
 RM  .CP                        46.0000: Mud Sample Resistivity      
 MST .DEGF                      74.0000: Mud Sample Temperature      
 RMF .DEGF                      74.0000: Mud Filtrate Resistivity    
 MFST.DEGF                      74.0000: Mud Filtrate Sample Temp    
 RMC .DEGF                      74.0000: Mud Cake Resistivity        
 MCST.DEGF                      74.0000: Mud Cake Sample Temperature 
 MRT .DEGF                     165.0000: Maximum Recorded Temperature
 BHT .DEGF                     165.0000: Bottom Hole Temperature     
~A   DEPT       C13        C24        DT         ILD        ILM        SGRD       SP         SPHI       GR         CALI       DPHI       GR2        NPHI       PE         RHOB       DRHO  
# ...
  2974.0000      7.933      7.885     48.814   -999.250   -999.250   -999.250   -999.250      0.009     17.919   -999.250   -999.250   -999.250   -999.250   -999.250   -999.250   -999.250
  2974.5000      7.942      7.898     49.914   -999.250   -999.250   -999.250   -999.250      0.016     17.380   -999.250   -999.250   -999.250   -999.250   -999.250   -999.250   -999.250
  2975.0000      7.953      7.900     50.173   -999.250   -999.250   -999.250   -999.250      0.018     17.649   -999.250   -999.250   -999.250   -999.250   -999.250   -999.250   -999.250
  2975.5000      7.959      7.877     50.408   -999.250   -999.250   -999.250   -999.250      0.020     17.852   -999.250   -999.250   -999.250   -999.250   -999.250   -999.250   -999.250
  2976.0000      7.954      7.872     50.894   -999.250   -999.250   -999.250   -999.250      0.023     17.313   -999.250   -999.250   -999.250   -999.250   -999.250   -999.250   -999.250
  2976.5000      7.952      7.887     51.022   -999.250   -999.250   -999.250   -999.250      0.024     17.919   -999.250   -999.250   -999.250   -999.250   -999.250   -999.250   -999.250
  2977.0000      7.974      7.894     51.064   -999.250   -999.250   -999.250   -999.250      0.024     19.064   -999.250   -999.250   -999.250   -999.250   -999.250   -999.250   -999.250
  2977.5000      7.985      7.888     51.841   -999.250   -999.250   -999.250   -999.250      0.030     21.018      7.937      0.292     15.763      0.302     45.788      2.210     -0.439
  2978.0000      7.963      7.885     52.602   -999.250   -999.250   -999.250   -999.250      0.035     21.489      7.930      0.288     15.494      0.309     41.213      2.218     -0.433
  2978.5000      7.945      7.890     52.428   -999.250   -999.250   -999.250   -999.250      0.034     21.152      7.937      0.287     15.426      0.319     39.525      2.219     -0.430
  2979.0000      7.953      7.883     53.517   -999.250   -999.250   -999.250   -999.250      0.042     21.826      7.902      0.285     17.380      0.346     37.320      2.223     -0.426
  2979.5000      7.950      7.878     55.600   -999.250   -999.250   -999.250   -999.250      0.057     23.375      7.895      0.287     18.188      0.349     37.302      2.219     -0.426
  2980.0000      7.937      7.879     56.400    653.215  20000.000      0.186      5.621      0.062     24.925      7.909      0.275     17.515      0.349     34.421      2.239     -0.420
  2980.5000      7.940      7.882     56.934    689.161  20000.000      0.186      5.320      0.066     27.148      7.916      0.260     20.479      0.348     35.609      2.265     -0.422
  2981.0000      7.940      7.892     58.430    738.379  20000.000      0.186      5.691      0.077     29.034      7.937      0.242     22.163      0.351     36.187      2.297     -0.423
  2981.5000      7.939      7.887     60.823    829.209  20000.000      0.186      6.934      0.094     27.417      7.902      0.214     25.666      0.344     33.859      2.345     -0.417
  2982.0000      7.931      7.882     61.353    912.924  20000.000      0.186      8.525      0.097     25.868      7.888      0.186     29.438      0.334     33.957      2.392     -0.417
  2982.5000      7.937      7.874     61.842    977.234  20000.000      0.186      8.973      0.101     26.474      7.895      0.170     30.044      0.339     35.379      2.419     -0.419
  2983.0000      7.948      7.881     61.539   1036.845  20000.000      0.186      7.300      0.099     23.712      7.916      0.170     28.428      0.330     36.874      2.419     -0.423
  2983.5000      7.940      7.880     61.659   1086.286  20000.000      0.186      4.566      0.099     25.868      7.895      0.159     25.396      0.335     35.982      2.438     -0.420
  2984.0000      7.941      7.880     63.856   1166.410  20000.000      0.186      2.734      0.115     27.754      7.888      0.165     26.339      0.339     36.422      2.428     -0.422
  2984.5000      7.949      7.880     65.141   1189.555  20000.000      0.186      2.145      0.124     28.360      7.895      0.166     24.992      0.331     34.639      2.425     -0.418
  2985.0000      7.959      7.880     65.402   1224.396  20000.000      0.186      2.256      0.126     33.682      7.909      0.168     29.034      0.330     30.292      2.423     -0.405
  2985.5000      7.950      7.888     64.545   1207.154  20000.000      0.186      2.893      0.120     34.221      7.930      0.164     31.526      0.320     29.921      2.430     -0.404
  2986.0000      7.942      7.895     64.969   1190.608  20000.000      0.187      3.606      0.123     34.558      7.895      0.177     34.827      0.302     30.682      2.408     -0.408
  2986.5000      7.933      7.899     65.698   1145.570  20000.000      0.187      3.824      0.128     30.314      7.916      0.165     33.615      0.297     27.669      2.429     -0.396
  2987.0000      7.947      7.883     65.114   1010.261  20000.000      0.187      3.529      0.124     30.583      7.909      0.163     32.537      0.306     31.020      2.432     -0.408
  2987.5000      7.940      7.873     60.856    568.298  20000.000      0.187      3.559      0.094     28.226      7.895      0.159     29.910      0.305     32.840      2.438     -0.413
  2988.0000      7.954      7.881     60.195    249.061  20000.000      0.187      4.142      0.089     27.485      7.902      0.149     27.552      0.307     33.680      2.455     -0.415
  2988.5000      7.956      7.885     66.083    257.693  20000.000      0.187      4.525      0.131     26.744      7.951      0.133     27.485      0.305     28.964      2.483     -0.400
  2989.0000      7.946      7.875     63.102   7389.112  20000.000      0.187      3.912      0.110     26.003      7.979      0.147     28.293      0.318     37.039      2.458     -0.422
  2989.5000      7.941      7.868     60.781  20000.000  20000.000      0.187      2.598      0.093     27.687      7.958      0.143     29.303      0.315     35.120      2.466     -0.418
  2990.0000      7.947      7.872     64.688  20000.000  20000.000      0.187      1.720      0.121     28.967      7.923      0.145     28.697      0.306     29.417      2.462     -0.403
  2990.5000      7.963      7.878     64.059  20000.000  20000.000      0.187      1.650      0.116     31.055      7.888      0.173     30.920      0.291     30.528      2.415     -0.408
  2991.0000      7.968      7.876     63.797  20000.000  20000.000      0.186      1.744      0.115     31.796      7.895      0.189     31.190      0.304     31.024      2.387     -0.410
  2991.5000      7.957      7.873     64.523  20000.000  20000.000      0.186      1.785      0.120     32.402      7.895      0.202     29.842      0.307     29.071      2.364     -0.403
  2992.0000      7.945      7.877     63.553  20000.000  20000.000      0.186      1.921      0.113     35.029      7.916      0.230     30.247      0.307     29.484      2.317     -0.406
  2992.5000      7.945      7.878     63.880  20000.000  20000.000      0.186      2.386      0.115     35.636      7.958      0.254     33.480      0.299     30.573      2.276     -0.410
  2993.0000      7.947      7.885     66.241  20000.000  20000.000      0.186      2.981      0.132     38.667      7.916      0.265     34.760      0.306     29.674      2.257     -0.407
  2993.5000      7.950      7.876     66.811  20000.000  20000.000      0.186      3.930      0.136     41.429      7.916      0.271     38.937      0.309     28.456      2.247     -0.404
  2994.0000      7.944      7.879     67.028  20000.000  20000.000      0.186      4.802      0.137     43.113      7.909      0.283     39.408      0.303     30.018      2.226     -0.409
  2994.5000      7.957      7.880     67.516  20000.000  20000.000      0.187      5.196      0.141     48.906      7.909      0.284     38.869      0.309     29.213      2.224     -0.406
  2995.0000      7.958      7.882     66.752  20000.000  20000.000      0.187      4.436      0.135     52.005      7.937      0.283     40.890      0.328     29.088      2.226     -0.406
